[{"id":0,"company":"Remke- Hyde Park","address":"3872 Paxton Avenue, Cincinnati, OH 45209","lat":39.145987,"lng":-84.430102,"bar/restaurant or carry-out":"Carry-out"},
{"id":1,"company":"Remke- Ridge","address":"3240 Highland Ave, Cincinnati, OH 45213","lat":39.16936,"lng":-84.428537,"bar/restaurant or carry-out":"Carry-out"},
{"id":2,"company":"Great American Ballpark","address":"100 Main St., Cincinnati, OH 45202","lat":39.097856,"lng":-84.508025,"bar/restaurant or carry-out":"Bar/Restaurant"},
{"id":3,"company":"Remke - Beechmont","address":"5218 Beechmont Ave., Cincinnati, OH 45230","lat":39.106955,"lng":-84.395436,"bar/restaurant or carry-out":"Carry-out"},
{"id":4,"company":"Trader Joe's-669-Cincinnati","address":"7788 Montgomery Rd, Cincinnati, OH 45236","lat":39.197822,"lng":-84.381821,"bar/restaurant or carry-out":"Carry-out"},
{"id":5,"company":"Trader Joe's-673-Dayton","address":"328 E. Stroop Rd., Kettering, OH 45429","lat":39.688436,"lng":-84.166278,"bar/restaurant or carry-out":"Carry-out"},
{"id":6,"company":"Cincinnati Marriott North","address":"6189 Mulhauser Rd., West Chester, OH 45069","lat":39.320615,"lng":-84.43034,"bar/restaurant or carry-out":"Bar/Restaurant"},
{"id":7,"company":"MVP Sports Bar and Grille ","address":"6923 Plainfield Rd., Silverton, OH 45236","lat":39.194475,"lng":-84.400619,"bar/restaurant or carry-out":"Bar/Restaurant"},
{"id":8,"company":"Nativity Parish ","address":"5935 Pandora Ave, Cincinnati, OH 45213","lat":39.180424,"lng":-84.426952,"bar/restaurant or carry-out":"Bar/Restaurant"},
{"id":9,"company":"Remke - Western Hills","address":"5071 Glencrossing Way, Cincinnati, OH 45238","lat":39.12991,"lng":-84.612396,"bar/restaurant or carry-out":"Carry-out"},
{"id":10,"company":"Cincinnati Gardens","address":"2250 Seymour Ave., Cincinnati, OH 45212","lat":39.181022,"lng":-84.455593,"bar/restaurant or carry-out":"Bar/Restaurant"},
{"id":11,"company":"Kroger 426 - ST RT 741","address":"5210 State Route 741, Mason, OH 45040","lat":39.358538,"lng":-84.278144,"bar/restaurant or carry-out":"Carry-out"},
{"id":12,"company":"Kroger 433 - Springfield Pike","address":"10595 Springfield Pike, Cincinnati, OH 45215","lat":39.259645,"lng":-84.471097,"bar/restaurant or carry-out":"Carry-out"},
{"id":13,"company":"Kroger 429 - Sharonville","address":"12164 Lebanon Road, Sharonville, OH 45241","lat":39.296492,"lng":-84.390459,"bar/restaurant or carry-out":"Carry-out"},
{"id":14,"company":"Kroger 431 - Cherry Grove","address":"450 Ohio Pike SR 125, Cincinnati, OH 45255","lat":38.855116,"lng":-83.855376,"bar/restaurant or carry-out":"Carry-out"},
{"id":15,"company":"Hangover Easy - Clifton","address":"13 W Charlton St., Cincinnati, OH 45219","lat":39.130208,"lng":-84.510166,"bar/restaurant or carry-out":"Bar/Restaurant"},
{"id":16,"company":"Buffalo Wings and Rings Centerville","address":"94 S. MAIN STREET, CENTERVILLE, OH 45459","lat":39.630856,"lng":-84.158311,"bar/restaurant or carry-out":"Bar/Restaurant"},
{"id":17,"company":"Grammers","address":"1440 Walnut St., Cincinnati, OH 45202","lat":39.112177,"lng":-84.514074,"bar/restaurant or carry-out":"Bar/Restaurant"},
{"id":18,"company":"Kroger 384 - Winton Rd","address":"8421 Winton Road, Cincinnati, OH 45231","lat":39.22068,"lng":-84.519182,"bar/restaurant or carry-out":"Carry-out"},
{"id":19,"company":"Bottle No. 121","address":"121 Public Square NE, Troy, OH 45373","lat":40.039939,"lng":-84.202512,"bar/restaurant or carry-out":"Carry-out"},
{"id":20,"company":"Kroger 370 - N. Bend","address":"3491 N. Bend Rd., Cincinnati, OH 45239","lat":39.190033,"lng":-84.59957,"bar/restaurant or carry-out":"Carry-out"},
{"id":21,"company":"Remke - Delhi","address":"5025 Delhi Rd., Cincinnati, OH 45238","lat":39.095186,"lng":-84.610423,"bar/restaurant or carry-out":"Carry-out"},
{"id":22,"company":"Kroger 438 - Mt Washington","address":"2120 Beechmont Ave, Cincinnati, OH 45230","lat":39.094972,"lng":-84.387106,"bar/restaurant or carry-out":"Carry-out"},
{"id":23,"company":"Buffalo Wild Wings - West Chester ","address":"9243 Schulze Dr., West Chester, OH 45069","lat":39.322514,"lng":-84.427959,"bar/restaurant or carry-out":"Bar/Restaurant"},
{"id":24,"company":"Dewey's Pizza - Dayton","address":"131 Jasper St, Dayton, OH 45409","lat":39.741878,"lng":-84.183215,"bar/restaurant or carry-out":"Bar/Restaurant"},
{"id":25,"company":"Iron Horse ","address":"40 Village Square, Cincinnati, OH 45246","lat":39.27162,"lng":-84.459091,"bar/restaurant or carry-out":"Bar/Restaurant"},
{"id":26,"company":"Quarter Barrel ","address":"107 E. Church St., Oxford, OH 45056","lat":39.511311,"lng":-84.740336,"bar/restaurant or carry-out":"Bar/Restaurant"},
{"id":27,"company":"Shooters Sports Grill ","address":"780 Loveland-Miamiville Rd, Loveland, OH 45140","lat":39.228301,"lng":-84.259338,"bar/restaurant or carry-out":"Bar/Restaurant"},
{"id":28,"company":"DiStasi's Restaurant & Banquet Center ","address":"400 Wyoming Avenue, Wyoming, OH 45215","lat":39.227577,"lng":-84.466455,"bar/restaurant or carry-out":"Bar/Restaurant"},
{"id":29,"company":"Kroger 428 - Kenard","address":"4777 Kenard Ave., Cincinnati, OH 45232","lat":39.164238,"lng":-84.514394,"bar/restaurant or carry-out":"Carry-out"},
{"id":30,"company":"Shanghai Mamas","address":"216 E Sixth St., Cincinnati, OH 45202","lat":39.103267,"lng":-84.509423,"bar/restaurant or carry-out":"Bar/Restaurant"},
{"id":31,"company":"Four Bridges Country Club","address":"8300 Four Bridges Clubhouse, Middletown, OH 45044","lat":39.515058,"lng":-84.398276,"bar/restaurant or carry-out":"Bar/Restaurant"},
{"id":32,"company":"Country Fresh Farm Market - Hartwell","address":"8425 Vine St., Cincinnati, OH 45216","lat":39.216467,"lng":-84.473769,"bar/restaurant or carry-out":"Carry-out"},
{"id":33,"company":"Benchmark Outfitters","address":"9525 Kenwood Rd., Cincinnati, OH 45242","lat":39.230672,"lng":-84.37849,"bar/restaurant or carry-out":"Carry-out"},
{"id":34,"company":"Kroger 948 - Glenway","address":"6165 Glenway Ave, Cincinnati, OH 45211","lat":39.142234,"lng":-84.619422,"bar/restaurant or carry-out":"Carry-out"},
{"id":35,"company":"Wine Works","address":"1550 Commerce Road, Springfield, OH 45504","lat":39.936427,"lng":-83.835833,"bar/restaurant or carry-out":"Carry-out"},
{"id":36,"company":"Mazunte","address":"5207 Madison Rd., Cincinnati, OH 45227","lat":39.161295,"lng":-84.405165,"bar/restaurant or carry-out":"Bar/Restaurant"},
{"id":37,"company":"Cabana's on the River ","address":"7447 Forbes Rd., Cincinnati, OH 45233","lat":39.127023,"lng":-84.706642,"bar/restaurant or carry-out":"Bar/Restaurant"},
{"id":38,"company":"Kroger 407 - W Corry ST","address":"1 West Corry ST, Cincinnati, OH 45219","lat":39.128541,"lng":-84.508824,"bar/restaurant or carry-out":"Carry-out"},
{"id":39,"company":"Kroger 413 - Loveland-Maderia","address":"800 Loveland-Maderia RD, Loveland, OH 45140","lat":39.261418,"lng":-84.273236,"bar/restaurant or carry-out":"Carry-out"},
{"id":40,"company":"Mason Pub & Patio ","address":"753 Reading Rd., Mason, OH 45040","lat":39.349309,"lng":-84.326081,"bar/restaurant or carry-out":"Bar/Restaurant"},
{"id":41,"company":"Dean's Hops & Vines","address":"3722 Harrison Ave., Cincinnati, OH 45211","lat":39.156645,"lng":-84.612141,"bar/restaurant or carry-out":"Bar/Restaurant"},
{"id":42,"company":"Kroger 411 - Main ST","address":"824 Main Street, Milford, OH 45150","lat":39.177715,"lng":-84.281066,"bar/restaurant or carry-out":"Carry-out"},
{"id":43,"company":"Kroger 935 - Bellbrook","address":"6480 Wilmington Pike, Centerville, OH 45459","lat":39.639872,"lng":-84.108588,"bar/restaurant or carry-out":"Carry-out"},
{"id":44,"company":"Miami Valley Wine","address":"943 W. Main, Tipp City, OH 45371","lat":39.960886,"lng":-84.184463,"bar/restaurant or carry-out":"Carry-out"},
{"id":45,"company":"50 West Brewing Company","address":"7668 Wooster Pike, Cincinnati, OH 45227","lat":39.138508,"lng":-84.35273,"bar/restaurant or carry-out":"Bar/Restaurant"},
{"id":46,"company":"Buffalo Wild Wings - Troy","address":"2313 W. Main St., Troy, OH 45373","lat":40.058537,"lng":-84.246724,"bar/restaurant or carry-out":"Bar/Restaurant"},
{"id":47,"company":"Champions ","address":"3670 Werk Rd., Cincinnati, OH 45238","lat":39.14424,"lng":-84.626323,"bar/restaurant or carry-out":"Bar/Restaurant"},
{"id":48,"company":"Cincy By The Slice ","address":"1207 Main St., Cincinnati, OH 45202","lat":39.109016,"lng":-84.511907,"bar/restaurant or carry-out":"Bar/Restaurant"},
{"id":49,"company":"City View Tavern","address":"403 Oregon St., Cincinnati, OH 45202","lat":39.106009,"lng":-84.501076,"bar/restaurant or carry-out":"Bar/Restaurant"},
{"id":50,"company":"Filling Station-Troy","address":"2331 W st rt 55, Troy, OH 45373","lat":40.059548,"lng":-84.068057,"bar/restaurant or carry-out":"Bar/Restaurant"},
{"id":51,"company":"Mitchell's Fish Market ","address":"9456 Waterfront Dr., West Chester, OH 45069","lat":39.302665,"lng":-84.408274,"bar/restaurant or carry-out":"Bar/Restaurant"},
{"id":52,"company":"Submarine House - Troy","address":"14 N. Market St., Troy, OH 45373","lat":40.04043,"lng":-84.203126,"bar/restaurant or carry-out":"Bar/Restaurant"},
{"id":53,"company":"TJ Chumps - Englewood","address":"559 S Main St., Englewood, OH 45322","lat":39.869827,"lng":-84.29492,"bar/restaurant or carry-out":"Bar/Restaurant"},
{"id":54,"company":"TJ Chumps - Miamisburg","address":"12 E Linden Ave., Miamisburg, OH 45342","lat":39.63989,"lng":-84.289255,"bar/restaurant or carry-out":"Bar/Restaurant"},
{"id":55,"company":"Tuty's Inn","address":"3982 Colonel Glenn Hwy, Beavercreek, OH 45324","lat":39.775253,"lng":-84.078973,"bar/restaurant or carry-out":"Bar/Restaurant"},
{"id":56,"company":"311 Drafthouse","address":"311 N Main St., Piqua, OH 45356","lat":40.149866,"lng":-84.239626,"bar/restaurant or carry-out":"Bar/Restaurant"},
{"id":57,"company":"Mojo - Troy","address":"109 E Main St., Troy, OH 45373","lat":40.03905,"lng":-84.201971,"bar/restaurant or carry-out":"Bar/Restaurant"},
{"id":58,"company":"Kroger 914 - Troy","address":"751 West Market Street, Troy, OH 45373","lat":40.030714,"lng":-84.22243,"bar/restaurant or carry-out":"Carry-out"},
{"id":59,"company":"Kroger 932 - Piqua","address":"1510 Covington Ave, Piqua, OH 45356","lat":40.141664,"lng":-84.266068,"bar/restaurant or carry-out":"Carry-out"},
{"id":60,"company":"Kroger 945 - West Chester","address":"7855 Tylersville Rd, West Chester, OH 45069","lat":39.352635,"lng":-84.362968,"bar/restaurant or carry-out":"Carry-out"},
{"id":61,"company":"Sullivan's Family Foods Inc.","address":"3803 Shady Lane, North Bend, OH 45052","lat":39.164716,"lng":-84.699595,"bar/restaurant or carry-out":"Carry-out"},
{"id":62,"company":"Yesterday's","address":"930 Hatch St., Cincinnati, OH 45202","lat":39.109508,"lng":-84.497792,"bar/restaurant or carry-out":"Bar/Restaurant"},
{"id":63,"company":"Victoria Theatre Association","address":"138 N Main St., Dayton, OH 45402","lat":39.762146,"lng":-84.191932,"bar/restaurant or carry-out":"Bar/Restaurant"},
{"id":64,"company":"Kroger 812 - Whipp Rd","address":"2100 Whipp Rd, Kettering, OH 45440","lat":39.661454,"lng":-84.129779,"bar/restaurant or carry-out":"Carry-out"},
{"id":65,"company":"West Side Drive Through","address":"2495 W Main St, Troy, OH 45373","lat":40.059802,"lng":-84.248623,"bar/restaurant or carry-out":"Carry-out"},
{"id":66,"company":"Chappy's - Milford ","address":"227 Main St., Milford, OH 45150","lat":39.174546,"lng":-84.295571,"bar/restaurant or carry-out":"Bar/Restaurant"},
{"id":67,"company":"Crazy Mango","address":"81 Magnolia Lane, Beavercreek, OH 45440","lat":39.693657,"lng":-84.100252,"bar/restaurant or carry-out":"Bar/Restaurant"},
{"id":68,"company":"Irish Heritage Center","address":"3905 Eastern Ave., Cincinnati, OH 45226","lat":39.109991,"lng":-84.433924,"bar/restaurant or carry-out":"Carry-out"},
{"id":69,"company":"Logos Sports Bar","address":"8954 Blue Ash Rd., Cincinnati, OH 45242","lat":39.220639,"lng":-84.383989,"bar/restaurant or carry-out":"Bar/Restaurant"},
{"id":70,"company":"Pirates Den ","address":"3670 Werk Rd., Cincinnati, OH 45238","lat":39.14424,"lng":-84.626323,"bar/restaurant or carry-out":"Bar/Restaurant"},
{"id":71,"company":"Tom's Deli","address":"12389 Milton Carlislie Rd., New Carlislie, OH 45344","lat":39.935258,"lng":-84.043406,"bar/restaurant or carry-out":"Bar/Restaurant"},
{"id":72,"company":"Capital Grille - Norwood","address":"3821 Edwards Rd., Norwood, OH 45209","lat":39.148933,"lng":-84.442861,"bar/restaurant or carry-out":"Bar/Restaurant"},
{"id":73,"company":"Jeff Ruby's ","address":"700 Walnut St., Cincinnati, OH 45202","lat":39.104144,"lng":-84.511772,"bar/restaurant or carry-out":"Bar/Restaurant"},
{"id":74,"company":"Joey's Deli ","address":"315 W. McMillan, Cincinnati, OH 45219","lat":39.127884,"lng":-84.523415,"bar/restaurant or carry-out":"Bar/Restaurant"},
{"id":75,"company":"Kroger 305 - Old St Rt","address":"550 Old St RTE 74, Cincinnati, OH 45244","lat":39.105607,"lng":-84.521521,"bar/restaurant or carry-out":"Carry-out"},
{"id":76,"company":"Kroger 825 - E. Dorothy Lane","address":"2115 E. Dorothy Lane, Kettering, OH 45420","lat":39.704108,"lng":-84.124565,"bar/restaurant or carry-out":"Carry-out"},
{"id":77,"company":"Kroger 829 - Xenia","address":"1700 W Park Square, Xenia, OH 45385","lat":39.707981,"lng":-83.935969,"bar/restaurant or carry-out":"Carry-out"},
{"id":78,"company":"Mt. Repose Carryout","address":"1222 Goshen Pike, Milford, OH 45150","lat":39.168791,"lng":-84.2663,"bar/restaurant or carry-out":"Carry-out"},
{"id":79,"company":"One Stop Drive Thru","address":"211 S Market St., Troy, OH 45373","lat":40.03712,"lng":-84.204709,"bar/restaurant or carry-out":"Carry-out"},
{"id":80,"company":"Piqua Beverage Center","address":"633 W High ST, Piqua, OH 45356","lat":40.148223,"lng":-84.248179,"bar/restaurant or carry-out":"Carry-out"},
{"id":81,"company":"Rusty Bucket - Hyde Park","address":"2692 Madison Rd., Cincinnati, OH 45208","lat":39.145753,"lng":-84.443891,"bar/restaurant or carry-out":"Bar/Restaurant"},
{"id":82,"company":"Sandbar, The ","address":"4609 Kellogg Ave, Cincinnati, OH 45226","lat":39.085284,"lng":-84.427714,"bar/restaurant or carry-out":"Bar/Restaurant"},
{"id":83,"company":"Tostados Grill","address":"3500 Eastern Ave., Cincinnati, OH 45226","lat":39.116518,"lng":-84.439344,"bar/restaurant or carry-out":"Bar/Restaurant"},
{"id":84,"company":"West Milton IGA","address":"1177 S. Miami St, West Milton, OH 45383","lat":39.943647,"lng":-84.320657,"bar/restaurant or carry-out":"Carry-out"},
{"id":85,"company":"Murphey's Landing ","address":"1054 Central Ave., Middletown, OH 45044","lat":39.516206,"lng":-84.403826,"bar/restaurant or carry-out":"Bar/Restaurant"},
{"id":86,"company":"Babe's Café ","address":"3389 Glenmore Ave, Cincinnati, OH 45211","lat":39.149025,"lng":-84.613184,"bar/restaurant or carry-out":"Bar/Restaurant"},
{"id":87,"company":"Century Bar","address":"10 S Jefferson St, Dayton, OH 45402","lat":39.759556,"lng":-84.189937,"bar/restaurant or carry-out":"Bar/Restaurant"},
{"id":88,"company":"Elks Run Golf Course","address":"2000 Elklick Rd., Batavia, OH 45103","lat":39.059918,"lng":-84.165741,"bar/restaurant or carry-out":"Bar/Restaurant"},
{"id":89,"company":"Kroger 754 - Brandt Pike","address":"4506 Brandt Pike, Dayton, OH 45424","lat":39.817536,"lng":-84.125437,"bar/restaurant or carry-out":"Carry-out"},
{"id":90,"company":"Kroger 832 - Bechtle Ave","address":"965 N Bechtle Ave, Springfield, OH 45504","lat":39.9384,"lng":-83.836754,"bar/restaurant or carry-out":"Carry-out"},
{"id":91,"company":"Kroger 934 - Erie Blvd","address":"1450 S Erie Blvd, Hamilton, OH 45011","lat":39.381235,"lng":-84.54968,"bar/restaurant or carry-out":"Carry-out"},
{"id":92,"company":"Village Wine Cellars ","address":"42 E Mulberry St, Lebanon, OH 45036","lat":39.434475,"lng":-84.207238,"bar/restaurant or carry-out":"Bar/Restaurant"},
{"id":93,"company":"Cadillac Jack's - Beavercreek","address":"2760 Towne Dr., Beavercreek, OH 45431","lat":39.768605,"lng":-84.050245,"bar/restaurant or carry-out":"Bar/Restaurant"},
{"id":94,"company":"Hickory BBQ","address":"1082 Brown St., Dayton, OH 45409","lat":39.743278,"lng":-84.182556,"bar/restaurant or carry-out":"Bar/Restaurant"},
{"id":95,"company":"Leaf and Vine","address":"108 W Main St, Troy, OH 45373","lat":40.040169,"lng":-84.204615,"bar/restaurant or carry-out":"Bar/Restaurant"},
{"id":96,"company":"Murphey's Pub","address":"229 N. Belmont Ave., Springfield, OH 45503","lat":39.925849,"lng":-83.779603,"bar/restaurant or carry-out":"Bar/Restaurant"},
{"id":97,"company":"Station 1","address":"325 N. Fountain Ave, Springfield, OH 45504","lat":39.928838,"lng":-83.810189,"bar/restaurant or carry-out":"Carry-out"},
{"id":98,"company":"Sungs Korean Bistro ","address":"700 Elm St., Cincinnati, OH 45202","lat":39.103328,"lng":-84.516783,"bar/restaurant or carry-out":"Bar/Restaurant"},
{"id":99,"company":"The Junction","address":"41 N. Court St., Athens, OH 44256","lat":39.330528,"lng":-82.101085,"bar/restaurant or carry-out":"Carry-out"},
{"id":100,"company":"Beverage Palace","address":"8980 Kingsridge Dr., Dayton, OH 45458","lat":39.629852,"lng":-84.224124,"bar/restaurant or carry-out":"Carry-out"},
{"id":101,"company":"BJ's - Tri-County","address":"11700 Princeton Pike, Cincinnati, OH 45246","lat":39.288998,"lng":-84.463481,"bar/restaurant or carry-out":"Bar/Restaurant"},
{"id":102,"company":"Black Sheep Public House ","address":"3807 N. Bend Rd., Cheviot, OH 45211","lat":39.155761,"lng":-84.606422,"bar/restaurant or carry-out":"Bar/Restaurant"},
{"id":103,"company":"Bucketheads","address":"6507 Harrison Ave., Cincinnati, OH 45247","lat":39.191866,"lng":-84.660019,"bar/restaurant or carry-out":"Bar/Restaurant"},
{"id":104,"company":"Buffalo Wild Wings - Norwood","address":"2692 Madison Rd., Norwood, OH 45208","lat":39.145753,"lng":-84.443891,"bar/restaurant or carry-out":"Bar/Restaurant"},
{"id":105,"company":"Five Mile Marathon","address":"6790 Kellogg Ave., Cincinnati, OH 45230","lat":39.056007,"lng":-84.417468,"bar/restaurant or carry-out":"Carry-out"},
{"id":106,"company":"Kroger 835 - E Main","address":"2728 East Main Street, Springfield, OH 45503","lat":39.923673,"lng":-83.765576,"bar/restaurant or carry-out":"Carry-out"},
{"id":107,"company":"Kroger 944 - Delhi Pike","address":"5080 Delhi Pike, Cincinnati, OH 45238","lat":39.094888,"lng":-84.612961,"bar/restaurant or carry-out":"Carry-out"},
{"id":108,"company":"McCauley's Carry Out","address":"6788 Fields Ertel Rd., Sharonville, OH 45241","lat":39.293337,"lng":-84.361966,"bar/restaurant or carry-out":"Carry-out"},
{"id":109,"company":"Oddhouse","address":"1268 E. Central Ave., Miamisburg, OH 45342","lat":39.640311,"lng":-84.265648,"bar/restaurant or carry-out":"Bar/Restaurant"},
{"id":110,"company":"Scoreboard ","address":"3783 Shady Lane, North Bend, OH 45052","lat":39.164008,"lng":-84.699674,"bar/restaurant or carry-out":"Bar/Restaurant"},
{"id":111,"company":"Shell - Fields Ertel","address":"7555 Fields Ertel Rd., Cincinnati, OH 45241","lat":39.290243,"lng":-84.354676,"bar/restaurant or carry-out":"Carry-out"},
{"id":112,"company":"Straights of Malacca","address":"202 W Main St., Mason, OH 45040","lat":39.360579,"lng":-84.310747,"bar/restaurant or carry-out":"Bar/Restaurant"},
{"id":113,"company":"The H Bar","address":"7236 Ohio Ave., Silverton, OH 45236","lat":39.200874,"lng":-84.404083,"bar/restaurant or carry-out":"Bar/Restaurant"},
{"id":114,"company":"Tipp Foodtown","address":"960 W. Main St., Tipp City, OH 45371","lat":39.96085,"lng":-84.18491,"bar/restaurant or carry-out":"Carry-out"},
{"id":115,"company":"Willie's Sports Café -Western Hills ","address":"6380 Glenway Ave., Cincinnati, OH 45211","lat":39.149449,"lng":-84.626546,"bar/restaurant or carry-out":"Bar/Restaurant"},
{"id":116,"company":"202 Drive Thru","address":"9997 Troy Pike, Huber Heights, OH 45371","lat":39.884712,"lng":-84.136131,"bar/restaurant or carry-out":"Carry-out"},
{"id":117,"company":"Action GBW (Sunoco)","address":"201 Staunton Rd, Troy, OH 45373","lat":40.043281,"lng":-84.196218,"bar/restaurant or carry-out":"Carry-out"},
{"id":118,"company":"Anthony's ","address":"7641 Voice of America Center, West Chester, OH 45069","lat":39.353307,"lng":-84.361798,"bar/restaurant or carry-out":"Bar/Restaurant"},
{"id":119,"company":"Brewhouse Drive Thru","address":"488 E Broadway, Covington, OH 45318","lat":40.122487,"lng":-84.346524,"bar/restaurant or carry-out":"Carry-out"},
{"id":120,"company":"Central Liquors","address":"9908 Colerain Avenue, Cincinnati, OH 45251","lat":39.252039,"lng":-84.598261,"bar/restaurant or carry-out":"Carry-out"},
{"id":121,"company":"Kroger 907 - City of Harrison","address":"10515 Harrison Av, Harrison, OH 45030","lat":39.25421,"lng":-84.796926,"bar/restaurant or carry-out":"Carry-out"},
{"id":122,"company":"LaRosa's - Anderson ","address":"7756 Beechmont Ave., Cincinnati, OH 45230","lat":39.073118,"lng":-84.34273,"bar/restaurant or carry-out":"Bar/Restaurant"},
{"id":123,"company":"LaRosa's - Landen ","address":"3123 State Route 22 & 3, Maineville, OH 45039","lat":39.317002,"lng":-84.256846,"bar/restaurant or carry-out":"Bar/Restaurant"},
{"id":124,"company":"Main Drive Through","address":"3401 N Main St, Dayton, OH 45405","lat":39.796912,"lng":-84.217507,"bar/restaurant or carry-out":"Carry-out"},
{"id":125,"company":"Marathon - Camargo","address":"8103 Camargo Rd., Madeira, OH 45243","lat":39.190702,"lng":-84.354202,"bar/restaurant or carry-out":"Carry-out"},
{"id":126,"company":"Minnick's Drive Thru","address":"2537 Pleasant Ave., Hamilton, OH 45015","lat":39.371051,"lng":-84.557757,"bar/restaurant or carry-out":"Carry-out"},
{"id":127,"company":"Shell - Shroyer Rd.","address":"3960 Far Hills Ave., Kettering, OH 45429","lat":39.690017,"lng":-84.168326,"bar/restaurant or carry-out":"Carry-out"},
{"id":128,"company":"Smoke n Save","address":"415 Sycamore St., New Richmond, OH 45157","lat":38.955025,"lng":-84.282241,"bar/restaurant or carry-out":"Carry-out"},
{"id":129,"company":"Tano Bistro & Catering ","address":"204 W. Loveland Ave, Loveland, OH 45140","lat":39.268168,"lng":-84.258785,"bar/restaurant or carry-out":"Bar/Restaurant"},
{"id":130,"company":"Venue 222","address":"222 E 14th St., Cincinnati, OH 45202","lat":39.111544,"lng":-84.511143,"bar/restaurant or carry-out":"Bar/Restaurant"},
{"id":131,"company":"Vyrsd","address":"435 Elm St., Cincinnati, OH 45205","lat":39.100147,"lng":-84.516275,"bar/restaurant or carry-out":"Bar/Restaurant"},
{"id":132,"company":"Z Wine and Cheese Place","address":"7823 Cooper Rd., Montgomery, OH 45242","lat":39.226559,"lng":-84.355198,"bar/restaurant or carry-out":"Carry-out"},
{"id":133,"company":"KROGER 423 (G) NEWPORT","address":"130 Pavilion Pkwy, Newport, KY 41071","lat":39.090426,"lng":-84.478061,"bar/restaurant or carry-out":"Carry-out"},
{"id":134,"company":"KROGER 466 (L) FLORENCE","address":"7695 Mall Rd, Florence, KY 41042","lat":38.998798,"lng":-84.653623,"bar/restaurant or carry-out":"Carry-out"},
{"id":135,"company":"KROGER 477(G)FT MITCHELL","address":"2156 Dixie Hwy, Fort Mitchell, KY 41017","lat":39.049337,"lng":-84.551565,"bar/restaurant or carry-out":"Carry-out"},
{"id":136,"company":"BROTHERS","address":"1 Levee Way, Newport, KY 41071","lat":39.095001,"lng":-84.496808,"bar/restaurant or carry-out":"Bar/Restaurant"},
{"id":137,"company":"KROGER 424 (L) UNION","address":"8835 Old US Highway 42, Florence, Kentucky 41042","lat":38.967782,"lng":-84.673615,"bar/restaurant or carry-out":"Carry-out"},
{"id":138,"company":"KROGER 477(L)FT MITCHELL","address":"2158 Dixie Hwy, Fort Mitchell, KY 41017","lat":39.049282,"lng":-84.551578,"bar/restaurant or carry-out":"Carry-out"},
{"id":139,"company":"LONGNECKS SPORTS (WILDER)","address":"1009 Town Dr, Wilder, KY 41076","lat":39.020384,"lng":-84.483994,"bar/restaurant or carry-out":"Bar/Restaurant"},
{"id":140,"company":"KROGER 409 (G) HEBRON","address":"3105 N Bend Rd, Hebron, KY 41048","lat":39.06585,"lng":-84.703247,"bar/restaurant or carry-out":"Carry-out"},
{"id":141,"company":"KROGER 409 (L) HEBRON","address":"3115 N Bend Rd, Hebron, KY 41048","lat":39.064399,"lng":-84.706161,"bar/restaurant or carry-out":"Carry-out"},
{"id":142,"company":"MADISON THEATER","address":"730 Madison Ave, Covington, KY 41011","lat":39.082649,"lng":-84.509847,"bar/restaurant or carry-out":"Bar/Restaurant"},
{"id":143,"company":"DEWEY'S PIZZA (NEWPORT)","address":"1 Levee Way #3100, Newport, Kentucky 41071","lat":39.095001,"lng":-84.496808,"bar/restaurant or carry-out":"Bar/Restaurant"},
{"id":144,"company":"RIVER ROCK BAR & GRILL","address":"1 Levee Way #2118, Newport, KY 41071","lat":39.095001,"lng":-84.496808,"bar/restaurant or carry-out":"Bar/Restaurant"},
{"id":145,"company":"ZOLA RESTAURANT","address":"626 Main St, Dayton, KY 41074","lat":39.113461,"lng":-84.468425,"bar/restaurant or carry-out":"Bar/Restaurant"},
{"id":146,"company":"STEPHENSON MILL TAVERN &","address":"1405 Dixie Hwy, Covington, KY 41011","lat":39.07178,"lng":-84.526276,"bar/restaurant or carry-out":"Bar/Restaurant"},
{"id":147,"company":"KROGER 367 (L) WALTON","address":"625 Chestnut Way, Newport, KY 41071","lat":39.087417,"lng":-84.502329,"bar/restaurant or carry-out":"Carry-out"},
{"id":148,"company":"KROGER 475 (G) INDEPEND","address":"1900 Declaration Dr, Independence, KY 41051","lat":38.931306,"lng":-84.54796,"bar/restaurant or carry-out":"Carry-out"},
{"id":149,"company":"GAMEWORKS","address":"1 Levee Way, Newport, KY 41071","lat":39.095001,"lng":-84.496808,"bar/restaurant or carry-out":"Bar/Restaurant"},
{"id":150,"company":"LONGNECKS'S BAR (HEBRON)","address":"2141 N Bend Rd, Hebron, KY 41048","lat":39.084497,"lng":-84.711567,"bar/restaurant or carry-out":"Bar/Restaurant"},
{"id":151,"company":"BUCKHEAD'S MTN GRILL (NO)","address":"35 Fairfield Ave, Bellevue, KY 41073","lat":39.102283,"lng":-84.488132,"bar/restaurant or carry-out":"Bar/Restaurant"},
{"id":152,"company":"GARZELLI'S GRINDERS PIZZA","address":"3025 Dixie Hwy, Edgewood, KY 41017","lat":39.020567,"lng":-84.586387,"bar/restaurant or carry-out":"Bar/Restaurant"},
{"id":153,"company":"CLADDAGH IRISH PUB","address":"1 Levee Way #2122, Newport, KY 41071","lat":39.095001,"lng":-84.496808,"bar/restaurant or carry-out":"Bar/Restaurant"},
{"id":154,"company":"KROGER 392 (L) LATONIA","address":"4303 Winston Ave, Covington, KY 41015","lat":39.042244,"lng":-84.509527,"bar/restaurant or carry-out":"Carry-out"},
{"id":155,"company":"KROGER 367 (G) WALTON","address":"635 Chestnut Dr, Walton, KY 41094","lat":38.856571,"lng":-84.617041,"bar/restaurant or carry-out":"Carry-out"},
{"id":156,"company":"RABBIT HASH GENERAL STORE","address":"10021 Lower River Rd, Burlington, KY 41005","lat":38.942134,"lng":-84.846271,"bar/restaurant or carry-out":"Carry-out"},
{"id":157,"company":"KROGER 901 (G) SILV LAKE","address":"3158 Dixie Hwy, Erlanger, KY 41018","lat":39.019874,"lng":-84.593477,"bar/restaurant or carry-out":"Carry-out"},
{"id":158,"company":"KROGER 410(G)COLDSPRINGS","address":"375 Cross Roads Blvd, Cold Spring, KY 41076","lat":39.006222,"lng":-84.420942,"bar/restaurant or carry-out":"Carry-out"},
{"id":159,"company":"ALEXANDRIA CO MARKET","address":"7109 Alexandria Pike, Alexandria, KY 41001","lat":38.985605,"lng":-84.399465,"bar/restaurant or carry-out":"Carry-out"},
{"id":160,"company":"KROGER 434 (G)BURLINGTON","address":"1751 Patrick Dr, Burlington, KY 41005","lat":39.018768,"lng":-84.690972,"bar/restaurant or carry-out":"Carry-out"},
{"id":161,"company":"DEE FELICE CAFE","address":"529 Main St, Covington, KY 41011","lat":39.084346,"lng":-84.517534,"bar/restaurant or carry-out":"Bar/Restaurant"},
{"id":162,"company":"NEWPORT FOODMART","address":"2114 Monmouth St, Newport, KY 41071","lat":39.077213,"lng":-84.479011,"bar/restaurant or carry-out":"Carry-out"},
{"id":163,"company":"IZZY'S","address":"1965 Highland Ave, Fort Wright, KY 41017","lat":39.036285,"lng":-84.533136,"bar/restaurant or carry-out":"Bar/Restaurant"},
{"id":164,"company":"AVENUE BREW","address":"310 Fairfield Ave, Bellevue, KY 41073","lat":39.10594,"lng":-84.483579,"bar/restaurant or carry-out":"Bar/Restaurant"},
{"id":165,"company":"SOUTHERN SMOKE BBQ LLC","address":"15 East 7th Street  Newport, KY 41071","lat":39.090034,"lng":-84.493403,"bar/restaurant or carry-out":"Bar/Restaurant"},
{"id":166,"company":"WALGREENS CENTENNIAL BLVD","address":"2005 Centennial Blvd, Independence, KY 41051","lat":38.929552,"lng":-84.544354,"bar/restaurant or carry-out":"Carry-out"},
{"id":167,"company":"RED ROBIN GOURMET BURGERS","address":"7250 Houston Rd, Florence, KY 41042","lat":39.004976,"lng":-84.652999,"bar/restaurant or carry-out":"Bar/Restaurant"},
{"id":168,"company":"KROGER 381 (G) MADISON","address":"1525 Madison Ave, Covington, KY 41011","lat":39.072981,"lng":-84.5081,"bar/restaurant or carry-out":"Carry-out"},
{"id":169,"company":"DIXIE STATION","address":"4351 Dixie Hwy, Elsmere, KY 41018","lat":39.008227,"lng":-84.610986,"bar/restaurant or carry-out":"Bar/Restaurant"},
{"id":170,"company":"TONY OLE SALOON","address":"613 Berry Ave, Bellevue, KY 41073","lat":39.098421,"lng":-84.479417,"bar/restaurant or carry-out":"Bar/Restaurant"},
{"id":171,"company":"KREMER'S MARKET","address":"755 Buttermilk Pike, Crescent Springs, KY 41017","lat":39.055128,"lng":-84.583632,"bar/restaurant or carry-out":"Carry-out"},
{"id":172,"company":"HIGHLAND COUNTRY CLUB","address":"Alexandria Ave, Covington, KY 41015","lat":39.051489,"lng":-84.514447,"bar/restaurant or carry-out":"Bar/Restaurant"},
{"id":173,"company":"COLLETT'S","address":"7816 U.S. 42, Florence, KY 41042","lat":38.990102,"lng":-84.637711,"bar/restaurant or carry-out":"Bar/Restaurant"},
{"id":174,"company":"TRIPLE CROWN COUNTRY CLUB","address":"1 Triple Crown Cir, Springboro, OH 45066","lat":39.555859,"lng":-84.222501,"bar/restaurant or carry-out":"Bar/Restaurant"},
{"id":175,"company":"CRAZY FOX SALOON","address":"Washington Ave & E 9th St, Newport, KY 41071","lat":39.089643,"lng":-84.487778,"bar/restaurant or carry-out":"Bar/Restaurant"},
{"id":176,"company":"MAC'S LIQUOR AND WINE","address":"Kentucky 14 & Interstate 75, Walton, KY 41094","lat":38.861148,"lng":-84.622749,"bar/restaurant or carry-out":"Carry-out"},
{"id":177,"company":"ZZ-Public Sale","address":"add .065% sales tax, NA, NA 45242","lat":39.236436,"lng":-84.36472,"bar/restaurant or carry-out":"carry-out"},
{"id":178,"company":"Shell - Harrison","address":"9990 Harrison Ave, Cincinnati, OH 45030","lat":39.198477,"lng":-84.671403,"bar/restaurant or carry-out":"carry-out"},
{"id":179,"company":"Kroger 351 - Montgomery","address":"9939 Montgomery Rd., Montgomery, OH 45242","lat":39.237232,"lng":-84.349885,"bar/restaurant or carry-out":"carry-out"},
{"id":180,"company":"BUFFALO BOB'S","address":"9910 BERERICH DR #A, FLORENCE, KY 41042","lat":38.99895,"lng":-84.626611,"bar/restaurant or carry-out":"Bar/Restaurant"},
{"id":181,"company":"Wine Store - Montgomery","address":"9905 Montgomery Rd., Cincinnati, OH 45242","lat":39.235993,"lng":-84.350486,"bar/restaurant or carry-out":"carry-out"},
{"id":182,"company":"Siler's Drive Thru","address":"986 Old St. Rte 74, Batavia, OH 45103","lat":39.077007,"lng":-84.176879,"bar/restaurant or carry-out":"carry-out"},
{"id":183,"company":"Carlo & Johnny's ","address":"9769 Montgomery Rd., Montgomery, OH 45242","lat":39.23386,"lng":-84.35337,"bar/restaurant or carry-out":"bar/restaurant"},
{"id":184,"company":"Taggart's","address":"970 Patterson Rd, Dayton, OH 45419","lat":39.724222,"lng":-84.15311,"bar/restaurant or carry-out":"bar/restaurant"},
{"id":185,"company":"Marriott Mason ","address":"9664 Mason Montgomery Rd., Mason, OH 45040","lat":39.296793,"lng":-84.31367,"bar/restaurant or carry-out":"bar/restaurant"},
{"id":186,"company":"Back Porch Saloon ","address":"9626 Princeton-Glendale Road, Hamilton, OH 45011","lat":39.3174,"lng":-84.463234,"bar/restaurant or carry-out":"bar/restaurant"},
{"id":187,"company":"Milano's - Miamisburg","address":"9572 Springboro Pike, Miamisburg, OH 45342","lat":39.611373,"lng":-84.227094,"bar/restaurant or carry-out":"bar/restaurant"},
{"id":188,"company":"Beef O'Brady's - Centerville","address":"953 S. Main St, Centerville, OH 45458","lat":39.610655,"lng":-84.163302,"bar/restaurant or carry-out":"bar/restaurant"},
{"id":189,"company":"Mio's Pizza - Blue Ash ","address":"9500 Kenwood Rd. Unit C&D, Blue Ash, OH 45242","lat":39.232003,"lng":-84.378273,"bar/restaurant or carry-out":"bar/restaurant"},
{"id":190,"company":"Tap n Go ","address":"950 Pavilion St., Cincinnati, OH 45202","lat":39.107774,"lng":-84.497062,"bar/restaurant or carry-out":"bar/restaurant"},
{"id":191,"company":"PARTY SOURCE (BELLEVUE)","address":"95 RIVIERA DR, BELLEVUE, KY 41073","lat":39.100314,"lng":-84.487595,"bar/restaurant or carry-out":"Carry-out"},
{"id":192,"company":"Yard House - Cincinnati ","address":"95 East Freedom Way, Cincinnati, OH 45202","lat":39.097169,"lng":-84.510352,"bar/restaurant or carry-out":"bar/restaurant"},
{"id":193,"company":"Archers Tavern","address":"9496 Dayton-Lebanon Pike, Centerville, OH 45458","lat":39.606483,"lng":-84.160171,"bar/restaurant or carry-out":"bar/restaurant"},
{"id":194,"company":"Red Robin - West Chester ","address":"9434 Civic Center Blvd., West Chester, OH 45069","lat":39.350886,"lng":-84.419067,"bar/restaurant or carry-out":"bar/restaurant"},
{"id":195,"company":"Champps Restaurant - West Chester ","address":"9424 Civic Centre Blvd., West Chester, OH 45069","lat":39.350886,"lng":-84.419067,"bar/restaurant or carry-out":"bar/restaurant"},
{"id":196,"company":"Cadillac Jacks of Centerville Inc","address":"9400 Springboro Pike, Centerville, Oh 45449","lat":39.645218,"lng":-84.224515,"bar/restaurant or carry-out":"carry-out"},
{"id":197,"company":"Remington Market","address":"9390 Loveland Madeira Rd., Cincinnati, OH 45242","lat":39.227107,"lng":-84.325339,"bar/restaurant or carry-out":"carry-out"},
{"id":198,"company":"Stone Creek Dining Company ","address":"9386 Montgomery Rd., Cincinnati, OH 45242","lat":39.226522,"lng":-84.354868,"bar/restaurant or carry-out":"bar/restaurant"},
{"id":199,"company":"Ladder 11","address":"936 Brown St, Dayton, OH 45409","lat":39.745827,"lng":-84.182781,"bar/restaurant or carry-out":"bar/restaurant"},
{"id":200,"company":"Delicio Coal Fired Pizza ","address":"9321 Montgomery Rd., Montgomery, OH 45242","lat":39.224819,"lng":-84.355705,"bar/restaurant or carry-out":"bar/restaurant"},
{"id":201,"company":"Mantra ","address":"932-34 Hatch St, Cincinnati, OH 45209","lat":39.109498,"lng":-84.49766,"bar/restaurant or carry-out":"bar/restaurant"},
{"id":202,"company":"Mellow Mushroom West Chester ","address":"9238 Floer Dr., West Chester, OH 45069","lat":39.323185,"lng":-84.430432,"bar/restaurant or carry-out":"bar/restaurant"},
{"id":203,"company":"Zip in","address":"9216 Dayton-Oxford Rd., Carlisle, OH 45005","lat":39.588088,"lng":-84.295796,"bar/restaurant or carry-out":"carry-out"},
{"id":204,"company":"Sunoco- Winton Rd.","address":"9177 Winton Rd., Cincinnati, OH 45231","lat":39.233744,"lng":-84.50996,"bar/restaurant or carry-out":"carry-out"},
{"id":205,"company":"BP - West Chester","address":"9171 Union Center Blvd., West Chester, OH 45069","lat":39.325014,"lng":-84.434413,"bar/restaurant or carry-out":"carry-out"},
{"id":206,"company":"915 PUB & GRILL","address":"915 NORTH FT THOMAS AVE, FORT THOMAS, KY 41075","lat":39.087713,"lng":-84.448613,"bar/restaurant or carry-out":"Bar/Restaurant"},
{"id":207,"company":"TGI Friday's - Fields Ertel ","address":"9141 Fields Ertel Road, Cincinnati, OH 45249","lat":39.291865,"lng":-84.308151,"bar/restaurant or carry-out":"bar/restaurant"},
{"id":208,"company":"Dingle House ","address":"9102 Union Center Blvd, West Chester, OH 45069","lat":39.327803,"lng":-84.435271,"bar/restaurant or carry-out":"bar/restaurant"},
{"id":209,"company":"The Bar ","address":"9101 Reading Rd., Reading, OH 45215","lat":39.22423,"lng":-84.440279,"bar/restaurant or carry-out":"bar/restaurant"},
{"id":210,"company":"Copper Blue ","address":"900 Main St., Milford, OH 45150","lat":39.17767,"lng":-84.280031,"bar/restaurant or carry-out":"bar/restaurant"},
{"id":211,"company":"Walgreens - Mitchell","address":"9 W Mitchell Ave., Cincinnati, OH 45217","lat":39.160815,"lng":-84.506125,"bar/restaurant or carry-out":"carry-out"},
{"id":212,"company":"Main St. Gourmet ","address":"9 S. Main St., Oxford, OH 45056","lat":39.510054,"lng":-84.742143,"bar/restaurant or carry-out":"bar/restaurant"},
{"id":213,"company":"O'Bryan's Wine-Landen","address":"8972 Columbia Rd., Loveland, OH 45140","lat":39.305416,"lng":-84.278498,"bar/restaurant or carry-out":"carry-out"},
{"id":214,"company":"Pizza Tower","address":"8945 Governors Way, Cincinnati, OH 45249","lat":39.291222,"lng":-84.31503,"bar/restaurant or carry-out":"bar/restaurant"},
{"id":215,"company":"Bunkers","address":"893 E National Rd, Vandalia, OH 45377","lat":39.892453,"lng":-84.180887,"bar/restaurant or carry-out":"bar/restaurant"},
{"id":216,"company":"FLIPDADDYS BURGERS &BEERS","address":"8863 US RT. 42, UNION, KY 41091","lat":38.965691,"lng":-84.675659,"bar/restaurant or carry-out":"Bar/Restaurant"},
{"id":217,"company":"Fricker's - Mason ","address":"8850 Governors Hill Dr., Mason, OH 45249","lat":39.290381,"lng":-84.317889,"bar/restaurant or carry-out":"bar/restaurant"},
{"id":218,"company":"Kroger 938 - Englewood","address":"885 Union Rd, Englewood, OH 45322","lat":39.863625,"lng":-84.313889,"bar/restaurant or carry-out":"carry-out"},
{"id":219,"company":"Cork n Bottle","address":"881 E Franklin St., Centerville, OH 45459","lat":39.628552,"lng":-84.142365,"bar/restaurant or carry-out":"carry-out"},
{"id":220,"company":"Tap House Grill","address":"8740 Montgomery Rd., Cincinnati, OH 45236","lat":39.213491,"lng":-84.359404,"bar/restaurant or carry-out":"bar/restaurant"},
{"id":221,"company":"Ameristop - Fields Ertel","address":"8675 Fields Ertel Rd., Mason, OH 45040","lat":39.293149,"lng":-84.328611,"bar/restaurant or carry-out":"carry-out"},
{"id":222,"company":"STAR LIQUOR","address":"8645 HAINES, FLORENCE, KY 41042","lat":38.972376,"lng":-84.664963,"bar/restaurant or carry-out":"Carry-out"},
{"id":223,"company":"Brentwood Spirits","address":"8621 Winton Rd., Cincinnati, OH 45231","lat":39.224714,"lng":-84.516733,"bar/restaurant or carry-out":"carry-out"},
{"id":224,"company":"Luckie's Pony Keg","address":"8600 Blue Ash Rd, Cincinnati, OH 45236","lat":39.215608,"lng":-84.38678,"bar/restaurant or carry-out":"carry-out"},
{"id":225,"company":"McLevy's Pub ","address":"8512 Market Place Ln., Montgomery, OH 45242","lat":39.237192,"lng":-84.347431,"bar/restaurant or carry-out":"bar/restaurant"},
{"id":226,"company":"UNITED LIQUOR","address":"8470 US 42, FLORENCE, KY 41042","lat":38.977131,"lng":-84.658235,"bar/restaurant or carry-out":"Carry-out"},
{"id":227,"company":"312 Bar ","address":"8450 Blue Ash Dr., Cincinnati, OH 45236","lat":39.211865,"lng":-84.388633,"bar/restaurant or carry-out":"bar/restaurant"},
{"id":228,"company":"Clermont Springs Deli ","address":"8427 Beechmont Ave., Cincinnati, OH 45255","lat":39.072294,"lng":-84.320972,"bar/restaurant or carry-out":"bar/restaurant"},
{"id":229,"company":"Reading Village Market","address":"8400 Reading Rd., Reading, OH 45237","lat":39.211865,"lng":-84.447151,"bar/restaurant or carry-out":"carry-out"},
{"id":230,"company":"Buffalo Wings and Rings - Winton ","address":"8377 Winton Rd., Cincinnati, OH 45231","lat":39.219811,"lng":-84.518021,"bar/restaurant or carry-out":"bar/restaurant"},
{"id":231,"company":"Slyders Tavern","address":"836 Watervliet Ave, Dayton, OH 45420","lat":39.730021,"lng":-84.139879,"bar/restaurant or carry-out":"bar/restaurant"},
{"id":232,"company":"Marathon - Clough","address":"8345 Clough, Cincinnati, OH 45244","lat":39.087731,"lng":-84.322432,"bar/restaurant or carry-out":"carry-out"},
{"id":233,"company":"Country Fresh Farm Market","address":"8315 Beechmont Ave., Cincinnati, OH 45255","lat":39.071365,"lng":-84.323949,"bar/restaurant or carry-out":"carry-out"},
{"id":234,"company":"Mama Mimi's - Beechmont ","address":"8312 Beechmont Ave., Cincinnati, OH 45255","lat":39.072954,"lng":-84.324183,"bar/restaurant or carry-out":"bar/restaurant"},
{"id":235,"company":"SHORTNECKS","address":"830 MONMOUTH ST, NEWPORT, KY 41071","lat":39.088601,"lng":-84.490969,"bar/restaurant or carry-out":"Bar/Restaurant"},
{"id":236,"company":"Mio's Pizza - Anderson ","address":"8298 Clough Pike, Cincinnati, OH 45244","lat":39.088325,"lng":-84.322363,"bar/restaurant or carry-out":"bar/restaurant"},
{"id":237,"company":"Louie's Tap House & Grill ","address":"8267 Arbor Square Dr, Mason, OH 45040","lat":39.318677,"lng":-84.314101,"bar/restaurant or carry-out":"bar/restaurant"},
{"id":238,"company":"Ameristop Food Mart 29100","address":"8260 Princeton Glendale Road, West Chester, OH 45069","lat":39.351312,"lng":-84.461297,"bar/restaurant or carry-out":"carry-out"},
{"id":239,"company":"Healthy Alternative - Englewood","address":"8258 North Main St, Dayton, OH 45415","lat":39.845308,"lng":-84.263586,"bar/restaurant or carry-out":"carry-out"},
{"id":240,"company":"Beckett Wine and Liquor","address":"8212 Princeton-Glendale Rd., West Chester, OH 45069","lat":39.353092,"lng":-84.461179,"bar/restaurant or carry-out":"carry-out"},
{"id":241,"company":"GOOD SPIRITS NEWPORT","address":"82 Carothers Rd, Newport, KY 41071","lat":39.085356,"lng":-84.478402,"bar/restaurant or carry-out":"Carry-out"},
{"id":242,"company":"REMKE MARKETS CAROTHERS","address":"82 Carothers Rd, Newport, KY 41071","lat":39.085356,"lng":-84.478402,"bar/restaurant or carry-out":"Carry-out"},
{"id":243,"company":"Sunoco - Montgomery","address":"8186 Montgomery Rd., Madeira, OH 45236","lat":39.204983,"lng":-84.367344,"bar/restaurant or carry-out":"carry-out"},
{"id":244,"company":"Embers Restaurant ","address":"8170 Montgomery Rd., Madeira, OH 45236","lat":39.204377,"lng":-84.368555,"bar/restaurant or carry-out":"bar/restaurant"},
{"id":245,"company":"Camargo Beverage","address":"8161 Camargo Rd, Madeira, OH 45243","lat":39.192326,"lng":-84.350897,"bar/restaurant or carry-out":"carry-out"},
{"id":246,"company":"TGI Friday's - Kenwood ","address":"8150 Montgomery Rd., Madiera, OH 45236","lat":39.204324,"lng":-84.368621,"bar/restaurant or carry-out":"bar/restaurant"},
{"id":247,"company":"ALEXANDRIA CARRY OUT","address":"8039-B ALEXANDRIA PIKE, ALEXANDRIA, KY 41001","lat":38.962273,"lng":-84.393372,"bar/restaurant or carry-out":"Carry-out"},
{"id":248,"company":"School House Resturant ","address":"8031 Glendale-Milford Rd., Camp Dennison, OH 45111","lat":39.198754,"lng":-84.289107,"bar/restaurant or carry-out":"bar/restaurant"},
{"id":249,"company":"Carlisle Food Mart","address":"801 Central Avenue, Carlisle, OH 45005","lat":39.584328,"lng":-84.32606,"bar/restaurant or carry-out":"carry-out"},
{"id":250,"company":"THREE KINGS BAR","address":"8 WEST PIKE, COVINGTON, KY 41011","lat":39.084056,"lng":-84.510389,"bar/restaurant or carry-out":"Bar/Restaurant"},
{"id":251,"company":"Car Rock Café ","address":"7912 Blue Ash Rd., Cincinnati, OH 45236","lat":39.204987,"lng":-84.392845,"bar/restaurant or carry-out":"bar/restaurant"},
{"id":252,"company":"LIQUOR CITY FLORENCE","address":"7903 DREAM STREET, FLORENCE, KY 41042","lat":38.987735,"lng":-84.641441,"bar/restaurant or carry-out":"Carry-out"},
{"id":253,"company":"Champ's - Centerville","address":"7880 Washington Village Dr., Centerville, OH 45459","lat":39.632129,"lng":-84.194369,"bar/restaurant or carry-out":"bar/restaurant"},
{"id":254,"company":"Aroma - Kenwood","address":"7875 Montgomery Rd., Cincinnati, OH 45236","lat":39.200932,"lng":-84.376009,"bar/restaurant or carry-out":"bar/restaurant"},
{"id":255,"company":"Red Robin - Kenwood ","address":"7875 Montgomery Rd., Cincinnati, OH 45236","lat":39.200932,"lng":-84.376009,"bar/restaurant or carry-out":"bar/restaurant"},
{"id":256,"company":"Ameristop - Beechmont","address":"7870 Beechmont Ave., Cincinnati, OH 45255","lat":39.07269,"lng":-84.337761,"bar/restaurant or carry-out":"carry-out"},
{"id":257,"company":"BJ'S RESTAURANT & BREWERY","address":"7852 Mall Rd, Florence, KY 41042","lat":38.991479,"lng":-84.651481,"bar/restaurant or carry-out":"Bar/Restaurant"},
{"id":258,"company":"Traci's ","address":"784 Loveland Miamiville Rd., Loveland, OH 45150","lat":39.228511,"lng":-84.257803,"bar/restaurant or carry-out":"bar/restaurant"},
{"id":259,"company":"The Corner Pub ","address":"7833 Cooper Rd., Montgomery, OH 45242","lat":39.226368,"lng":-84.355134,"bar/restaurant or carry-out":"bar/restaurant"},
{"id":260,"company":"Marathon - West Chester","address":"7809 Cin-Day Rd, West Chester, OH 45069","lat":39.341965,"lng":-84.406761,"bar/restaurant or carry-out":"carry-out"},
{"id":261,"company":"Dewey's Pizza - Kenwood ","address":"7767 Kenwood Rd, Cincinnati, OH 45236","lat":39.202126,"lng":-84.380107,"bar/restaurant or carry-out":"bar/restaurant"},
{"id":262,"company":"Nonu, Inc. - The Wine List","address":"7753 Tylersville Rd., West Chester, OH 45069","lat":39.353111,"lng":-84.36666,"bar/restaurant or carry-out":"carry-out"},
{"id":263,"company":"Wine World","address":"7737 Five Mile Rd., Cincinnati, OH 45230","lat":39.07496,"lng":-84.352097,"bar/restaurant or carry-out":"carry-out"},
{"id":264,"company":"Madeira Market","address":"7722 Laurel Ave., Madeira, OH 45243","lat":39.189688,"lng":-84.362187,"bar/restaurant or carry-out":"carry-out"},
{"id":265,"company":"Mama Mimi's - Kenwood ","address":"7714 B Montgomery Rd., Cincinnati, OH 45236","lat":39.197137,"lng":-84.385397,"bar/restaurant or carry-out":"bar/restaurant"},
{"id":266,"company":"Milano's - West Chester ","address":"7701 Voice of America Centre Dr., West Chester, OH 45069","lat":39.353307,"lng":-84.361798,"bar/restaurant or carry-out":"bar/restaurant"},
{"id":267,"company":"Root Cellar","address":"7699 Montgomery Rd., Cincinnati, OH 45236","lat":39.196949,"lng":-84.386018,"bar/restaurant or carry-out":"carry-out"},
{"id":268,"company":"Uncorked at the Spicy Olive ","address":"7671 Cox Ln. Unit A, West Chester, OH 45069","lat":39.355009,"lng":-84.365888,"bar/restaurant or carry-out":"bar/restaurant"},
{"id":269,"company":"Heritage Tastings ","address":"7664 Wooster Pike, Cincinnati, OH 45227","lat":39.13948,"lng":-84.353766,"bar/restaurant or carry-out":"bar/restaurant"},
{"id":270,"company":"Dewey's Pizza - West Chester ","address":"7663 Cox Lane, West Chester, OH 45069","lat":39.355009,"lng":-84.365888,"bar/restaurant or carry-out":"bar/restaurant"},
{"id":271,"company":"Pizzelli Pizza ","address":"7639 Wooster Pike, Cincinnati, OH 45227","lat":39.138751,"lng":-84.354139,"bar/restaurant or carry-out":"bar/restaurant"},
{"id":272,"company":"Hahana Beach ","address":"7605 Woster Pk, Cincinnati, OH 45244","lat":40.054307,"lng":-82.940775,"bar/restaurant or carry-out":"bar/restaurant"},
{"id":273,"company":"Wild Mikes ","address":"7587 Bridgetown Road, Cincinnati, OH 45248","lat":39.164558,"lng":-84.699098,"bar/restaurant or carry-out":"bar/restaurant"},
{"id":274,"company":"Kroger 915 - Beechmont","address":"7580 Beechmont Ave, Cincinnati, OH 45255","lat":39.07282,"lng":-84.34704,"bar/restaurant or carry-out":"carry-out"},
{"id":275,"company":"Gameday Grill and Patio","address":"7576 n. state rt. 48, Waynesville, OH 45068","lat":39.546436,"lng":-84.165935,"bar/restaurant or carry-out":"bar/restaurant"},
{"id":276,"company":"Chad's Drive Thru","address":"7551 Harrison Ave., Cincinnati, OH 45247","lat":39.216959,"lng":-84.689319,"bar/restaurant or carry-out":"carry-out"},
{"id":277,"company":"101 Beer Kitchen","address":"7509 Sawmill Road, Dublin, OH 43016","lat":40.118057,"lng":-83.090417,"bar/restaurant or carry-out":"bar/restaurant"},
{"id":278,"company":"VILLAGE MARKET","address":"7500 OAKBROOK DY, FLORENCE, KY 41042","lat":39.012752,"lng":-84.673793,"bar/restaurant or carry-out":"Carry-out"},
{"id":279,"company":"HOLLER HOPS & GRILL","address":"7500 OAKBROOK DR #1, FLORENCE, KY 41072","lat":38.991007,"lng":-84.694787,"bar/restaurant or carry-out":"Bar/Restaurant"},
{"id":280,"company":"Boston's Bistro 2","address":"7500 N Main St., Dayton, OH 45415","lat":39.832997,"lng":-84.25248,"bar/restaurant or carry-out":"bar/restaurant"},
{"id":281,"company":"Uno's - Beechmont ","address":"7500 Beechmont Ave., Cincinnati, OH 45255","lat":39.074382,"lng":-84.349166,"bar/restaurant or carry-out":"bar/restaurant"},
{"id":282,"company":"TGI Friday's - Beechmont ","address":"7480 Beechmont Ave., Cincinnati, OH 45255","lat":39.072863,"lng":-84.34975,"bar/restaurant or carry-out":"bar/restaurant"},
{"id":283,"company":"Goodfella's - Beechmont ","address":"7466 Beechmont Ave. Suite 412, Cincinnati, OH 45255","lat":39.072864,"lng":-84.349837,"bar/restaurant or carry-out":"bar/restaurant"},
{"id":284,"company":"Trio Restaurant ","address":"7465 Kenwood Road Ste. 11, Cincinnati, OH 45236","lat":39.198615,"lng":-84.380442,"bar/restaurant or carry-out":"bar/restaurant"},
{"id":285,"company":"Latitudes ","address":"7454 Beechmont Ave Suite 303, Cincinnati, OH 45255","lat":39.072866,"lng":-84.349911,"bar/restaurant or carry-out":"bar/restaurant"},
{"id":286,"company":"Flip Daddy's ","address":"7453 Wooster Pk, Cincinnati, OH 45227","lat":40.054307,"lng":-82.940775,"bar/restaurant or carry-out":"bar/restaurant"},
{"id":287,"company":"Shell- Wooster Pike","address":"7436 Wooster Pike, Cincinnati, OH 45227","lat":39.142154,"lng":-84.359273,"bar/restaurant or carry-out":"carry-out"},
{"id":288,"company":"Lou's Beverage","address":"740 Reading Rd. (Rt. 42), Mason, OH 45040","lat":39.360059,"lng":-84.309939,"bar/restaurant or carry-out":"carry-out"},
{"id":289,"company":"Dorothy Lane - Springboro","address":"740 N. Main St., Springboro, OH 45066","lat":39.577003,"lng":-84.230861,"bar/restaurant or carry-out":"carry-out"},
{"id":290,"company":"Lehr's","address":"740 Main St., Milford, OH 45150","lat":39.176936,"lng":-84.284715,"bar/restaurant or carry-out":"carry-out"},
{"id":291,"company":"Kroger 421 - Mariemont","address":"7385 Wooster Pike, Cincinnati, OH 45227","lat":39.141896,"lng":-84.361653,"bar/restaurant or carry-out":"carry-out"},
{"id":292,"company":"BP - Beechmont","address":"7380 Beechmont Ave., Cincinnati, OH 45230","lat":39.072896,"lng":-84.352643,"bar/restaurant or carry-out":"carry-out"},
{"id":293,"company":"West Chester Food Mart - Marathon","address":"7363 Kingsgate Way, West Chester, OH 45069","lat":39.352436,"lng":-84.370381,"bar/restaurant or carry-out":"carry-out"},
{"id":294,"company":"Little Store","address":"7325 Peters Pike, Dayton, OH 45414","lat":39.854107,"lng":-84.227525,"bar/restaurant or carry-out":"bar/restaurant"},
{"id":295,"company":"Kroger 383 - Middletown","address":"7300 Yankee Rd, Middletown, OH 45044","lat":39.376862,"lng":-84.376381,"bar/restaurant or carry-out":"carry-out"},
{"id":296,"company":"Lucky Dog Grille ","address":"729 Reading Rd., Mason, OH 45040","lat":39.351473,"lng":-84.322536,"bar/restaurant or carry-out":"bar/restaurant"},
{"id":297,"company":"Pelican's Reef ","address":"7261 Beechmont Ave., Cincinnati, OH 45230","lat":39.072844,"lng":-84.356588,"bar/restaurant or carry-out":"bar/restaurant"},
{"id":298,"company":"Middletown Fine Wine and Spirits","address":"721 Breiel Blvd., Middletown, OH 45044","lat":39.502725,"lng":-84.354741,"bar/restaurant or carry-out":"carry-out"},
{"id":299,"company":"TURFWAY LIQUORS","address":"7135 TURFWAY RD, FLORENCE, KY 41042","lat":39.007612,"lng":-84.623015,"bar/restaurant or carry-out":"Carry-out"},
{"id":300,"company":"Walgreens 12831 - Beechmont","address":"7135 Beechmont Ave., Cincinnati, OH 45230","lat":39.073251,"lng":-84.362212,"bar/restaurant or carry-out":"carry-out"},
{"id":301,"company":"J.R.'s Table ","address":"713 Vine Street, Cincinnati, OH 45202","lat":39.104123,"lng":-84.51387,"bar/restaurant or carry-out":"bar/restaurant"},
{"id":302,"company":"Beer Depot","address":"712 Watervielet Avenue, Dayton, OH 45420","lat":39.73153,"lng":-84.141916,"bar/restaurant or carry-out":"bar/restaurant"},
{"id":303,"company":"VIRGIL'S CAFE","address":"710 FAIRFIELD AVENUE # 1, BELLEVUE, KY 41073","lat":39.108678,"lng":-84.479954,"bar/restaurant or carry-out":"Bar/Restaurant"},
{"id":304,"company":"Yabos Tacos - Westerville","address":"7097 State Rt 3, Westerville, OH 43082","lat":40.149649,"lng":-82.922128,"bar/restaurant or carry-out":"bar/restaurant"},
{"id":305,"company":"Valero - Englewood","address":"709 S. Main Street, Englewood, OH 45322","lat":39.86762,"lng":-84.291671,"bar/restaurant or carry-out":"carry-out"},
{"id":306,"company":"Sam's Corner Store","address":"7011 New Haven Rd, Harrison, OH 45030","lat":39.265744,"lng":-84.6729,"bar/restaurant or carry-out":"carry-out"},
{"id":307,"company":"Anderson's North","address":"7000 Bent Tree Blvd., Columbus, OH 43235","lat":40.097097,"lng":-83.082188,"bar/restaurant or carry-out":"carry-out"},
{"id":308,"company":"Blue Wisp Jazz Club ","address":"700 Race St., Cincinnati, OH 45202","lat":39.103507,"lng":-84.515242,"bar/restaurant or carry-out":"bar/restaurant"},
{"id":309,"company":"THE MADISON","address":"700 MADISON AVE, COVINGTON, KY 41011","lat":39.083404,"lng":-84.510052,"bar/restaurant or carry-out":"Bar/Restaurant"},
{"id":310,"company":"Kroger 402 - Madeira","address":"6950 Miami Ave., Madeira, OH 45243","lat":39.187827,"lng":-84.361705,"bar/restaurant or carry-out":"carry-out"},
{"id":311,"company":"REMKE MARKET BURLINGTON P","address":"6920 Burlington Pike, Florence, KY 41042","lat":39.010537,"lng":-84.630641,"bar/restaurant or carry-out":"Carry-out"},
{"id":312,"company":"Madeira Wine & Spirits","address":"6917 Miami Ave., Maderia, OH 45243","lat":39.187121,"lng":-84.363724,"bar/restaurant or carry-out":"carry-out"},
{"id":313,"company":"Main Street Cafe - Newtown ","address":"6903 Main St., Newtown, OH 45244","lat":39.124434,"lng":-84.361676,"bar/restaurant or carry-out":"bar/restaurant"},
{"id":314,"company":"National Exemplar ","address":"6880 Wooster Pike, Mariemont, OH 45227","lat":39.14577,"lng":-84.376417,"bar/restaurant or carry-out":"bar/restaurant"},
{"id":315,"company":"Fricker's - Miller Lane","address":"6834 Miller Ln., Dayton, OH 45414","lat":39.846422,"lng":-84.190782,"bar/restaurant or carry-out":"bar/restaurant"},
{"id":316,"company":"PARTY TOWN (TURFWAY)","address":"6823 BURLINGTON PIKE, FLORENCE, KY 41042","lat":39.010561,"lng":-84.628734,"bar/restaurant or carry-out":"Carry-out"},
{"id":317,"company":"Dilly Deli ","address":"6818 Wooster Pike, Cincinnati, OH 45227","lat":39.145251,"lng":-84.376403,"bar/restaurant or carry-out":"bar/restaurant"},
{"id":318,"company":"DRAKE'S FLORENCE","address":"6805 HOUSTON RD, FLORENCE, KY 41042","lat":39.011005,"lng":-84.645925,"bar/restaurant or carry-out":"Bar/Restaurant"},
{"id":319,"company":"Scene ","address":"677 Walnut Ave, Cincinnati, OH 45202","lat":39.103838,"lng":-84.512002,"bar/restaurant or carry-out":"bar/restaurant"},
{"id":320,"company":"Anderson Food Mart","address":"6730 Clough Pike, Cincinnati, OH 45244","lat":39.098479,"lng":-84.36859,"bar/restaurant or carry-out":"carry-out"},
{"id":321,"company":"HD Beans & Bottles ","address":"6721 Montgomery Rd, Cincinnati, OH 45236","lat":39.190324,"lng":-84.410223,"bar/restaurant or carry-out":"bar/restaurant"},
{"id":322,"company":"Quencher Drive Thru","address":"6720 Clough Pike, Cincinnati, OH 45244","lat":39.098759,"lng":-84.368524,"bar/restaurant or carry-out":"carry-out"},
{"id":323,"company":"Eastside Café ","address":"671 Ohio Pike, Withamsville, OH 45245","lat":39.06456,"lng":-84.289908,"bar/restaurant or carry-out":"bar/restaurant"},
{"id":324,"company":"Ameristop-Liberty Twp","address":"6583 Cin-Day Rd., Middletown, OH 45044","lat":39.515058,"lng":-84.398276,"bar/restaurant or carry-out":"carry-out"},
{"id":325,"company":"Miami Valley Wine-Brandt Pike","address":"6565 Brandt Pike, Huber Heights, OH 45424","lat":39.848159,"lng":-84.113306,"bar/restaurant or carry-out":"carry-out"},
{"id":326,"company":"Ameristore","address":"6545 Harrison Ave. 1st Floor, Cincinnati, OH 45247","lat":39.193646,"lng":-84.660148,"bar/restaurant or carry-out":"carry-out"},
{"id":327,"company":"Walgreens - Troy Pike","address":"6495 Old Troy Pike, Huber Heights, OH 45242","lat":39.848041,"lng":-84.139661,"bar/restaurant or carry-out":"carry-out"},
{"id":328,"company":"Honk-N-Hollar","address":"649 N. Detroit St. Hwy 68, Xenia, OH 45385","lat":39.684782,"lng":-83.929653,"bar/restaurant or carry-out":"carry-out"},
{"id":329,"company":"Jtaps Bar & Grill ","address":"6441 Glenway Ave., Cincinnati, OH 45211","lat":39.150779,"lng":-84.628256,"bar/restaurant or carry-out":"bar/restaurant"},
{"id":330,"company":"GOOD SPIRITS INDEPENDENCE","address":"6439 TAYLOR MILL RD, INDEPENDENCE, KY 41051","lat":38.94371,"lng":-84.509132,"bar/restaurant or carry-out":"Carry-out"},
{"id":331,"company":"Righteous Room ","address":"641 Walnut St, Cincinnati, OH 45202","lat":39.103652,"lng":-84.512228,"bar/restaurant or carry-out":"bar/restaurant"},
{"id":332,"company":"Mama Vitas ","address":"6405 Branch Hill Guinea Pike, Loveland, OH 45140","lat":39.230519,"lng":-84.259069,"bar/restaurant or carry-out":"bar/restaurant"},
{"id":333,"company":"Salem Gardens ","address":"6396 Salem Rd., Cincinnati, OH 45230","lat":39.074954,"lng":-84.383119,"bar/restaurant or carry-out":"bar/restaurant"},
{"id":334,"company":"Marathon - Mason","address":"6391 Reading Rd., Mason, OH 45040","lat":39.346827,"lng":-84.329933,"bar/restaurant or carry-out":"carry-out"},
{"id":335,"company":"Kroger 435 - Branch Hill","address":"6388 Branch Hill Guinea Pike, Loveland, OH 45140","lat":39.229041,"lng":-84.255988,"bar/restaurant or carry-out":"carry-out"},
{"id":336,"company":"Western Bowl","address":"6383 Glenway Ave., Cincinnati, OH 45211","lat":39.148658,"lng":-84.628787,"bar/restaurant or carry-out":"bar/restaurant"},
{"id":337,"company":"JP's Food Mart","address":"6380 Branch Hill-Guinea Pike, Cincinnati, OH 45140","lat":39.241139,"lng":-84.248952,"bar/restaurant or carry-out":"carry-out"},
{"id":338,"company":"Ameristop - Fairfield","address":"6330 Pleasant Ave., Fairfield, OH 45014","lat":39.310253,"lng":-84.561558,"bar/restaurant or carry-out":"carry-out"},
{"id":339,"company":"Mac's Pizza Pub - Fairfax ","address":"6309 Wooster Pike, Cincinnati, OH 45227","lat":39.14307,"lng":-84.386336,"bar/restaurant or carry-out":"bar/restaurant"},
{"id":340,"company":"Ameristop - Wooster Pike","address":"6300 Wooster Pike, Cincinnati, OH 45227","lat":39.143723,"lng":-84.386783,"bar/restaurant or carry-out":"carry-out"},
{"id":341,"company":"Double Tree Suites Bistro - Blue Ash","address":"6300 E. Kemper Rd., Delver back dock by dumpster, OH 45241","lat":39.279883,"lng":-84.406761,"bar/restaurant or carry-out":"bar/restaurant"},
{"id":342,"company":"OLD KENTUCKY BOURBON BAR","address":"629 MAIN STREET STE A, COVINGTON, KY 41011","lat":39.083186,"lng":-84.517769,"bar/restaurant or carry-out":"Bar/Restaurant"},
{"id":343,"company":"Nicholson's Pub ","address":"625 Walnut Street, Cincinnati, OH 45202","lat":39.103304,"lng":-84.512594,"bar/restaurant or carry-out":"bar/restaurant"},
{"id":344,"company":"UP OVER","address":"624 MAIN ST, COVINGTON, KY 41011","lat":39.083362,"lng":-84.517267,"bar/restaurant or carry-out":"Bar/Restaurant"},
{"id":345,"company":"Xenia Liquors","address":"623 W 2nd St., Xenia, OH 45385","lat":39.682788,"lng":-83.939764,"bar/restaurant or carry-out":"carry-out"},
{"id":346,"company":"Sunoco - Bethel","address":"622 W. Plane St., Bethel, OH 45106","lat":38.965015,"lng":-84.090125,"bar/restaurant or carry-out":"carry-out"},
{"id":347,"company":"Walgreens - Montgomery Rd.","address":"6204 Montgomery Rd., Cincinnati, OH 45213","lat":39.183162,"lng":-84.425017,"bar/restaurant or carry-out":"carry-out"},
{"id":348,"company":"Marty's Corner Store","address":"6203 Branch Hill Guinea Pike, Milford, OH 45150","lat":39.214431,"lng":-84.240659,"bar/restaurant or carry-out":"carry-out"},
{"id":349,"company":"Stone Creek Dining - West Chester ","address":"6200 Muhlhauser Rd, West Chester, OH 45069","lat":39.325654,"lng":-84.427367,"bar/restaurant or carry-out":"bar/restaurant"},
{"id":350,"company":"Scene 75","address":"6196 Poe Ave., Vandalia, OH 45414","lat":39.837343,"lng":-84.187066,"bar/restaurant or carry-out":"bar/restaurant"},
{"id":351,"company":"MAIN STRASSE VILLAGE PUB","address":"619 MAIN ST, COVINGTON, KY 41011","lat":39.083499,"lng":-84.517769,"bar/restaurant or carry-out":"Bar/Restaurant"},
{"id":352,"company":"Dorothy Lane - Washington Sq.","address":"6177 Far Hills Ave., Dayton, OH 45459","lat":39.655748,"lng":-84.157286,"bar/restaurant or carry-out":"carry-out"},
{"id":353,"company":"RIVERFRONT MARKET","address":"617 WEST 3RD STEET, COVINGTON, KY 41011","lat":39.087472,"lng":-84.520841,"bar/restaurant or carry-out":"Carry-out"},
{"id":354,"company":"BP - Blue Ash","address":"6151 Pfeiffer Rd., Blue Ash, OH 45242","lat":39.249412,"lng":-84.367748,"bar/restaurant or carry-out":"carry-out"},
{"id":355,"company":"Arrow - 725","address":"615 Lyons Rd., Dayton, OH 45459","lat":39.63076,"lng":-84.188835,"bar/restaurant or carry-out":"carry-out"},
{"id":356,"company":"Hatting's Super Market","address":"6148 Bridgetown Rd., Cincinnati, OH 45248","lat":39.157147,"lng":-84.650813,"bar/restaurant or carry-out":"carry-out"},
{"id":357,"company":"BP - Pleasant Ridge","address":"6135 Montgomery Rd, Cincinnati, OH 45213","lat":39.183628,"lng":-84.425658,"bar/restaurant or carry-out":"carry-out"},
{"id":358,"company":"Winton Food Mart","address":"6120 Winton Rd., Fairfield, OH 45014","lat":39.313707,"lng":-84.541334,"bar/restaurant or carry-out":"carry-out"},
{"id":359,"company":"Molly Malone's ","address":"6111 Montgomery Rd., Cincinnati, OH 45213","lat":39.182561,"lng":-84.426866,"bar/restaurant or carry-out":"bar/restaurant"},
{"id":360,"company":"Marty's Hops & Vines","address":"6110 Hamilton Ave, Cincinnati, OH 45224","lat":39.202192,"lng":-84.547316,"bar/restaurant or carry-out":"carry-out"},
{"id":361,"company":"Gaslight Café ","address":"6104 Montgomery Rd, Cincinnati, OH 45213","lat":39.182054,"lng":-84.426896,"bar/restaurant or carry-out":"bar/restaurant"},
{"id":362,"company":"Jay's Food Mart","address":"6100 Winton Rd., Fairfield, OH 45014","lat":39.314576,"lng":-84.541288,"bar/restaurant or carry-out":"carry-out"},
{"id":363,"company":"Jeff's Marathon","address":"6094 Bridgetown Rd., Cincinnati, OH 45248","lat":39.158163,"lng":-84.64945,"bar/restaurant or carry-out":"carry-out"},
{"id":364,"company":"Metropole at 21C ","address":"609 Walnut St., Cincinnati, OH 45202","lat":39.103172,"lng":-84.512491,"bar/restaurant or carry-out":"bar/restaurant"},
{"id":365,"company":"Pleasant Hour Café ","address":"6083 Montgomery Rd., Cincinnati, OH 45213","lat":39.18222,"lng":-84.42807,"bar/restaurant or carry-out":"bar/restaurant"},
{"id":366,"company":"Fine Wine & True Spirits","address":"6080 Wilmington Pike, Dayton, OH 45459","lat":39.652492,"lng":-84.109881,"bar/restaurant or carry-out":"carry-out"},
{"id":367,"company":"Bella Vino - West Chester ","address":"6064 West Chester Rd., West Chester, OH 45069","lat":39.328135,"lng":-84.423107,"bar/restaurant or carry-out":"bar/restaurant"},
{"id":368,"company":"Riversbend Wine & Spirits","address":"6052 S. State Route 48, Maineville, OH 45039","lat":39.35158,"lng":-84.219068,"bar/restaurant or carry-out":"carry-out"},
{"id":369,"company":"Marathon - Cheviot","address":"6050 Cheviot Rd., Cincinnati, OH 45247","lat":39.203132,"lng":-84.59963,"bar/restaurant or carry-out":"carry-out"},
{"id":370,"company":"2 Putt Tavern and Grill ","address":"6040 St. Rt. 48, Maineville, OH 45039","lat":39.315059,"lng":-84.22077,"bar/restaurant or carry-out":"bar/restaurant"},
{"id":371,"company":"COSMO'S","address":"604 MAIN ST, COVINGTON, KY 41011","lat":39.083954,"lng":-84.517263,"bar/restaurant or carry-out":"Bar/Restaurant"},
{"id":372,"company":"White Oak Deli","address":"6035 Cheviot Rd., Cincinnati, OH 45247","lat":39.202881,"lng":-84.600179,"bar/restaurant or carry-out":"carry-out"},
{"id":373,"company":"GRAMER'S MARKET","address":"603 STEVENSON RD, ERLANGER, KY 41018","lat":39.006833,"lng":-84.589575,"bar/restaurant or carry-out":"Carry-out"},
{"id":374,"company":"Walgreens - Race St.","address":"601 Race St., Cincinnati, OH 45202","lat":39.102333,"lng":-84.51509,"bar/restaurant or carry-out":"carry-out"},
{"id":375,"company":"COCK & BULL ENGLISH PUB","address":"601 MAIN ST, COVINGTON, KY 41011","lat":39.084009,"lng":-84.517774,"bar/restaurant or carry-out":"Bar/Restaurant"},
{"id":376,"company":"POMPILIO'S (NEWPORT)","address":"600 WASHINGTON ST, NEWPORT, KY 41071","lat":39.092637,"lng":-84.490941,"bar/restaurant or carry-out":"Bar/Restaurant"},
{"id":377,"company":"Nada ","address":"600 Walnut St, Cincinnati, OH 45202","lat":39.102969,"lng":-84.511412,"bar/restaurant or carry-out":"bar/restaurant"},
{"id":378,"company":"Bee Gee's","address":"5995 Bigger Rd., Kettering, OH 45440","lat":39.658326,"lng":-84.127424,"bar/restaurant or carry-out":"bar/restaurant"},
{"id":379,"company":"WYATT'S BAR & GRILLE","address":"5987 CARLTON DRIVE, BURLINGTON, KY 41005","lat":39.026652,"lng":-84.713937,"bar/restaurant or carry-out":"Bar/Restaurant"},
{"id":380,"company":"Shell - Werk Rd.","address":"5984 Glenway Ave., Cincinnati, OH 45238","lat":39.14101,"lng":-84.617919,"bar/restaurant or carry-out":"carry-out"},
{"id":381,"company":"TOUSEY HOUSE TAVERN","address":"5963 N JEFFERSON ST, BURLINGTON, KY 41005","lat":39.028741,"lng":-84.724203,"bar/restaurant or carry-out":"Bar/Restaurant"},
{"id":382,"company":"Relish Fusion Tapas ","address":"5947 Deerfield Blvd., Mason, OH 45040","lat":39.30782,"lng":-84.320385,"bar/restaurant or carry-out":"bar/restaurant"},
{"id":383,"company":"Browndog Café ","address":"5893 Pfeiffer Rd., Blue Ash, OH 45242","lat":39.249344,"lng":-84.365106,"bar/restaurant or carry-out":"bar/restaurant"},
{"id":384,"company":"Piazza Discepoli - White Oak","address":"5872 Cheviot Road, Cincinnati, OH 45247","lat":39.200248,"lng":-84.600752,"bar/restaurant or carry-out":"carry-out"},
{"id":385,"company":"Langen Meats","address":"5855 Cheviot Rd., Cincinnati, OH 45247","lat":39.199799,"lng":-84.601097,"bar/restaurant or carry-out":"carry-out"},
{"id":386,"company":"Rumbleseat Wine","address":"5853 Far Hills Ave, Dayton, OH 45429","lat":39.661134,"lng":-84.158663,"bar/restaurant or carry-out":"bar/restaurant"},
{"id":387,"company":"CORK N BOTTLE -BUTTERMILK","address":"584 BUTTERMILK PIKE, CRESCENT SPRING, KY 41017","lat":39.051111,"lng":-84.576509,"bar/restaurant or carry-out":"Carry-out"},
{"id":388,"company":"Kroger 436 - Harrison Rd.","address":"5830 Harrison Rd, Cincinnati, OH 45248","lat":39.17299,"lng":-84.64056,"bar/restaurant or carry-out":"carry-out"},
{"id":389,"company":"Larry's Convenient Store","address":"5810 Cheviot Rd., Cincinnati, OH 45247","lat":39.199483,"lng":-84.600884,"bar/restaurant or carry-out":"carry-out"},
{"id":390,"company":"Whole Foods - Mason","address":"5805 Deerfield Blvd., Mason, OH 45040","lat":39.307662,"lng":-84.3164,"bar/restaurant or carry-out":"carry-out"},
{"id":391,"company":"Tropics","address":"580 Lincoln Park Blvd, Kettering, OH 45429","lat":39.696221,"lng":-84.158653,"bar/restaurant or carry-out":"bar/restaurant"},
{"id":392,"company":"DISC WINE SPIRIT CIG BEER","address":"579 DUDLEY PIKE, EDGEWOOD, KY 41017","lat":39.00801,"lng":-84.565843,"bar/restaurant or carry-out":"Carry-out"},
{"id":393,"company":"Barnesburg Tavern ","address":"5744 Springdale Rd., Cincinnati, OH 45239","lat":39.231123,"lng":-84.629748,"bar/restaurant or carry-out":"bar/restaurant"},
{"id":394,"company":"Putter's - Milford ","address":"5723 Signal Hill Ct., Milford, OH 45150","lat":39.185861,"lng":-84.267056,"bar/restaurant or carry-out":"bar/restaurant"},
{"id":395,"company":"Ameristop - Springdale Rd.","address":"5687 Springdale Rd., Cincinnati, OH 45247","lat":39.232856,"lng":-84.628007,"bar/restaurant or carry-out":"carry-out"},
{"id":396,"company":"Brazenhead - Tylersville ","address":"5650 Tylersville Rd, Mason, OH 45040","lat":39.352126,"lng":-84.32263,"bar/restaurant or carry-out":"bar/restaurant"},
{"id":397,"company":"REMKE CLOCKTOWER WAY","address":"560 CLOCKTOWER WAY, CRESCENT SPRING, KY 41017","lat":39.052095,"lng":-84.573781,"bar/restaurant or carry-out":"Carry-out"},
{"id":398,"company":"Natalie's Coal Fired Pizza","address":"5593 N. High St., Worthington, OH 43085","lat":40.077001,"lng":-83.01875,"bar/restaurant or carry-out":"bar/restaurant"},
{"id":399,"company":"Thirsty's Oasis ","address":"5589 S SR 741, Mason, OH 45040","lat":39.356115,"lng":-84.267216,"bar/restaurant or carry-out":"bar/restaurant"},
{"id":400,"company":"Roosters - Huber Heights","address":"5571 Merily Way, Huber Heights, OH 45424","lat":39.867606,"lng":-84.136361,"bar/restaurant or carry-out":"bar/restaurant"},
{"id":401,"company":"Shriners Food and Mini Mart","address":"555 N Broadway, Lebanon, OH 45036","lat":39.442304,"lng":-84.206797,"bar/restaurant or carry-out":"carry-out"},
{"id":402,"company":"Ameristop Kings Mills","address":"5542 State Route 741, Mason, OH 45040","lat":39.357905,"lng":-84.268198,"bar/restaurant or carry-out":"carry-out"},
{"id":403,"company":"Meadowlark cafe","address":"5531 farhills, Kettering, OH 45429","lat":39.666059,"lng":-84.162889,"bar/restaurant or carry-out":"bar/restaurant"},
{"id":404,"company":"Hillside Gastropub ","address":"5510 Rybolt Rd., Cincinnati, OH 45248","lat":39.193987,"lng":-84.661442,"bar/restaurant or carry-out":"bar/restaurant"},
{"id":405,"company":"Buffalo Wings and Rings - Fairfield ","address":"5486 Dixie HWY, Fairfield, OH 45014","lat":39.334236,"lng":-84.52472,"bar/restaurant or carry-out":"bar/restaurant"},
{"id":406,"company":"Tavern on the Bend ","address":"5471 North Bend Rd, Cincinnati, OH 45247","lat":39.190281,"lng":-84.600278,"bar/restaurant or carry-out":"bar/restaurant"},
{"id":407,"company":"Norwood Drive Thru","address":"5463 Montgomery Rd., Cincinnati, OH 45212","lat":39.173683,"lng":-84.444407,"bar/restaurant or carry-out":"carry-out"},
{"id":408,"company":"Jungle Jim's Fairfield","address":"5440 Dixie Hwy., Fairfield, OH 45014","lat":39.335751,"lng":-84.524303,"bar/restaurant or carry-out":"carry-out"},
{"id":409,"company":"Oscar Event Center ","address":"5440 Dixie Hwy, Fairfield, OH 45014","lat":39.335751,"lng":-84.524303,"bar/restaurant or carry-out":"bar/restaurant"},
{"id":410,"company":"Smile Drive Thru","address":"5430 Glenway Ave., Cincinnati, OH 45238","lat":39.129452,"lng":-84.606465,"bar/restaurant or carry-out":"carry-out"},
{"id":411,"company":"Walgreens - North Bend","address":"5403 N Bend Rd., Cincinnati, OH 45247","lat":39.189246,"lng":-84.602293,"bar/restaurant or carry-out":"carry-out"},
{"id":412,"company":"Shell - North Bend","address":"5394 North Bend Rd., Cincinnati, OH 45247","lat":39.187758,"lng":-84.602305,"bar/restaurant or carry-out":"carry-out"},
{"id":413,"company":"Pour House- Centerville","address":"536 Centerville Miamisburg Rd, Centerville, OH 45459","lat":39.627825,"lng":-84.17344,"bar/restaurant or carry-out":"bar/restaurant"},
{"id":414,"company":"CRESCENT SPRINGS TOB & LI","address":"535 BUTTERMILK PIKE, CRESCENT SPRING, KY 41117","lat":39.048542,"lng":-84.576935,"bar/restaurant or carry-out":"Carry-out"},
{"id":415,"company":"Riddle Road Market","address":"533 Riddle Rd. #1, Cincinnati, OH 45220","lat":39.135595,"lng":-84.526185,"bar/restaurant or carry-out":"carry-out"},
{"id":416,"company":"NEWBERRY BROS COFFEE","address":"530 Washington Ave, Newport, KY 41071","lat":39.093032,"lng":-84.491147,"bar/restaurant or carry-out":"Bar/Restaurant"},
{"id":417,"company":"Kroger 826 - Kettering","address":"530 E Stroop Rd, Dayton, OH 45429","lat":39.689339,"lng":-84.162393,"bar/restaurant or carry-out":"carry-out"},
{"id":418,"company":"Trolley Stop","address":"530 E 5th St., Dayton, OH 45402","lat":39.756899,"lng":-84.18275,"bar/restaurant or carry-out":"carry-out"},
{"id":419,"company":"Columbus Brewing Co.","address":"525 Short St., Columbus, OH 43215","lat":39.950766,"lng":-83.003714,"bar/restaurant or carry-out":"bar/restaurant"},
{"id":420,"company":"Old Bag of Nails Pub - Mason ","address":"5234 Kings Mills Rd., Mason, OH 45040","lat":39.356619,"lng":-84.280387,"bar/restaurant or carry-out":"bar/restaurant"},
{"id":421,"company":"Indian Mound Cafe","address":"5226 Montgomery Rd., Norwood, OH 45212","lat":39.169641,"lng":-84.45014,"bar/restaurant or carry-out":"bar/restaurant"},
{"id":422,"company":"One Stop Party Shop","address":"5215 Delhi Pike, Cincinnati, OH 45238","lat":39.094314,"lng":-84.616131,"bar/restaurant or carry-out":"carry-out"},
{"id":423,"company":"OTTO'S","address":"521 MAIN ST, COVINGTON, KY 41011","lat":39.084675,"lng":-84.517775,"bar/restaurant or carry-out":"Bar/Restaurant"},
{"id":424,"company":"AMERASIA CAFE & BAR LLC","address":"521 MADISON AVE, COVINGTON, KY 41011","lat":39.085111,"lng":-84.510995,"bar/restaurant or carry-out":"Bar/Restaurant"},
{"id":425,"company":"KWIK TRIP","address":"5205 MADISON PIKE, INDEPENDENCE, KY 41051","lat":38.94752,"lng":-84.543034,"bar/restaurant or carry-out":"Carry-out"},
{"id":426,"company":"Via Vite ","address":"520 Vine Street, Cincinnati, OH 45202","lat":39.101898,"lng":-84.513027,"bar/restaurant or carry-out":"bar/restaurant"},
{"id":427,"company":"Lucky's Taproom","address":"520 E. Fifth St., Dayton, OH 45402","lat":39.756814,"lng":-84.182959,"bar/restaurant or carry-out":"bar/restaurant"},
{"id":428,"company":"Pies & Pints - Dayton","address":"52 Plum St., Beavercreek, OH 45440","lat":39.694071,"lng":-84.10153,"bar/restaurant or carry-out":"bar/restaurant"},
{"id":429,"company":"BOUQUET REST. & WINE","address":"519 MAIN ST, COVINGTON, KY 41011","lat":39.084744,"lng":-84.517775,"bar/restaurant or carry-out":"Bar/Restaurant"},
{"id":430,"company":"THE ELUSIVE COW CAFE","address":"519 Fairfield Ave, Bellevue, KY 41073","lat":39.107961,"lng":-84.481588,"bar/restaurant or carry-out":"Bar/Restaurant"},
{"id":431,"company":"Rapid Run Carryout","address":"5179 Rapid Run Rd., Cincinnati, OH 45238","lat":39.111323,"lng":-84.613046,"bar/restaurant or carry-out":"carry-out"},
{"id":432,"company":"Gabby's Café ","address":"515 Wyoming Ave, Wyoming, OH 45215","lat":39.22691,"lng":-84.465177,"bar/restaurant or carry-out":"bar/restaurant"},
{"id":433,"company":"Moon Market","address":"512-516 S. Locust St., Oxford, OH 45056","lat":39.505103,"lng":-84.749434,"bar/restaurant or carry-out":"carry-out"},
{"id":434,"company":"MAIN BITE","address":"512 MAIN STREET, COVINGTON, KY 41011","lat":39.085043,"lng":-84.517494,"bar/restaurant or carry-out":"Bar/Restaurant"},
{"id":435,"company":"Fox & Hound - Mason ","address":"5113 Bowen Dr., Mason, OH 45040","lat":39.311694,"lng":-84.314524,"bar/restaurant or carry-out":"bar/restaurant"},
{"id":436,"company":"Kroger 448 - Mason","address":"5100 Terra Firma Dr Store#448, Mason, OH 45040","lat":39.360059,"lng":-84.309939,"bar/restaurant or carry-out":"carry-out"},
{"id":437,"company":"Residence Inn - Cincinnati ","address":"506 E. 4th St., Cincinnati, OH 45202","lat":39.101439,"lng":-84.504435,"bar/restaurant or carry-out":"bar/restaurant"},
{"id":438,"company":"Wild Mike's - Delhi ","address":"5043 Delhi Pike, Delhi Township, OH 45238","lat":39.095003,"lng":-84.612056,"bar/restaurant or carry-out":"bar/restaurant"},
{"id":439,"company":"Rusty Bucket - Mason ","address":"5035 Deerfield Blvd., Mason, OH 45040","lat":39.307804,"lng":-84.31476,"bar/restaurant or carry-out":"bar/restaurant"},
{"id":440,"company":"World of Beer - Brewery District","address":"503 South Front Street, Columbus, OH 43215","lat":39.951417,"lng":-83.001039,"bar/restaurant or carry-out":"bar/restaurant"},
{"id":441,"company":"GOOD SPIRITS WINE & TOB.","address":"5024 OLD TAYLOR MILL RD, TAYLOR MILL, KY 41015","lat":39.01714,"lng":-84.50812,"bar/restaurant or carry-out":"Carry-out"},
{"id":442,"company":"ZAZOU GRILL & PUB","address":"502 W 6TH ST, COVINGTON, KY 41011","lat":39.084458,"lng":-84.518936,"bar/restaurant or carry-out":"Bar/Restaurant"},
{"id":443,"company":"REMKE OLD TAYLOR MILL","address":"5016 OLD TAYLOR MILL RD, TAYLOR MILL, KY 41015","lat":39.017314,"lng":-84.50785,"bar/restaurant or carry-out":"Carry-out"},
{"id":444,"company":"Red Robin - Mason ","address":"5013 Bowen Dr., Mason, OH 45040","lat":39.310546,"lng":-84.314735,"bar/restaurant or carry-out":"bar/restaurant"},
{"id":445,"company":"CORK N  BOTTLE  (COV)","address":"501 CRESCENT AVE, COVINGTON, KY 41011","lat":39.085214,"lng":-84.524033,"bar/restaurant or carry-out":"Carry-out"},
{"id":446,"company":"Walgreens - Huber Heights","address":"5000 Brandt Pike, Huber Heights, OH 45424","lat":39.825885,"lng":-84.12174,"bar/restaurant or carry-out":"carry-out"},
{"id":447,"company":"COURTYARD BY MARRIOTT COV","address":"500 W 3rd St, Covington, KY 41011","lat":39.087618,"lng":-84.518576,"bar/restaurant or carry-out":"Bar/Restaurant"},
{"id":448,"company":"Village Keg","address":"5 Enfield St., Greenhills, OH 45218","lat":39.26978,"lng":-84.521473,"bar/restaurant or carry-out":"carry-out"},
{"id":449,"company":"Bob's Bar","address":"4961 N High st, Columbus, OH 43214","lat":40.065097,"lng":-83.019367,"bar/restaurant or carry-out":"bar/restaurant"},
{"id":450,"company":"Ale House/Don's Carryout","address":"4956 Springboro Rd., Moraine, OH 45439","lat":39.710058,"lng":-84.216946,"bar/restaurant or carry-out":"carry-out"},
{"id":451,"company":"Casa Bianca ","address":"4940 Muhlhauser Rd., Cincinnati, OH 45246","lat":39.316889,"lng":-84.454797,"bar/restaurant or carry-out":"bar/restaurant"},
{"id":452,"company":"Price Hill Chili","address":"4920 Glenway Ave., Cincinnati, OH 45238","lat":39.119136,"lng":-84.599475,"bar/restaurant or carry-out":"bar/restaurant"},
{"id":453,"company":"Troy's Cafe & Catering ","address":"4877 Smith Rd, West Chester, OH 45069","lat":39.35102,"lng":-84.453735,"bar/restaurant or carry-out":"bar/restaurant"},
{"id":454,"company":"Slatt's ","address":"4858 Cooper Rd, Blue Ash, OH 45242","lat":39.231023,"lng":-84.376281,"bar/restaurant or carry-out":"bar/restaurant"},
{"id":455,"company":"DICKMANN'S KY SPORTS CAFE","address":"479 ORPHANAGE RD, FORT WRIGHT, KY 41017","lat":39.030507,"lng":-84.53817,"bar/restaurant or carry-out":"Bar/Restaurant"},
{"id":456,"company":"Firehouse Grill ","address":"4785 Lake Forest Dr., Blue Ash, OH 45242","lat":39.251712,"lng":-84.378355,"bar/restaurant or carry-out":"bar/restaurant"},
{"id":457,"company":"Sammy's - Blue Ash","address":"4767 Creek Rd., Blue Ash, OH 45242","lat":39.257912,"lng":-84.375146,"bar/restaurant or carry-out":"bar/restaurant"},
{"id":458,"company":"Pick N Go","address":"4746 Spring Grove Ave., Cincinnati, OH 45232","lat":39.165488,"lng":-84.514535,"bar/restaurant or carry-out":"carry-out"},
{"id":459,"company":"Market, The","address":"4726 Wilmington Pike, Dayton, OH 45440","lat":39.674711,"lng":-84.116191,"bar/restaurant or carry-out":"carry-out"},
{"id":460,"company":"Shaddocks Market","address":"4713 Central Ave., Middletown, OH 45042","lat":39.5105,"lng":-84.344706,"bar/restaurant or carry-out":"carry-out"},
{"id":461,"company":"Terry's Turf Club ","address":"4618 Eastern Ave, Cincinnati, OH 45226","lat":39.118278,"lng":-84.419264,"bar/restaurant or carry-out":"bar/restaurant"},
{"id":462,"company":"Comet, The ","address":"4579 Hamilton Ave., Cincinnati, OH 45223","lat":39.17274,"lng":-84.543136,"bar/restaurant or carry-out":"bar/restaurant"},
{"id":463,"company":"Embassy Suites - Blue Ash","address":"4554 Lake Forest Dr, Blue Ash, OH 45242","lat":39.254689,"lng":-84.381661,"bar/restaurant or carry-out":"bar/restaurant"},
{"id":464,"company":"Crows Nest ","address":"4544 W 8th St., Cincinnati, OH 45238","lat":39.109421,"lng":-84.600966,"bar/restaurant or carry-out":"bar/restaurant"},
{"id":465,"company":"Kroger 902 - Eastgate","address":"4530 Eastgate Blvd, Cincinnati, OH 45245","lat":39.103088,"lng":-84.271893,"bar/restaurant or carry-out":"carry-out"},
{"id":466,"company":"Kroger 418 - Norwood","address":"4500 Montgomery Rd., Norwood, OH 45212","lat":39.158617,"lng":-84.457332,"bar/restaurant or carry-out":"carry-out"},
{"id":467,"company":"45 East - Oxford ","address":"45 East High St, Oxford, OH 45056","lat":39.510126,"lng":-84.741072,"bar/restaurant or carry-out":"bar/restaurant"},
{"id":468,"company":"Wild Mike's - Green Township ","address":"4498 Harrison Ave., Cincinnati, OH 45211","lat":39.16428,"lng":-84.630112,"bar/restaurant or carry-out":"bar/restaurant"},
{"id":469,"company":"Marathon - Bellbrook","address":"4491 State Route 725, Bellbrook, OH 45305","lat":39.63795,"lng":-84.110935,"bar/restaurant or carry-out":"carry-out"},
{"id":470,"company":"Extroidnary Burger","address":"4482 Glengarry Dr, Beavercreek, OH 45440","lat":39.693787,"lng":-84.104469,"bar/restaurant or carry-out":"bar/restaurant"},
{"id":471,"company":"Jungle Jims - Eastgate","address":"4450 Eastgate South Drive, Cincinnati, OH 45245","lat":39.095927,"lng":-84.270897,"bar/restaurant or carry-out":"carry-out"},
{"id":472,"company":"Bell Event Center ","address":"444 Reading Rd., Cincinnati, OH 45202","lat":39.108897,"lng":-84.507006,"bar/restaurant or carry-out":"bar/restaurant"},
{"id":473,"company":"Eisers Drive Thru","address":"4403 Verne Ave, Cincinnati, OH 45209","lat":39.155817,"lng":-84.43212,"bar/restaurant or carry-out":"carry-out"},
{"id":474,"company":"Miami Trail Tavern","address":"44 Xenia Town Sq., Xenia, OH 45385","lat":39.685796,"lng":-83.932687,"bar/restaurant or carry-out":"bar/restaurant"},
{"id":475,"company":"TOWNE CENTER MART","address":"44 N Fort Thomas Ave, Fort Thomas, KY 41075","lat":39.079629,"lng":-84.448348,"bar/restaurant or carry-out":"Carry-out"},
{"id":476,"company":"Jimmy G's ","address":"435 Elm St., Cincinnati, OH 45205","lat":39.100465,"lng":-84.516313,"bar/restaurant or carry-out":"bar/restaurant"},
{"id":477,"company":"Gordo's Pub & Grill ","address":"4328 Montgomery Rd., Cincinnati, OH 45212","lat":39.156311,"lng":-84.458742,"bar/restaurant or carry-out":"bar/restaurant"},
{"id":478,"company":"SKYLINE TAVERN","address":"430 JOHN'S HILL RD, HIGHLAND HEIGHT, KY 41076","lat":39.027404,"lng":-84.463366,"bar/restaurant or carry-out":"Bar/Restaurant"},
{"id":479,"company":"Blind Bobs","address":"430 E Fifth Street, Dayton, OH 45402","lat":39.75691,"lng":-84.184699,"bar/restaurant or carry-out":"bar/restaurant"},
{"id":480,"company":"Delta Snack Shack ","address":"430 Delta Ave, Cincinnati, OH 45226","lat":39.118383,"lng":-84.438444,"bar/restaurant or carry-out":"bar/restaurant"},
{"id":481,"company":"LIQUOR CITY - BAKEWELL","address":"430 BAKEWELL  & 5 TH, COVINGTON, KY 41011","lat":39.073028,"lng":-84.527462,"bar/restaurant or carry-out":"Carry-out"},
{"id":482,"company":"Charlie's Import Food & Beer","address":"429 Troy St, Dayton, OH 45404","lat":39.775406,"lng":-84.174971,"bar/restaurant or carry-out":"carry-out"},
{"id":483,"company":"Exxon - Mt. Carmel","address":"4248 Mt. Carmel Tabasco Rd., Cincinnati, OH 45244","lat":39.130723,"lng":-84.322649,"bar/restaurant or carry-out":"carry-out"},
{"id":484,"company":"PACHINKO","address":"424 W 6TH ST, COVINGTON, KY 41011","lat":39.084048,"lng":-84.517404,"bar/restaurant or carry-out":"Bar/Restaurant"},
{"id":485,"company":"DEP'S (FT. THOMAS)","address":"424 ALEXANDRIA PIKE, FORT THOMAS, KY 41075","lat":39.065112,"lng":-84.461015,"bar/restaurant or carry-out":"Carry-out"},
{"id":486,"company":"Plum St. Café ","address":"423 Plum St., Cincinnati, OH 45202","lat":39.103238,"lng":-84.518489,"bar/restaurant or carry-out":"bar/restaurant"},
{"id":487,"company":"Mayday Bar ","address":"4227-31 Spring Grove Ave, Cincinnati, OH 45223","lat":39.159878,"lng":-84.532678,"bar/restaurant or carry-out":"bar/restaurant"},
{"id":488,"company":"Bob's 8th St. Drive Thru","address":"4209 W. 8th St., Cincinnati, OH 45205","lat":39.106927,"lng":-84.589282,"bar/restaurant or carry-out":"carry-out"},
{"id":489,"company":"Winner's Market","address":"4203 Kirby Ave., Cincinnati, OH 45223","lat":39.164707,"lng":-84.547724,"bar/restaurant or carry-out":"carry-out"},
{"id":490,"company":"Billie's","address":"4203 Delhi Pike, Cincinnati, OH 45238","lat":39.09521,"lng":-84.590847,"bar/restaurant or carry-out":"bar/restaurant"},
{"id":491,"company":"Marathon - Northside","address":"4200 Kirby Ave., Cincinnati, OH 45223","lat":39.164717,"lng":-84.547072,"bar/restaurant or carry-out":"carry-out"},
{"id":492,"company":"Parker's Blue Ash Grill ","address":"4200 Cooper Rd, Blue Ash, OH 45242","lat":39.238155,"lng":-84.391383,"bar/restaurant or carry-out":"bar/restaurant"},
{"id":493,"company":"THE LIQUOR BOX","address":"4197 RICHARDSON ROAD, INDEPENDENCE, KY 41051","lat":38.966876,"lng":-84.599656,"bar/restaurant or carry-out":"Carry-out"},
{"id":494,"company":"KENTUCKY FOOD MART","address":"4189 Richardson Rd, Independence, KY 41051","lat":38.966731,"lng":-84.599281,"bar/restaurant or carry-out":"Carry-out"},
{"id":495,"company":"Northside Tavern ","address":"4163 Hamilton Ave, Cincinnati, OH 45223","lat":39.162414,"lng":-84.540184,"bar/restaurant or carry-out":"bar/restaurant"},
{"id":496,"company":"5th St. Wine & Deli","address":"416 E 5th St., Dayton, OH 45402","lat":39.756885,"lng":-84.185155,"bar/restaurant or carry-out":"bar/restaurant"},
{"id":497,"company":"ANTONES WINE & SPIRITS II","address":"4147 MADISON PIKE #5, COVINGTON, KY 41017","lat":38.991756,"lng":-84.534153,"bar/restaurant or carry-out":"Carry-out"},
{"id":498,"company":"Quik Pik - 3 COPIES!!!!","address":"4145 Montgomery Rd., Cincinnati, OH 45212","lat":39.15497,"lng":-84.460524,"bar/restaurant or carry-out":"carry-out"},
{"id":499,"company":"Local127 ","address":"413 Vine St, Cincinnati, OH 45202","lat":39.10043,"lng":-84.512939,"bar/restaurant or carry-out":"bar/restaurant"},
{"id":500,"company":"GLOBAL WINE & SPIRITS 1","address":"4125 CLARKS ROAD, PADUCAH, KY 42003","lat":37.044952,"lng":-88.550149,"bar/restaurant or carry-out":"Carry-out"},
{"id":501,"company":"Listing Loon, The","address":"4124 Hamilton Ave., Cincinnati, OH 45223","lat":39.161009,"lng":-84.539267,"bar/restaurant or carry-out":"carry-out"},
{"id":502,"company":"Chamellion ","address":"4114 Hamilton Ave, Cincinnati, OH 45233","lat":39.160742,"lng":-84.539082,"bar/restaurant or carry-out":"bar/restaurant"},
{"id":503,"company":"Ruth's Parkside Café ","address":"4101 Spring Grove Ave., Cincinnati, OH 45223","lat":39.160302,"lng":-84.53716,"bar/restaurant or carry-out":"bar/restaurant"},
{"id":504,"company":"Kroger 942 - Blue Ash","address":"4100 Hunt Rd, Blue Ash, OH 45236","lat":39.226934,"lng":-84.397488,"bar/restaurant or carry-out":"carry-out"},
{"id":505,"company":"Hunter IGA Express","address":"4077 W State Route 122, Franklin, OH 45005","lat":39.492623,"lng":-84.280672,"bar/restaurant or carry-out":"carry-out"},
{"id":506,"company":"Django ","address":"4046 Hamilton Ave., Cincinnati, OH 45223","lat":39.160055,"lng":-84.539254,"bar/restaurant or carry-out":"bar/restaurant"},
{"id":507,"company":"DISCOUNT LIQUOR (ELSMERE)","address":"4037 DIXIE HWY, ELSMERE, KY 41018","lat":39.011989,"lng":-84.607293,"bar/restaurant or carry-out":"Carry-out"},
{"id":508,"company":"Bistro Grace ","address":"4034 Hamilton Ave., Cincinnati, OH 45223","lat":39.159504,"lng":-84.539099,"bar/restaurant or carry-out":"bar/restaurant"},
{"id":509,"company":"Tacocracy ","address":"4029 Hamilton Ave., Cincinnati, OH 45223","lat":39.15915,"lng":-84.539446,"bar/restaurant or carry-out":"bar/restaurant"},
{"id":510,"company":"Little Chicago ","address":"402 Clark St., Middletown, OH 45044","lat":39.519229,"lng":-84.396979,"bar/restaurant or carry-out":"bar/restaurant"},
{"id":511,"company":"Beer Barn","address":"4017 Indian Ripple Rd., Dayton, OH 45440","lat":39.694885,"lng":-84.085596,"bar/restaurant or carry-out":"bar/restaurant"},
{"id":512,"company":"Oakley Wines","address":"4011 Allston St., Cincinnati, OH 45209","lat":39.151968,"lng":-84.433207,"bar/restaurant or carry-out":"carry-out"},
{"id":513,"company":"Columbus Convention Center","address":"400 N. High St., Columbus, OH 43215","lat":39.97129,"lng":-83.001379,"bar/restaurant or carry-out":"bar/restaurant"},
{"id":514,"company":"Coldstream Country Club","address":"400 Asbury Rd., Cincinnati, OH 45230","lat":39.048071,"lng":-84.346715,"bar/restaurant or carry-out":"bar/restaurant"},
{"id":515,"company":"BP - Yellow Springs","address":"4 Xenia Ave, Yellow Springs, OH 45387","lat":39.806381,"lng":-83.888747,"bar/restaurant or carry-out":"carry-out"},
{"id":516,"company":"Beaver Beverage","address":"3981 Dayton Xenia Rd., Beavercreek, OH 45432","lat":39.736829,"lng":-84.082859,"bar/restaurant or carry-out":"carry-out"},
{"id":517,"company":"Shell - Hyde Park","address":"3980 Erie Ave., Cincinnati, OH 45208","lat":39.14979,"lng":-84.407541,"bar/restaurant or carry-out":"carry-out"},
{"id":518,"company":"Wine Merchant","address":"3972 Edwards Rd, Cincinnati, OH 45209","lat":39.152059,"lng":-84.442115,"bar/restaurant or carry-out":"carry-out"},
{"id":519,"company":"Crest Tavern","address":"397 Crestview Rd., Columbus, OH 43202","lat":40.021916,"lng":-83.002212,"bar/restaurant or carry-out":"bar/restaurant"},
{"id":520,"company":"REMKE TURKEYFOOT RD","address":"3960 Turkeyfoot Rd, Erlanger, KY 41018","lat":38.97515,"lng":-84.593278,"bar/restaurant or carry-out":"Carry-out"},
{"id":521,"company":"GOOD SPIRITS WINE & TOB","address":"3954 TURKEYFOOT RD, INDEPENDENCE, KY 41018","lat":38.975389,"lng":-84.593143,"bar/restaurant or carry-out":"Carry-out"},
{"id":522,"company":"Dillonvale IGA","address":"3950 E. Galbraith Rd, Cincinnati, OH 45236","lat":39.208704,"lng":-84.402325,"bar/restaurant or carry-out":"carry-out"},
{"id":523,"company":"Flipside and Patio","address":"3945 Easton Station, Columbus, OH 43219","lat":40.049868,"lng":-82.915496,"bar/restaurant or carry-out":"bar/restaurant"},
{"id":524,"company":"World of Beer - Easton","address":"3934 Townsfair Way, Columbus, OH 43219","lat":40.049102,"lng":-82.916871,"bar/restaurant or carry-out":"bar/restaurant"},
{"id":525,"company":"Oakley Pub ","address":"3924 Isabella, Cincinnati, OH 45209","lat":39.151137,"lng":-84.432241,"bar/restaurant or carry-out":"bar/restaurant"},
{"id":526,"company":"Mama Mimi's - Oakley ","address":"3923 Isabella Ave., Cincinnati, OH 45209","lat":39.150982,"lng":-84.432292,"bar/restaurant or carry-out":"bar/restaurant"},
{"id":527,"company":"Larry's Food Mart - Stephenson Oil Company","address":"3920 Wade Mill Rd., Hamilton, OH 45014","lat":39.320789,"lng":-84.639634,"bar/restaurant or carry-out":"carry-out"},
{"id":528,"company":"Halls Corner Carryout","address":"3851 Kemp Rd, Beavercreek, OH 45431","lat":39.756573,"lng":-84.075863,"bar/restaurant or carry-out":"carry-out"},
{"id":529,"company":"Little York Drive Thru","address":"3811 Little York Rd., Dayton, OH 45414","lat":39.859128,"lng":-84.198293,"bar/restaurant or carry-out":"carry-out"},
{"id":530,"company":"Shell - Newtown","address":"3804 Church St., Newtown, OH 45244","lat":39.131053,"lng":-84.356781,"bar/restaurant or carry-out":"carry-out"},
{"id":531,"company":"Ryan's Pub","address":"3800 Victory Pkwy, Cincinnati, OH 45207","lat":39.148936,"lng":-84.479575,"bar/restaurant or carry-out":"bar/restaurant"},
{"id":532,"company":"Kirby's ","address":"378 Bridge St., Loveland, OH 45140","lat":39.246312,"lng":-84.292997,"bar/restaurant or carry-out":"bar/restaurant"},
{"id":533,"company":"Betta's Italian Oven ","address":"3764 Montgomery Rd., Cincinnati, OH 45212","lat":39.148127,"lng":-84.465774,"bar/restaurant or carry-out":"bar/restaurant"},
{"id":534,"company":"Kroger 355 - Hyde Park","address":"3760 Paxton Ave, Cincinnati, OH 45209","lat":39.144519,"lng":-84.430121,"bar/restaurant or carry-out":"carry-out"},
{"id":535,"company":"Roswells Bar ","address":"3735 Glenmore Ave., Cheviot, OH 45211","lat":39.155865,"lng":-84.611487,"bar/restaurant or carry-out":"bar/restaurant"},
{"id":536,"company":"MIC'S PUB","address":"3702 Huntington Ave, Covington, KY 41015","lat":39.0474,"lng":-84.498296,"bar/restaurant or carry-out":"Bar/Restaurant"},
{"id":537,"company":"Beef O'Brady's - Springdale ","address":"370 Glensprings Dr., Springdale, OH 45246","lat":39.292651,"lng":-84.48592,"bar/restaurant or carry-out":"bar/restaurant"},
{"id":538,"company":"Whole Foods - Columbus","address":"3670 W Dublin Granville Rd, Columbus, OH 43235","lat":40.094918,"lng":-83.087497,"bar/restaurant or carry-out":"carry-out"},
{"id":539,"company":"Jeff's Quick Stop","address":"367 Bridge St., Loveland, OH 45140","lat":39.246217,"lng":-84.293776,"bar/restaurant or carry-out":"carry-out"},
{"id":540,"company":"City Beverage Drive-Thru","address":"3661 Shaw Ave., Cincinnati, OH 45208","lat":39.144444,"lng":-84.439906,"bar/restaurant or carry-out":"carry-out"},
{"id":541,"company":"LaRosa's - Colerain ","address":"3657 Stonecreek Blvd, Cincinnati, OH 45251","lat":39.252935,"lng":-84.600249,"bar/restaurant or carry-out":"bar/restaurant"},
{"id":542,"company":"Fogarty's ","address":"3620 Harrison Ave., Cheviot, OH 45211","lat":39.156109,"lng":-84.610067,"bar/restaurant or carry-out":"bar/restaurant"},
{"id":543,"company":"Game Time Sports Bar Grille ","address":"3613 Harrison Ave, Cincinnati, OH 45211","lat":39.155994,"lng":-84.609704,"bar/restaurant or carry-out":"bar/restaurant"},
{"id":544,"company":"Rootie's ","address":"3609 Harrison Rd., Cheviot, OH 45211","lat":39.155847,"lng":-84.609659,"bar/restaurant or carry-out":"bar/restaurant"},
{"id":545,"company":"Habanero ","address":"358 Ludlow Ave., Cincinnati, OH 45220","lat":39.143867,"lng":-84.521795,"bar/restaurant or carry-out":"bar/restaurant"},
{"id":546,"company":"Marathon - Kremer","address":"3579 Miamisburg Centerville Rd., West Carrollton, OH 45449","lat":39.641175,"lng":-84.235703,"bar/restaurant or carry-out":"carry-out"},
{"id":547,"company":"Buz / Green Dog Café ","address":"3543 Columbia Pkwy, Cincinnati, OH 45226","lat":39.115391,"lng":-84.43808,"bar/restaurant or carry-out":"bar/restaurant"},
{"id":548,"company":"Allyn's Café ","address":"3538 Columbia Parkway, Cincinnati, OH 45226","lat":39.116498,"lng":-84.437585,"bar/restaurant or carry-out":"bar/restaurant"},
{"id":549,"company":"The M","address":"3520 Erie Ave, Cincinnati, OH 45208","lat":39.141223,"lng":-84.418493,"bar/restaurant or carry-out":"bar/restaurant"},
{"id":550,"company":"Arthur's ","address":"3518 Edwards Rd., Cincinnati, OH 45208","lat":39.140292,"lng":-84.443184,"bar/restaurant or carry-out":"bar/restaurant"},
{"id":551,"company":"AMERISTOP FOODMART 29079","address":"3516 Dixie Hwy, Erlanger, KY 41018","lat":39.016645,"lng":-84.601564,"bar/restaurant or carry-out":"Carry-out"},
{"id":552,"company":"Hap's Irish Pub","address":"3510 Erie Ave., Cincinnati, OH 45208","lat":39.14138,"lng":-84.418689,"bar/restaurant or carry-out":"bar/restaurant"},
{"id":553,"company":"Vandalia Carryout","address":"351 E. National Rd., Vandalia, OH 45377","lat":39.89127,"lng":-84.19331,"bar/restaurant or carry-out":"carry-out"},
{"id":554,"company":"Trotta's Pizza & Drive Thru ","address":"3501 Werk Rd., Cincinnati, OH 45248","lat":39.141011,"lng":-84.618885,"bar/restaurant or carry-out":"bar/restaurant"},
{"id":555,"company":"Ravine Market","address":"350 Warner St., Cincinnati, OH 45219","lat":39.125313,"lng":-84.525626,"bar/restaurant or carry-out":"carry-out"},
{"id":556,"company":"Tina's ","address":"350 W 4th St, Cincinnati, OH 45202","lat":39.0991,"lng":-84.518462,"bar/restaurant or carry-out":"bar/restaurant"},
{"id":557,"company":"Hilton Netherland Plaza - Cincinnati ","address":"35 West 5th St., Cincinnati, OH 45202","lat":39.100977,"lng":-84.514206,"bar/restaurant or carry-out":"bar/restaurant"},
{"id":558,"company":"VALLEY WINE & SPIRITS FTW","address":"3485 VALLEY PLAZA PARKWAY, FORT WRIGHT, KY 41017","lat":39.033117,"lng":-84.534862,"bar/restaurant or carry-out":"Carry-out"},
{"id":559,"company":"Ambiance Wine Bar","address":"345 S Main St., Springboro, OH 45066","lat":39.552635,"lng":-84.233823,"bar/restaurant or carry-out":"bar/restaurant"},
{"id":560,"company":"Liquor & Wine Warehouse","address":"3440 York Commons Blvd., Dayton, OH 45414","lat":39.844633,"lng":-84.196797,"bar/restaurant or carry-out":"carry-out"},
{"id":561,"company":"Ludlow Wines","address":"343 Ludlow Ave, Cincinnati, OH 45220","lat":39.143547,"lng":-84.521175,"bar/restaurant or carry-out":"carry-out"},
{"id":562,"company":"B LIST","address":"343 Division St, Bellevue, KY 41073","lat":39.104461,"lng":-84.480368,"bar/restaurant or carry-out":"Bar/Restaurant"},
{"id":563,"company":"Kroger 441 - Towne Blvd","address":"3420 Towne Blvd, Middletown, OH 45005","lat":39.495227,"lng":-84.327808,"bar/restaurant or carry-out":"carry-out"},
{"id":564,"company":"Olives @Ludlow Garage ","address":"342 Ludlow ave, Cincinnati, OH 45220","lat":39.144088,"lng":-84.521274,"bar/restaurant or carry-out":"bar/restaurant"},
{"id":565,"company":"La Poste ","address":"3410 Telford St, Cincinnati, OH 45220","lat":39.144065,"lng":-84.520388,"bar/restaurant or carry-out":"bar/restaurant"},
{"id":566,"company":"Centerville Carryout","address":"34 W. Franklin St., Centerville, OH 45459","lat":39.628354,"lng":-84.160217,"bar/restaurant or carry-out":"carry-out"},
{"id":567,"company":"Maineville Shell","address":"34 Grandin Rd., Maineville, OH 45039","lat":39.346247,"lng":-84.219531,"bar/restaurant or carry-out":"carry-out"},
{"id":568,"company":"Keystone Bar & Grill ","address":"3384 Erie Ave., Cincinnati, OH 45208","lat":39.141474,"lng":-84.421118,"bar/restaurant or carry-out":"bar/restaurant"},
{"id":569,"company":"Dutch's Pony Keg DBA Dutchs Bar ","address":"3378 Erie Ave., Cincinnati, OH 45208","lat":39.141427,"lng":-84.421578,"bar/restaurant or carry-out":"bar/restaurant"},
{"id":570,"company":"Wine Guys - Bridgewater ","address":"3371 Princeton Rd., Hamilton, OH 45011","lat":39.390572,"lng":-84.503671,"bar/restaurant or carry-out":"bar/restaurant"},
{"id":571,"company":"DETER'S LIQUOR STOP& DELI","address":"3363 MADISON PIKE, FORT WRIGHT, KY 41017","lat":39.03814,"lng":-84.529075,"bar/restaurant or carry-out":"Carry-out"},
{"id":572,"company":"Beef O'Brady's - Beavercreek","address":"3347 SeaJay Dr., Beavercreek, OH 45430","lat":39.72058,"lng":-84.064208,"bar/restaurant or carry-out":"bar/restaurant"},
{"id":573,"company":"China Gourmet ","address":"3340 Erie Ave., Cincinnati, OH 45208","lat":39.14173,"lng":-84.42291,"bar/restaurant or carry-out":"bar/restaurant"},
{"id":574,"company":"S. Main St. Drive-Thru","address":"3324 S. Main St., Middletown, OH 45044","lat":39.480302,"lng":-84.419615,"bar/restaurant or carry-out":"carry-out"},
{"id":575,"company":"RON'S FOOD MART COVINGTON","address":"332 GREENUP ST, COVINGTON, KY 41011","lat":39.088099,"lng":-84.507957,"bar/restaurant or carry-out":"Carry-out"},
{"id":576,"company":"Buck's Tavern ","address":"3299 St. Route 22 & 3, Loveland, OH 45140","lat":39.268948,"lng":-84.263826,"bar/restaurant or carry-out":"bar/restaurant"},
{"id":577,"company":"BP-Beechwood","address":"3251 Mt. Carmel Rd., Cincinnati, OH 45244","lat":39.113973,"lng":-84.30799,"bar/restaurant or carry-out":"carry-out"},
{"id":578,"company":"Fries Café ","address":"3247 Jefferson Ave., Cincinnati, OH 45220","lat":39.139755,"lng":-84.513074,"bar/restaurant or carry-out":"bar/restaurant"},
{"id":579,"company":"Maribelle's Tavern ","address":"3235 Madison Rd, Cincinnati, OH 45209","lat":39.15476,"lng":-84.426647,"bar/restaurant or carry-out":"bar/restaurant"},