[{"id":0,"company":"Neons","address":"208 E. 12th St., Cincinnati, OH 45205","lat":39.109416,"lng":-84.511197,"type":"bar, restaurant"},
{"id":1,"company":"Firehouse Grill","address":"4785 Lake Forest Dr., Blue Ash, OH 45242","lat":39.251712,"lng":-84.378355,"type":"bar, restaurant"},
{"id":2,"company":"Jungle Jims - Eastgate","address":"4450 Eastgate South Drive, Cincinnati, OH 45245","lat":39.095777,"lng":-84.268434,"type":"Carry-out"},
{"id":3,"company":"Jungle Jim's Fairfield","address":"5440 Dixie Hwy., Fairfield, OH 45014","lat":39.335751,"lng":-84.524303,"type":"Carry-out"},
{"id":4,"company":"Whole Foods - Cincinnati","address":"2693 Edmondson Rd., Cincinnati, OH 45209","lat":39.145638,"lng":-84.447205,"type":"Carry-out"},
{"id":5,"company":"Habit's Cafe","address":"3036 Madison Rd., Cincinnati, OH 45209","lat":39.151709,"lng":-84.432567,"type":"bar, restaurant"},
{"id":6,"company":"Bigg's - Hyde Park","address":"3872 Paxton Avenue, Cincinnati, OH 45209","lat":39.145987,"lng":-84.430102,"type":"Carry-out"},
{"id":7,"company":"Kroger 355 - Hyde Park","address":"3760 Paxton Ave, Cincinnati, OH 45209","lat":39.144519,"lng":-84.430121,"type":"Carry-out"},
{"id":8,"company":"Whole Foods - Mason","address":"5805 Deerfield Blvd., Mason, OH 45040","lat":39.307662,"lng":-84.3164,"type":"Carry-out"},
{"id":9,"company":"Incline Public House","address":"2601 W. 8th St., Cincinnati, OH 45204","lat":39.105074,"lng":-84.556595,"type":"bar, restaurant"},
{"id":10,"company":"Oakley Pub","address":"3924 Isabella, Cincinnati, OH 45209","lat":39.151137,"lng":-84.432241,"type":"bar, restaurant"},
{"id":11,"company":"BP - Pleasant Ridge","address":"6135 Montgomery Rd, Cincinnati, OH 45213","lat":39.183628,"lng":-84.425658,"type":"Carry-out"},
{"id":12,"company":"Arthur's","address":"3518 Edwards Rd., Cincinnati, OH 45208","lat":39.140292,"lng":-84.443184,"type":"bar, restaurant"},
{"id":13,"company":"Brew River Gastropub","address":"2062 Riverside Dr., Cincinnati, OH 45202","lat":39.12186,"lng":-84.475067,"type":"bar, restaurant"},
{"id":14,"company":"Kroger 915 - Beechmont","address":"7580 Beechmont Ave, Cincinnati, OH 45255","lat":39.072787,"lng":-84.347067,"type":"Carry-out"},
{"id":15,"company":"Brass Tap - U Square","address":"251 Calhoun St., Cincinnati, OH 45219","lat":39.128311,"lng":-84.516546,"type":"bar, restaurant"},
{"id":16,"company":"Cock -N- Bull Hyde Park","address":"2653 Erie Ave., Cincinnati, OH 45208","lat":39.139742,"lng":-84.443988,"type":"bar, restaurant"},
{"id":17,"company":"20th Century Theatre","address":"3036 madison rd, Cincinnati, OH 45209","lat":39.151709,"lng":-84.432567,"type":"bar, restaurant"},
{"id":18,"company":"Dutch's Pony Keg DBA Dutchs Bar","address":"3378 Erie Ave., Cincinnati, OH 45208","lat":39.141427,"lng":-84.421578,"type":"bar, restaurant"},
{"id":19,"company":"Dewey's Pizza - Montgomery","address":"11338 Montgomery Rd, Cincinnati, OH 45249","lat":39.271928,"lng":-84.327714,"type":"bar, restaurant"},
{"id":20,"company":"City Beverage Drive-Thru","address":"3661 Shaw Ave., Cincinnati, OH 45208","lat":39.144444,"lng":-84.439906,"type":"Carry-out"},
{"id":21,"company":"Paxton's","address":"126 W Loveland Ave, Loveland, OH 45140","lat":39.267991,"lng":-84.25813,"type":"bar, restaurant"},
{"id":22,"company":"Hyde Park Wine & Spirits","address":"2719 Madison Rd., Cincinnati, OH 45209","lat":39.145391,"lng":-84.442633,"type":"Carry-out"},
{"id":23,"company":"Kroger 402 - Madeira","address":"6950 Miami Ave., Madeira, OH 45243","lat":39.187827,"lng":-84.361705,"type":"Carry-out"},
{"id":24,"company":"Bigg's - Ridge/Remke","address":"3240 Highland Ave, Cincinnati, OH 45213","lat":39.16936,"lng":-84.428537,"type":"Carry-out"},
{"id":25,"company":"Gaslight Cafe","address":"6104 Montgomery Rd, Cincinnati, OH 45213","lat":39.182054,"lng":-84.426896,"type":"bar, restaurant"},
{"id":26,"company":"Dewey's Pizza - Kenwood","address":"7767 Kenwood Rd, Cincinnati, OH 45236","lat":39.202127,"lng":-84.380107,"type":"bar, restaurant"},
{"id":27,"company":"Dewey's Pizza - Clifton","address":"265 Hosea Ave, Cincinnati, OH 45220","lat":39.143679,"lng":-84.518446,"type":"bar, restaurant"},
{"id":28,"company":"Dewey's Pizza - Oakley","address":"3014 Madison Rd, Cincinnati, OH 45209","lat":39.151032,"lng":-84.433838,"type":"bar, restaurant"},
{"id":29,"company":"Country Fresh Farm Market","address":"8315 Beechmont Ave., Cincinnati, OH 45255","lat":39.071365,"lng":-84.323949,"type":"Carry-out"},
{"id":30,"company":"Listermann Oktoberfest","address":"1621 Dana Ave., Cincinnati, OH 45207","lat":39.145628,"lng":-84.47405,"type":"Carry-out"},
{"id":31,"company":"Rookwood - Pottery","address":"1077 Celestial St., Cincinnati, OH 45202","lat":39.107086,"lng":-84.500694,"type":"bar, restaurant"},
{"id":32,"company":"A Tavola","address":"1220 Vine St, Cincinnati, OH 45202","lat":39.108978,"lng":-84.514785,"type":"bar, restaurant"},
{"id":33,"company":"Igby's","address":"122 E 6th St., Cincinnati, OH 45202","lat":39.103011,"lng":-84.511037,"type":"bar, restaurant"},
{"id":34,"company":"O'Bryan's Wine-Landen","address":"8972 Columbia Rd., Loveland, OH 45140","lat":39.305416,"lng":-84.278498,"type":"Carry-out"},
{"id":35,"company":"Dorothy Lane - Springboro","address":"740 N. Main St., Springboro, OH 45066","lat":39.577261,"lng":-84.230848,"type":"Carry-out"},
{"id":36,"company":"Walgreens - Race St.","address":"601 Race St., Cincinnati, OH 45202","lat":39.102333,"lng":-84.51509,"type":"Carry-out"},
{"id":37,"company":"Root Cellar","address":"7699 Montgomery Rd., Cincinnati, OH 45236","lat":39.196949,"lng":-84.386018,"type":"Carry-out"},
{"id":38,"company":"Eisers Drive Thru","address":"4403 Verne Ave, Cincinnati, OH 45209","lat":39.155817,"lng":-84.43212,"type":"Carry-out"},
{"id":39,"company":"Flip Daddy's","address":"7453 Wooster Pk, Cincinnati, OH 45227","lat":39.141584,"lng":-84.358999,"type":"bar, restaurant"},
{"id":40,"company":"Salem Gardens","address":"6396 Salem Rd., Cincinnati, OH 45230","lat":39.074954,"lng":-84.383119,"type":"bar, restaurant"},
{"id":41,"company":"Oak Tavern","address":"3089 Madison Rd, Cincinnati, OH 45209","lat":39.15259,"lng":-84.430719,"type":"bar, restaurant"},
{"id":42,"company":"Delta Snack Shack","address":"430 Delta Ave, Cincinnati, OH 45226","lat":39.118383,"lng":-84.438444,"type":"bar, restaurant"},
{"id":43,"company":"Rusty Bucket - Mason","address":"5035 Deerfield Blvd., Mason, OH 45040","lat":39.307789,"lng":-84.314808,"type":"bar, restaurant"},
{"id":44,"company":"Great Wolf Lodge","address":"2501 Great Wolf Dr., Mason, OH 45040","lat":39.350639,"lng":-84.263884,"type":"bar, restaurant"},
{"id":45,"company":"Kaze","address":"1400 Vine St., Cincinnati, OH 45202","lat":39.111065,"lng":-84.515171,"type":"bar, restaurant"},
{"id":46,"company":"Wild Mikes","address":"7587 Bridgetown Road, Cincinnati, OH 45248","lat":39.164559,"lng":-84.699096,"type":"bar, restaurant"},
{"id":47,"company":"Hyatt Regency - Cincinnati","address":"151 W 5th St., Cincinnati, OH 45202","lat":39.100345,"lng":-84.515718,"type":"bar, restaurant"},
{"id":48,"company":"Mac's Pizza Pub - Fairfax","address":"6309 Wooster Pike, Cincinnati, OH 45227","lat":39.14307,"lng":-84.386336,"type":"bar, restaurant"},
{"id":49,"company":"Listing Loon, The","address":"4124 Hamilton Ave., Cincinnati, OH 45223","lat":39.161009,"lng":-84.539267,"type":"Carry-out"},
{"id":50,"company":"LackMan","address":"1237 VIne Street, Cincinnati, OH 45202","lat":39.10931,"lng":-84.515321,"type":"bar, restaurant"},
{"id":51,"company":"Metropole at 21C","address":"609 Walnut St., Cincinnati, OH 45202","lat":39.103172,"lng":-84.512491,"type":"bar, restaurant"},
{"id":52,"company":"Zips","address":"1036 Delta Ave., Cincinnati, OH 45208","lat":39.129697,"lng":-84.429278,"type":"bar, restaurant"},
{"id":53,"company":"Jack Potts","address":"1150 Main Street, Cincinnati, OH 45202","lat":39.10859,"lng":-84.511492,"type":"bar, restaurant"},
{"id":54,"company":"Flip Daddy's - Fields Ertel","address":"12071 Mason Montgomery Rd, Cincinnati, OH 45249","lat":39.290118,"lng":-84.316609,"type":"bar, restaurant"},
{"id":55,"company":"Market Wines - Findlay Market","address":"128 W Elder St, Cincinnati, OH 45202","lat":39.115534,"lng":-84.519588,"type":"Carry-out"},
{"id":56,"company":"Molly Malone's","address":"6111 Montgomery Rd., Cincinnati, OH 45213","lat":39.182565,"lng":-84.426857,"type":"bar, restaurant"},
{"id":57,"company":"Fries Cafe","address":"3247 Jefferson Ave., Cincinnati, OH 45220","lat":39.139755,"lng":-84.513074,"type":"bar, restaurant"},
{"id":58,"company":"Shell - Newtown","address":"3804 Church St., Newtown, OH 45244","lat":39.131053,"lng":-84.356781,"type":"Carry-out"},
{"id":59,"company":"Arlin's Ludlow","address":"307 Ludlow Ave, Cincinnati, OH 45220","lat":39.143534,"lng":-84.519681,"type":"bar, restaurant"},
{"id":60,"company":"Northside Tavern","address":"4163 Hamilton Ave, Cincinnati, OH 45223","lat":39.162414,"lng":-84.540184,"type":"bar, restaurant"},
{"id":61,"company":"Jefferson Social","address":"105 E Freedom Way, Cincinanti, OH 45205","lat":39.097179,"lng":-84.510286,"type":"bar, restaurant"},
{"id":62,"company":"Kirby's","address":"378 Bridge St., Loveland, OH 45140","lat":39.246312,"lng":-84.292997,"type":"bar, restaurant"},
{"id":63,"company":"Gordo's Pub & Grill","address":"4328 Montgomery Rd., Cincinnati, OH 45212","lat":39.156311,"lng":-84.458742,"type":"bar, restaurant"},
{"id":64,"company":"Tavern on the Bend","address":"5471 North Bend Rd, Cincinnati, OH 45247","lat":39.190281,"lng":-84.600278,"type":"bar, restaurant"},
{"id":65,"company":"Dewey's Pizza - West Chester","address":"7663 Cox Lane, West Chester, OH 45069","lat":39.355828,"lng":-84.366101,"type":"bar, restaurant"},
{"id":66,"company":"Adriatico's","address":"113 W. McMillan, Cincinnati, OH 45219","lat":39.127433,"lng":-84.516406,"type":"bar, restaurant"},
{"id":67,"company":"Run Like Hell","address":"3617 Woodburn Ave., Cincinnati, OH 45207","lat":39.145498,"lng":-84.474457,"type":"Carry-out"},
{"id":68,"company":"Dilly Deli","address":"6818 Wooster Pike, Cincinnati, OH 45227","lat":39.145251,"lng":-84.376403,"type":"bar, restaurant"},
{"id":69,"company":"Kroger 353 - Harpers Point","address":"11390 Montgomery Rd., Montgomery, OH 45249","lat":39.271866,"lng":-84.326132,"type":"Carry-out"},
{"id":70,"company":"Stop-N-Go","address":"141 W. McMillan, Cincinnati, OH 45219","lat":39.12746,"lng":-84.517354,"type":"Carry-out"},
{"id":71,"company":"Stone Creek Dining Company","address":"9386 Montgomery Rd., Cincinnati, OH 45242","lat":39.226578,"lng":-84.354841,"type":"bar, restaurant"},
{"id":72,"company":"Parker's Blue Ash Grill","address":"4200 Cooper Rd, Blue Ash, OH 45242","lat":39.238155,"lng":-84.391383,"type":"bar, restaurant"},
{"id":73,"company":"Longworth's","address":"1108 Saint Gregory St., Cincinnati, OH 45202","lat":39.107955,"lng":-84.49747,"type":"bar, restaurant"},
{"id":74,"company":"Tavern on the Hill","address":"1111 St. Gregory St., Cincinnati, OH 45205","lat":39.108254,"lng":-84.498215,"type":"bar, restaurant"},
{"id":75,"company":"Lucky Dog Grille","address":"729 Reading Rd., Mason, OH 45040","lat":39.351473,"lng":-84.322536,"type":"bar, restaurant"},
{"id":76,"company":"Rhinehaus","address":"119 E. 12th St., Cincinnati, OH 45202","lat":39.108463,"lng":-84.512432,"type":"bar, restaurant"},
{"id":77,"company":"Marty's Hops & Vines","address":"6110 Hamilton Ave, Cincinnati, OH 45224","lat":39.202192,"lng":-84.547316,"type":"Carry-out"},
{"id":78,"company":"Arnold's - Cincinnati","address":"210 E 8th St, Cincinnati, OH 45202","lat":39.105173,"lng":-84.510123,"type":"bar, restaurant"},
{"id":79,"company":"TGI Friday's - Beechmont","address":"7480 Beechmont Ave., Cincinnati, OH 45255","lat":39.072831,"lng":-84.349713,"type":"bar, restaurant"},
{"id":80,"company":"Japp's","address":"1134 Main St., Cincinnati, OH 45202","lat":39.108849,"lng":-84.511292,"type":"bar, restaurant"},
{"id":81,"company":"J. Alexander's - Cincinnati","address":"2629 Edmundson Rd., Cincinnati, OH 45209","lat":39.148479,"lng":-84.44325,"type":"bar, restaurant"},
{"id":82,"company":"Knockback Nats","address":"10 W. 7th St., Cincinnati, OH 45202","lat":39.10384,"lng":-84.5142,"type":"bar, restaurant"},
{"id":83,"company":"Cock -N- Bull","address":"275 E Sharon Rd, Cincinnati, OH 45246","lat":39.271914,"lng":-84.458913,"type":"bar, restaurant"},
{"id":84,"company":"Dingle House","address":"9102 Union Center Blvd, West Chester, OH 45069","lat":39.327803,"lng":-84.435271,"type":"bar, restaurant"},
{"id":85,"company":"Nicholson's Pub","address":"625 Walnut Street, Cincinnati, OH 45202","lat":39.103304,"lng":-84.512594,"type":"bar, restaurant"},
{"id":86,"company":"Maribelle's Tavern","address":"3235 Madison Rd, Cincinnati, OH 45209","lat":39.15476,"lng":-84.426647,"type":"bar, restaurant"},
{"id":87,"company":"Comet, The","address":"4579 Hamilton Ave., Cincinnati, OH 45223","lat":39.17274,"lng":-84.543136,"type":"bar, restaurant"},
{"id":88,"company":"Wine World","address":"7737 Five Mile Rd., Cincinnati, OH 45230","lat":39.07496,"lng":-84.352106,"type":"Carry-out"},
{"id":89,"company":"Buz / Green Dog Cafe","address":"3543 Columbia Pkwy, Cincinnati, OH 45226","lat":39.115391,"lng":-84.43808,"type":"bar, restaurant"},
{"id":90,"company":"Shell - Blue Ash","address":"10415 Kenwood Rd., Blue Ash, OH 45242","lat":39.251075,"lng":-84.375136,"type":"Carry-out"},
{"id":91,"company":"Bigg's - Beechmont","address":"5218 Beechmont Ave., Cincinnati, OH 45230","lat":39.106955,"lng":-84.395436,"type":"Carry-out"},
{"id":92,"company":"Kroger 421 - Mariemont","address":"7385 Wooster Pike, Cincinnati, OH 45227","lat":39.141896,"lng":-84.361653,"type":"Carry-out"},
{"id":93,"company":"The Corner Pub","address":"7833 Cooper Rd., Montgomery, OH 45242","lat":39.226368,"lng":-84.355134,"type":"bar, restaurant"},
{"id":94,"company":"Kroger 942 - Blue Ash","address":"4100 Hunt Rd, Blue Ash, OH 45236","lat":39.226934,"lng":-84.397488,"type":"Carry-out"},
{"id":95,"company":"Jeff's Marathon","address":"6094 Bridgetown Rd., Cincinnati, OH 45248","lat":39.158177,"lng":-84.649313,"type":"Carry-out"},
{"id":96,"company":"Riddle Road Market","address":"533 Riddle Rd. #1, Cincinnati, OH 45220","lat":39.135595,"lng":-84.526185,"type":"Carry-out"},
{"id":97,"company":"Kroger 351 - Montgomery","address":"9939 Montgomery Rd., Montgomery, OH 45242","lat":39.236467,"lng":-84.350264,"type":"Carry-out"},
{"id":98,"company":"Sotto","address":"116 E. 6th St., Cincinnati, OH 45202","lat":39.102792,"lng":-84.511147,"type":"bar, restaurant"},
{"id":99,"company":"Hillside Gastropub","address":"5510 Rybolt Rd., Cincinnati, OH 45248","lat":39.194045,"lng":-84.661374,"type":"bar, restaurant"},
{"id":100,"company":"Taste of Belgium - Short Vine","address":"2845 Vine St., Cincinnati, OH 45219","lat":39.132609,"lng":-84.509753,"type":"bar, restaurant"},
{"id":101,"company":"Kroger 435 - Branch Hill","address":"6388 Branch Hill Guinea Pike, Loveland, OH 45140","lat":39.229041,"lng":-84.255988,"type":"Carry-out"},
{"id":102,"company":"O'Malleys in the Alley","address":"25 W. Ogden St., Cincinnati, OH 45202","lat":39.099442,"lng":-84.511512,"type":"bar, restaurant"},
{"id":103,"company":"MOTR","address":"1345 main st, Cincinnati, OH 45202","lat":39.111082,"lng":-84.512358,"type":"bar, restaurant"},
{"id":104,"company":"Keystone Bar & Grill","address":"3384 Erie Ave., Cincinnati, OH 45208","lat":39.141474,"lng":-84.421118,"type":"bar, restaurant"},
{"id":105,"company":"Quik Pik","address":"4145 Montgomery Rd., Cincinnati, OH 45212","lat":39.15497,"lng":-84.460524,"type":"Carry-out"},
{"id":106,"company":"Kroger 418 - Norwood","address":"4500 Montgomery Rd., Norwood, OH 45212","lat":39.158617,"lng":-84.457332,"type":"Carry-out"},
{"id":107,"company":"Rhinegeist","address":"1910 Elm St., Cincinnati, OH 45202","lat":39.117274,"lng":-84.519574,"type":"bar, restaurant"},
{"id":108,"company":"Mayday Bar","address":"4227-31 Spring Grove Ave, Cincinnati, OH 45223","lat":39.159878,"lng":-84.532678,"type":"bar, restaurant"},
{"id":109,"company":"Back Porch Saloon","address":"9626 Princeton-Glendale Road, Hamilton, OH 45011","lat":39.316618,"lng":-84.463472,"type":"bar, restaurant"},
{"id":110,"company":"Cappy's Carryout","address":"309 W Loveland Ave, Loveland, OH 45140","lat":39.268095,"lng":-84.260071,"type":"Carry-out"},
{"id":111,"company":"Brentwood Spirits","address":"8621 Winton Rd., Cincinnati, OH 45231","lat":39.224714,"lng":-84.516733,"type":"Carry-out"},
{"id":112,"company":"The Works","address":"20 Great Millitzer Way, Loveland, OH 45140","lat":39.268948,"lng":-84.263826,"type":"bar, restaurant"},
{"id":113,"company":"Latitudes","address":"7454 Beechmont Ave Suite 303, Cincinnati, OH 45255","lat":39.072832,"lng":-84.349829,"type":"bar, restaurant"},
{"id":114,"company":"Teller's","address":"2710 Erie Avenue, Cincinnati, OH 45208","lat":39.140009,"lng":-84.442785,"type":"bar, restaurant"},
{"id":115,"company":"Fox & Hound - Mason","address":"5113 Bowen Dr., Mason, OH 45040","lat":39.311694,"lng":-84.314524,"type":"bar, restaurant"},
{"id":116,"company":"Everything's D Vine","address":"318 W. 4th St., Cincinnati, OH 45202","lat":39.099153,"lng":-84.518096,"type":"Carry-out"},
{"id":117,"company":"Bigg's - Western Hills","address":"5071 Glencrossing Way, Cincinnati, OH 45238","lat":39.12991,"lng":-84.612396,"type":"Carry-out"},
{"id":118,"company":"Bakersfield OTR","address":"1213 Vine St., Cincinnati, OH 45202","lat":39.108795,"lng":-84.515119,"type":"bar, restaurant"},
{"id":119,"company":"Golden Lamb","address":"27-31 S Broadway St, Lebanon, OH 45036","lat":39.433807,"lng":-84.208809,"type":"bar, restaurant"},
{"id":120,"company":"Champps Restaurant - West Chester","address":"9424 Civic Centre Blvd., West Chester, OH 45069","lat":39.3235,"lng":-84.397465,"type":"bar, restaurant"},
{"id":121,"company":"Park n Vine","address":"1202 Main St., Cincinnati, OH 45202","lat":39.109362,"lng":-84.51142,"type":"Carry-out"},
{"id":122,"company":"UC Catskeller","address":"2766 Clifton Ave., Cincinnati, OH 45221","lat":39.133158,"lng":-84.520253,"type":"bar, restaurant"},
{"id":123,"company":"La Poste","address":"3410 Telford St, Cincinnati, OH 45220","lat":39.144065,"lng":-84.520388,"type":"bar, restaurant"},
{"id":124,"company":"O Pub","address":"10 W. Park Pl., Oxford, OH 45056","lat":39.510917,"lng":-84.743365,"type":"bar, restaurant"},
{"id":125,"company":"Mud, Guts & Glory","address":"5778 State Route 350, Oregonia, OH 45054","lat":39.407585,"lng":-84.099053,"type":"Carry-out"},
{"id":126,"company":"Betta's Italian Oven","address":"3764 Montgomery Rd., Cincinnati, OH 45212","lat":39.148127,"lng":-84.465774,"type":"bar, restaurant"},
{"id":127,"company":"TGI Friday's - Kenwood","address":"8150 Montgomery Rd., Madiera, OH 45236","lat":39.204324,"lng":-84.368621,"type":"bar, restaurant"},
{"id":128,"company":"Trinity Irish Pub","address":"8953 Princeton Glendale Rd., West Chester, OH 45069","lat":39.334169,"lng":-84.46309,"type":"bar, restaurant"},
{"id":129,"company":"Uno's - Beechmont","address":"7500 Beechmont Ave., Cincinnati, OH 45255","lat":39.074382,"lng":-84.349166,"type":"bar, restaurant"},
{"id":130,"company":"Mio's Pizza - Sutton","address":"1212 Sutton Rd., Cincinnati, OH 45230","lat":39.075894,"lng":-84.391879,"type":"bar, restaurant"},
{"id":131,"company":"Oxford Spirits","address":"21 Lynn Ave., Oxford, OH 45056","lat":39.509831,"lng":-84.749949,"type":"Carry-out"},
{"id":132,"company":"Ludlow Wines","address":"343 Ludlow Ave, Cincinnati, OH 45220","lat":39.143547,"lng":-84.521175,"type":"Carry-out"},
{"id":133,"company":"De Sha's","address":"11320 Montgomery Rd., Cincinnati, OH 45249","lat":39.2716,"lng":-84.32796,"type":"bar, restaurant"},
{"id":134,"company":"Django","address":"4046 Hamilton Ave., Cincinnati, OH 45223","lat":39.160055,"lng":-84.539254,"type":"bar, restaurant"},
{"id":135,"company":"Righteous Room","address":"641 Walnut St, Cincinnati, OH 45202","lat":39.103652,"lng":-84.512228,"type":"bar, restaurant"},
{"id":136,"company":"Quarter Barrel","address":"107 E. Church St., Oxford, OH 45056","lat":39.511311,"lng":-84.740336,"type":"bar, restaurant"},
{"id":137,"company":"Kroger 921 - Milford","address":"1093 Goshen Pike, Milford, OH 45150","lat":39.168856,"lng":-84.266433,"type":"Carry-out"},
{"id":138,"company":"Village Shoppe & Go","address":"3011 Access Place, Cincinnati, OH 45241","lat":39.253684,"lng":-84.424252,"type":"Carry-out"},
{"id":139,"company":"Remington Market","address":"9390 Loveland Madeira Rd., Cincinnati, OH 45242","lat":39.227107,"lng":-84.325339,"type":"Carry-out"},
{"id":140,"company":"Local127","address":"413 Vine St, Cincinnati, OH 45202","lat":39.10043,"lng":-84.512939,"type":"bar, restaurant"},
{"id":141,"company":"Allyn's Cafe","address":"3538 Columbia Parkway, Cincinnati, OH 45226","lat":39.116498,"lng":-84.437585,"type":"bar, restaurant"},
{"id":142,"company":"Trotta's Pizza & Drive Thru","address":"3501 Werk Rd., Cincinnati, OH 45248","lat":39.141011,"lng":-84.618885,"type":"bar, restaurant"},
{"id":143,"company":"Marty's Corner Store","address":"6203 Branch Hill Guinea Pike, Milford, OH 45150","lat":39.214431,"lng":-84.240659,"type":"Carry-out"},
{"id":144,"company":"Village Keg","address":"5 Enfield St., Greenhills, OH 45218","lat":39.26978,"lng":-84.521473,"type":"Carry-out"},
{"id":145,"company":"Benchmark Outfitters","address":"9525 Kenwood Rd., Cincinnati, OH 45242","lat":39.230672,"lng":-84.37849,"type":"Carry-out"},
{"id":146,"company":"Exxon Beechwood","address":"3251 Mt. Carmel Rd., Cincinnati, OH 45244","lat":39.113973,"lng":-84.30799,"type":"Carry-out"},
{"id":147,"company":"Claddagh - Mason","address":"5075 Deerfield Blvd, Mason, OH 45040-2505","lat":39.306563,"lng":-84.31439,"type":"bar, restaurant"},
{"id":148,"company":"Luckie's Pony Keg","address":"8600 Blue Ash Rd, Cincinnati, OH 45236","lat":39.215608,"lng":-84.38678,"type":"Carry-out"},
{"id":149,"company":"Oakley Wines","address":"4011 Allston St., Cincinnati, OH 45209","lat":39.151968,"lng":-84.433207,"type":"Carry-out"},
{"id":150,"company":"Carl's Deli","address":"2836 Observatory, Cincinnati, OH 45208","lat":39.137431,"lng":-84.437291,"type":"bar, restaurant"},
{"id":151,"company":"Kwik n Kold - Wyoming","address":"1511 Springfield Pike, Wyoming, OH 45215","lat":39.241557,"lng":-84.471652,"type":"Carry-out"},
{"id":152,"company":"Ameristop - Fairfield","address":"6330 Pleasant Ave., Fairfield, OH 45014","lat":39.310253,"lng":-84.561558,"type":"Carry-out"},
{"id":153,"company":"Ameristore","address":"6545 Harrison Ave. 1st Floor, Cincinnati, OH 45247","lat":39.193781,"lng":-84.660222,"type":"Carry-out"},
{"id":154,"company":"Shaddocks Market","address":"4713 Central Ave., Middletown, OH 45042","lat":39.510469,"lng":-84.3447,"type":"Carry-out"},
{"id":155,"company":"Wildflower Cafe","address":"207 East Main St, Mason, OH 45040","lat":39.361364,"lng":-84.305635,"type":"bar, restaurant"},
{"id":156,"company":"Stone Creek Dining- West Chester","address":"6200 Muhlhauser Rd, West Chester, OH 45069","lat":39.325654,"lng":-84.427367,"type":"bar, restaurant"},
{"id":157,"company":"312 Bar","address":"8450 Blue Ash Dr., Cincinnati, OH 45236","lat":39.211865,"lng":-84.388633,"type":"bar, restaurant"},
{"id":158,"company":"Western Bowl","address":"6383 Glenway Ave., Cincinnati, OH 45211","lat":39.148658,"lng":-84.628787,"type":"bar, restaurant"},
{"id":159,"company":"Gabby's Cafe","address":"515 Wyoming Ave, Wyoming, OH 45215","lat":39.22691,"lng":-84.465177,"type":"bar, restaurant"},
{"id":160,"company":"Olives @Ludlow Garage","address":"342 Ludlow ave, Cincinnati, OH 45220","lat":39.144088,"lng":-84.521274,"type":"bar, restaurant"},
{"id":161,"company":"Jeff's Quick Stop","address":"367 Bridge St., Loveland, OH 45140","lat":39.246217,"lng":-84.293776,"type":"Carry-out"},
{"id":162,"company":"Double Tree Suites Bistro - Blue Ash","address":"6300 E. Kemper Rd., Delver back dock by dumpster, OH 45241","lat":39.279883,"lng":-84.406761,"type":"bar, restaurant"},
{"id":163,"company":"Queen City Wine & Spirits","address":"113 E. 5th St., Cincinnati, OH 45202","lat":39.101331,"lng":-84.510999,"type":"Carry-out"},
{"id":164,"company":"Wyoming Wines","address":"1208 Springfield Pike, Cincinnati, OH 45215","lat":39.236592,"lng":-84.471316,"type":"Carry-out"},
{"id":165,"company":"Ameristop - Springdale Rd.","address":"5687 Springdale Rd., Cincinnati, OH 45247","lat":39.232856,"lng":-84.628007,"type":"Carry-out"},
{"id":166,"company":"Tap n Go","address":"950 Pavilion St., Cincinnati, OH 45202","lat":39.107774,"lng":-84.497062,"type":"bar, restaurant"},
{"id":167,"company":"Wurst Bar on the Square","address":"3204 Linwood Ave., Cincinnati, OH 45208","lat":39.128274,"lng":-84.429888,"type":"bar, restaurant"},
{"id":168,"company":"National Exemplar","address":"6880 Wooster Pike, Mariemont, OH 45227","lat":39.14577,"lng":-84.376417,"type":"bar, restaurant"},
{"id":169,"company":"Mac's Pizza Pub","address":"205 W McMillian St, Cincinnati, OH 45219","lat":39.127844,"lng":-84.519595,"type":"bar, restaurant"},
{"id":170,"company":"Barnesburg Tavern","address":"5744 Springdale Rd., Cincinnati, OH 45239","lat":39.231123,"lng":-84.629748,"type":"bar, restaurant"},
{"id":171,"company":"Aubrey Rose Foundation","address":"35 W 5th St., Cincinnati, Oh 45231","lat":39.100977,"lng":-84.514206,"type":"bar, restaurant"},
{"id":172,"company":"Cloud 9","address":"1018 Delta Ave., Cincinnati, OH 45208","lat":39.129022,"lng":-84.429758,"type":"bar, restaurant"},
{"id":173,"company":"Mama Mimi's - Kenwood","address":"7714 B Montgomery Rd., Cincinnati, OH 45236","lat":39.197137,"lng":-84.385397,"type":"bar, restaurant"},
{"id":174,"company":"Delicio Coal Fired Pizza","address":"9321 Montgomery Rd., Montgomery, OH 45242","lat":39.224819,"lng":-84.355705,"type":"bar, restaurant"},
{"id":175,"company":"Mio's Pizza - Clifton","address":"2634 Vine St., Cincinnati, OH 45219","lat":39.130227,"lng":-84.509187,"type":"bar, restaurant"},
{"id":176,"company":"O'Bryons Pub","address":"1998 Madison Rd, Cincinnati, OH 45208","lat":39.132194,"lng":-84.463141,"type":"bar, restaurant"},
{"id":177,"company":"Rapid Run Carryout","address":"5179 Rapid Run Rd., Cincinnati, OH 45238","lat":39.111323,"lng":-84.613046,"type":"Carry-out"},
{"id":178,"company":"Main Stay Rock Bar","address":"301 W 5th St., Cincinnati, OH 45202","lat":39.100239,"lng":-84.517957,"type":"bar, restaurant"},
{"id":179,"company":"MJ's On Main","address":"18 Main St., Milford, OH 45150","lat":39.17218,"lng":-84.296111,"type":"bar, restaurant"},
{"id":180,"company":"Embers Restaurant","address":"8170 Montgomery Rd., Madeira, OH 45236","lat":39.204377,"lng":-84.368555,"type":"bar, restaurant"},
{"id":181,"company":"Kroger 383 - Middletown","address":"7300 Yankee Rd, Middletown, OH 45044","lat":39.376862,"lng":-84.376381,"type":"Carry-out"},
{"id":182,"company":"Wine Store - Montgomery","address":"9905 Montgomery Rd., Cincinnati, OH 45242","lat":39.235993,"lng":-84.350486,"type":"Carry-out"},
{"id":183,"company":"Madeira Wine & Spirits","address":"6917 Miami Ave., Maderia, OH 45243","lat":39.187121,"lng":-84.363724,"type":"Carry-out"},
{"id":184,"company":"Brew House","address":"1047 E. McMillan St., Cincinnati, OH 45206","lat":39.12547,"lng":-84.486688,"type":"bar, restaurant"},
{"id":185,"company":"Camp Dennison","address":"10005 Fletcher Rd., Camp Dennison, OH 45111","lat":39.210547,"lng":-84.291286,"type":"bar, restaurant"},
{"id":186,"company":"Habanero","address":"358 Ludlow Ave., Cincinnati, OH 45220","lat":39.143867,"lng":-84.521795,"type":"bar, restaurant"},
{"id":187,"company":"Anderson Food Mart","address":"6730 Clough Pike, Cincinnati, OH 45244","lat":39.098479,"lng":-84.36859,"type":"Carry-out"},
{"id":188,"company":"Crows Nest","address":"4544 W 8th St., Cincinnati, OH 45238","lat":39.109421,"lng":-84.600966,"type":"bar, restaurant"},
{"id":189,"company":"Seeger's","address":"1001 W Main St, Lebanon, OH 45036","lat":39.434436,"lng":-84.225704,"type":"Carry-out"},
{"id":190,"company":"Stanley's","address":"323 Stanley Ave, Cincinnati, OH 45226","lat":39.115075,"lng":-84.437369,"type":"bar, restaurant"},
{"id":191,"company":"Trio Restaurant","address":"7465 Kenwood Road Ste. 11, Cincinnati, OH 45236","lat":39.198615,"lng":-84.380442,"type":"bar, restaurant"},
{"id":192,"company":"Moerlein Lager House","address":"115 Knuxhall Way, Cincinnati, OH 45202","lat":39.096414,"lng":-84.508464,"type":"bar, restaurant"},
{"id":193,"company":"Lavomatic Cafe","address":"1211 Vine St., Cincinnati, OH 45202","lat":39.108679,"lng":-84.515002,"type":"bar, restaurant"},
{"id":194,"company":"Blue Wisp Jazz Club","address":"700 Race St., Cincinnati, OH 45202","lat":39.103507,"lng":-84.515242,"type":"bar, restaurant"},
{"id":195,"company":"Putter's - Milford","address":"5723 Signal Hill Ct., Milford, OH 45150","lat":39.185861,"lng":-84.267056,"type":"bar, restaurant"},
{"id":196,"company":"Doc's Place","address":"12 Mulberry St., Lebanon, OH 45036","lat":39.434607,"lng":-84.208687,"type":"bar, restaurant"},
{"id":197,"company":"2 Putt Tavern and Grill","address":"6040 St. Rt. 48, Maineville, OH 45039","lat":39.315059,"lng":-84.22077,"type":"bar, restaurant"},
{"id":198,"company":"Cincy By The Slice","address":"1207 Main St., Cincinnati, OH 45202","lat":39.109016,"lng":-84.511907,"type":"bar, restaurant"},
{"id":199,"company":"Yard House - Cincinnati","address":"95 East Freedom Way, Cincinnati, OH 45202","lat":39.097169,"lng":-84.510352,"type":"bar, restaurant"},
{"id":200,"company":"Mellow Mushroom West Chester","address":"9238 Floer Dr., West Chester, OH 45069","lat":39.323185,"lng":-84.430432,"type":"bar, restaurant"},
{"id":201,"company":"Buffalo Wings and Rings - Fairfield","address":"5486 Dixie HWY, Fairfield, OH 45014","lat":39.334152,"lng":-84.524562,"type":"bar, restaurant"},
{"id":202,"company":"Mason Pub & Patio","address":"753 Reading Rd., Mason, OH 45040","lat":39.349309,"lng":-84.326081,"type":"bar, restaurant"},
{"id":203,"company":"Ravine Market","address":"350 Warner St., Cincinnati, OH 45219","lat":39.125313,"lng":-84.525626,"type":"Carry-out"},
{"id":204,"company":"McLevy's Pub","address":"8512 Market Place Ln., Montgomery, OH 45242","lat":39.237192,"lng":-84.347431,"type":"bar, restaurant"},
{"id":205,"company":"At The Square","address":"1045 Central Ave., Middletown, OH 45042","lat":39.51662,"lng":-84.403821,"type":"bar, restaurant"},
{"id":206,"company":"Ruth's Parkside Cafe","address":"4101 Spring Grove Ave., Cincinnati, OH 45223","lat":39.160302,"lng":-84.53716,"type":"bar, restaurant"},
{"id":207,"company":"Hatting's Super Market","address":"6148 Bridgetown Rd., Cincinnati, OH 45248","lat":39.157118,"lng":-84.650777,"type":"Carry-out"},
{"id":208,"company":"JP's Food Mart","address":"6380 Branch Hill-Guinea Pike, Cincinnati, OH 45140","lat":39.241139,"lng":-84.248952,"type":"Carry-out"},
{"id":209,"company":"Twig's Liquor","address":"11018 Reading Rd, Cincinnati, OH 45241","lat":39.268824,"lng":-84.413054,"type":"Carry-out"},
{"id":210,"company":"Mecklenburg Gardens","address":"302 E. University Ave, Cincinnati, OH 45219","lat":39.132701,"lng":-84.502638,"type":"bar, restaurant"},
{"id":211,"company":"Cumin","address":"3520 Erie Ave, Cincinnati, OH 45208","lat":39.141223,"lng":-84.418493,"type":"bar, restaurant"},
{"id":212,"company":"Obscura","address":"645 Walnut St., Cincinnati, OH 45202","lat":39.103708,"lng":-84.511969,"type":"bar, restaurant"},
{"id":213,"company":"Bogart's","address":"2621 Vine St., Cincinnati, OH 45219","lat":39.12992,"lng":-84.509549,"type":"bar, restaurant"},
{"id":214,"company":"Brazenhead - Tylersville","address":"5650 Tylersville Rd, Mason, OH 45040","lat":39.352126,"lng":-84.32263,"type":"bar, restaurant"},
{"id":215,"company":"LaRosa's - Colerain","address":"3657 Stonecreek Blvd, Cincinnati, OH 45251","lat":39.252899,"lng":-84.600034,"type":"bar, restaurant"},
{"id":216,"company":"Louie's Tap House & Grill","address":"8267 Arbor Square Dr, Mason, OH 45040","lat":39.318677,"lng":-84.314101,"type":"bar, restaurant"},
{"id":217,"company":"Lucy Blue","address":"1126 Main St., Cincinnati, OH 45202","lat":39.108757,"lng":-84.51099,"type":"bar, restaurant"},
{"id":218,"company":"Murphy's Irish Pub","address":"2329 W Clifton Ave., Cincinnati, OH 45219","lat":39.124628,"lng":-84.520082,"type":"bar, restaurant"},
{"id":219,"company":"Shady O' Grady's","address":"9443 Loveland Madeira Rd., Cincinnati, OH 45242","lat":39.227725,"lng":-84.324093,"type":"bar, restaurant"},
{"id":220,"company":"Tina's","address":"350 W 4th St, Cincinnati, OH 45202","lat":39.0991,"lng":-84.518462,"type":"bar, restaurant"},
{"id":221,"company":"Mio's Pizza - Blue Ash","address":"9500 Kenwood Rd. Unit C&D, Blue Ash, OH 45242","lat":39.232003,"lng":-84.378273,"type":"bar, restaurant"},
{"id":222,"company":"Ameristop - Fields Ertel","address":"8675 Fields Ertel Rd., Mason, OH 45040","lat":39.293154,"lng":-84.328604,"type":"Carry-out"},
{"id":223,"company":"Wild Mike's - Green Township","address":"4498 Harrison Ave., Cincinnati, OH 45211","lat":39.164285,"lng":-84.630138,"type":"bar, restaurant"},
{"id":224,"company":"Kroger 336 - Monroe","address":"3033 Heritage Green Dr, Monroe, OH 45050","lat":39.442801,"lng":-84.37775,"type":"Carry-out"},
{"id":225,"company":"Dive Bar - Cincy","address":"2608 Vine St, Cincinnati, OH 45219","lat":39.129486,"lng":-84.509272,"type":"bar, restaurant"},
{"id":226,"company":"Larry's Convenient Store","address":"5810 Cheviot Rd., Cincinnati, OH 45247","lat":39.198828,"lng":-84.600999,"type":"Carry-out"},
{"id":227,"company":"Locals Sports Bar and Grill","address":"19 E. 7th St., Cincinnati, OH 45202","lat":39.103709,"lng":-84.513025,"type":"bar, restaurant"},
{"id":228,"company":"Mama Mimi's - Oakley","address":"3923 Isabella Ave., Cincinnati, OH 45209","lat":39.150982,"lng":-84.432292,"type":"bar, restaurant"},
{"id":229,"company":"Shell 1202 - Calhoun St.","address":"205 Calhoun St., Cincinnati, OH 45219","lat":39.128098,"lng":-84.514988,"type":"Carry-out"},
{"id":230,"company":"Wine Guys - Bridgewater","address":"3371 Princeton Rd., Hamilton, OH 45011","lat":39.390572,"lng":-84.503671,"type":"bar, restaurant"},
{"id":231,"company":"Bistro Grace","address":"4034 Hamilton Ave., Cincinnati, OH 45223","lat":39.159504,"lng":-84.539099,"type":"bar, restaurant"},
{"id":232,"company":"Langen Meats","address":"5855 Cheviot Rd., Cincinnati, OH 45247","lat":39.199799,"lng":-84.601097,"type":"Carry-out"},
{"id":233,"company":"Noonan's Party Supply","address":"1350 Main Street, Hamilton, OH 45013","lat":39.421409,"lng":-84.590581,"type":"Carry-out"},
{"id":234,"company":"Pleasant Hour Cafe","address":"6083 Montgomery Rd., Cincinnati, OH 45213","lat":39.182222,"lng":-84.428065,"type":"bar, restaurant"},
{"id":235,"company":"Meritage Restaurant","address":"1140 Congress Ave., Cincinnati, OH 45246","lat":39.276319,"lng":-84.467852,"type":"bar, restaurant"},
{"id":236,"company":"Mantra","address":"932-34 Hatch St, Cincinnati, OH 45209","lat":39.109498,"lng":-84.49766,"type":"bar, restaurant"},
{"id":237,"company":"Desales Market","address":"2841 Woodburn Ave., Cincinnati, OH 45206","lat":39.130039,"lng":-84.476732,"type":"Carry-out"},
{"id":238,"company":"Marathon - West Chester","address":"7809 Cin-Day Rd, West Chester, OH 45069","lat":39.341965,"lng":-84.406761,"type":"Carry-out"},
{"id":239,"company":"Stained 1054 Bistro","address":"1054 Central Ave., Middletown, OH 45044","lat":39.516206,"lng":-84.403826,"type":"bar, restaurant"},
{"id":240,"company":"Walgreens - Mitchell","address":"9 W Mitchell Ave., Cincinnati, OH 45217","lat":39.160815,"lng":-84.506125,"type":"Carry-out"},
{"id":241,"company":"Ameristop Food Mart #29100","address":"8260 Princeton Glendale Road, West Chester, OH 45069","lat":39.351356,"lng":-84.461299,"type":"Carry-out"},
{"id":242,"company":"Camargo Beverage","address":"8161 Camargo Rd, Madeira, OH 45243","lat":39.192326,"lng":-84.350897,"type":"Carry-out"},
{"id":243,"company":"Fogarty's","address":"3620 Harrison Ave., Cheviot, OH 45211","lat":39.156109,"lng":-84.610067,"type":"bar, restaurant"},
{"id":244,"company":"Middletown Fine Wine and Spirits","address":"721 Breiel Blvd., Middletown, OH 45044","lat":39.502725,"lng":-84.354741,"type":"Carry-out"},
{"id":245,"company":"Million's Cafe","address":"3210 Linwood Ave., Cincinnati, OH 45226","lat":39.12819,"lng":-84.429896,"type":"bar, restaurant"},
{"id":246,"company":"Quencher Drive Thru","address":"6720 Clough Pike, Cincinnati, OH 45244","lat":39.098759,"lng":-84.368524,"type":"Carry-out"},
{"id":247,"company":"Sunoco - Bethel","address":"622 W. Plane St., Bethel, OH 45106","lat":38.965015,"lng":-84.090125,"type":"Carry-out"},
{"id":248,"company":"Wine Guys - Banks","address":"161 Freedom Way East, Cincinnati, OH 45202","lat":39.097237,"lng":-84.509895,"type":"bar, restaurant"},
{"id":249,"company":"Pizzelli Pizza","address":"7639 Wooster Pike, Cincinnati, OH 45227","lat":39.138751,"lng":-84.354139,"type":"bar, restaurant"},
{"id":250,"company":"Pub - Rookwood","address":"2692 Edmondson Rd., Norwood, OH 45209","lat":39.148899,"lng":-84.444231,"type":"bar, restaurant"},
{"id":251,"company":"Riversbend Wine & Spirits","address":"6052 S. State Route 48, Maineville, OH 45039","lat":39.344961,"lng":-84.218969,"type":"Carry-out"},
{"id":252,"company":"Mio's Pizza - Anderson","address":"8298 Clough Pike, Cincinnati, OH 45244","lat":39.088312,"lng":-84.322361,"type":"bar, restaurant"},
{"id":253,"company":"Smile Drive Thru","address":"5430 Glenway Ave., Cincinnati, OH 45238","lat":39.129452,"lng":-84.606465,"type":"Carry-out"},
{"id":254,"company":"Nectar","address":"1000 Delta Ave., Cincinnati, OH 45209","lat":39.128472,"lng":-84.429877,"type":"bar, restaurant"},
{"id":255,"company":"Piazza Discepoli - White Oak","address":"5872 Cheviot Road, Cincinnati, OH 45247","lat":39.200243,"lng":-84.600765,"type":"Carry-out"},
{"id":256,"company":"Troy's Cafe & Catering","address":"4877 Smith Rd, West Chester, OH 45069","lat":39.351018,"lng":-84.453697,"type":"bar, restaurant"},
{"id":257,"company":"Norwood Drive Thru","address":"5463 Montgomery Rd., Cincinnati, OH 45212","lat":39.173683,"lng":-84.444407,"type":"Carry-out"},
{"id":258,"company":"1215 Vine St. Wine Bar","address":"1215 Vine St., Cincinnati, OH 45202","lat":39.108862,"lng":-84.514933,"type":"bar, restaurant"},
{"id":259,"company":"Grotto - Cincinnati","address":"1101 St. Gregory St., Cincinnati, OH 45202","lat":39.107925,"lng":-84.497741,"type":"bar, restaurant"},
{"id":260,"company":"Cintas Center","address":"3800 Victory Pkwy., Cincinnati, OH 45207","lat":39.151812,"lng":-84.469049,"type":"bar, restaurant"},
{"id":261,"company":"Mama Vitas","address":"6405 Branch Hill Guinea Pike, Loveland, OH 45140","lat":39.230519,"lng":-84.259069,"type":"bar, restaurant"},
{"id":262,"company":"Mt. Lookout Tavern","address":"3209 Linwood Ave., Cincinnati, OH 45226","lat":39.128209,"lng":-84.430285,"type":"bar, restaurant"},
{"id":263,"company":"Nonu, Inc. - The Wine List","address":"7753 Tylersville Rd., West Chester, OH 45069","lat":39.353179,"lng":-84.366603,"type":"Carry-out"},
{"id":264,"company":"Plum St. Cafe","address":"423 Plum St., Cincinnati, OH 45202","lat":39.103238,"lng":-84.518489,"type":"bar, restaurant"},
{"id":265,"company":"Reading Village Market","address":"8400 Reading Rd., Reading, OH 45237","lat":39.211865,"lng":-84.447151,"type":"Carry-out"},
{"id":266,"company":"Shell - Sharonville","address":"11820 Lebanon Rd., Sharonville, OH 45241","lat":39.287846,"lng":-84.395483,"type":"Carry-out"},
{"id":267,"company":"Walgreens - North Bend","address":"5403 N Bend Rd., Cincinnati, OH 45247","lat":39.189246,"lng":-84.602293,"type":"Carry-out"},
{"id":268,"company":"Art of Entertaining","address":"2019 Madison Rd., Cincinnati, OH 45208","lat":39.132136,"lng":-84.462112,"type":"bar, restaurant"},
{"id":269,"company":"A Bottle or Two","address":"11920 Montgomery Rd, Cincinnati, OH 45249","lat":39.285984,"lng":-84.30918,"type":"bar, restaurant"},
{"id":270,"company":"Goodfella's - Beechmont","address":"7466 Beechmont Ave. Suite 412, Cincinnati, OH 45255","lat":39.072831,"lng":-84.349776,"type":"bar, restaurant"},
{"id":271,"company":"Piccolo Wine Room","address":"23 Village Square, Cincinnati, OH 45246","lat":39.27087,"lng":-84.459433,"type":"Carry-out"},
{"id":272,"company":"Nada","address":"600 Walnut St, Cincinnati, OH 45202","lat":39.102969,"lng":-84.511412,"type":"bar, restaurant"},
{"id":273,"company":"Ameristop-Liberty Twp","address":"6583 Cin-Day Rd., Middletown, OH 45044","lat":39.515058,"lng":-84.398276,"type":"Carry-out"},
{"id":274,"company":"Clifton International Market","address":"3232 Jefferson Ave., Cincinnati, OH 45220","lat":39.139141,"lng":-84.512015,"type":"Carry-out"},
{"id":275,"company":"Johnny's Campus Deli","address":"209 E. Sycamore St, Oxford, OH 45056","lat":39.515061,"lng":-84.738891,"type":"bar, restaurant"},
{"id":276,"company":"Uncorked at the Spicy Olive","address":"7671 Cox Ln. Unit A, West Chester, OH 45069","lat":39.355561,"lng":-84.365666,"type":"bar, restaurant"},
{"id":277,"company":"Winner's Market","address":"4203 Kirby Ave., Cincinnati, OH 45223","lat":39.164707,"lng":-84.547724,"type":"Carry-out"},
{"id":278,"company":"Red Robin - West Chester","address":"9434 Civic Center Blvd., West Chester, OH 45069","lat":39.3235,"lng":-84.397465,"type":"bar, restaurant"},
{"id":279,"company":"BP - Beechmont","address":"7380 Beechmont Ave., Cincinnati, OH 45230","lat":39.07285,"lng":-84.352678,"type":"Carry-out"},
{"id":280,"company":"BP - Loveland","address":"226 Loveland Madeira Rd., Loveland, OH 45140","lat":39.267007,"lng":-84.266301,"type":"Carry-out"},
{"id":281,"company":"Car Rock Cafe","address":"7912 Blue Ash Rd., Cincinnati, OH 45236","lat":39.204987,"lng":-84.392845,"type":"bar, restaurant"},
{"id":282,"company":"Jeff's Drive Thru & Carryout","address":"6364 Bridgetown Rd., Green Township, OH 45248","lat":39.153849,"lng":-84.656857,"type":"Carry-out"},
{"id":283,"company":"Kroger 907 - City of Harrison","address":"10515 Harrison Av, Harrison, OH 45030","lat":39.253755,"lng":-84.796158,"type":"Carry-out"},
{"id":284,"company":"Kroger 934 - Erie Blvd","address":"1450 S Erie Blvd, Hamilton, OH 45011","lat":39.381729,"lng":-84.549593,"type":"Carry-out"},
{"id":285,"company":"Lou's Beverage","address":"740 Reading Rd. (Rt. 42), Mason, OH 45040","lat":39.360059,"lng":-84.309939,"type":"Carry-out"},
{"id":286,"company":"Marathon - Mason","address":"6391 Reading Rd., Mason, OH 45040","lat":39.346827,"lng":-84.329933,"type":"Carry-out"},
{"id":287,"company":"Old E Drive Thru","address":"11360 US 50, North Bend, OH 45052","lat":39.150012,"lng":-84.818042,"type":"Carry-out"},
{"id":288,"company":"Red Ox","address":"95 E. Chestnut St., Oxford, OH 45056","lat":39.500115,"lng":-84.741395,"type":"bar, restaurant"},
{"id":289,"company":"Shell - North Bend","address":"5394 North Bend Rd., Cincinnati, OH 45247","lat":39.187768,"lng":-84.602295,"type":"Carry-out"},
{"id":290,"company":"Via Vite","address":"520 Vine Street, Cincinnati, OH 45202","lat":39.101898,"lng":-84.513027,"type":"bar, restaurant"},
{"id":291,"company":"Wine Guys - Rookwood","address":"2692 Madison Rd., Cincinnati, OH 45208","lat":39.146504,"lng":-84.44446,"type":"bar, restaurant"},
{"id":292,"company":"Banana Leaf Modern Thai","address":"101 E Main St., Mason, OH 45040","lat":39.359632,"lng":-84.308732,"type":"bar, restaurant"},
{"id":293,"company":"Senate","address":"1214 Vine St, Cincinnati, OH 45202","lat":39.108906,"lng":-84.514317,"type":"bar, restaurant"},
{"id":294,"company":"Padrino","address":"111 Main St., Milford, OH 45150","lat":39.173145,"lng":-84.296354,"type":"bar, restaurant"},
{"id":295,"company":"Quanhapa","address":"1331 Vine St., Cincinnati, OH 45202","lat":39.110393,"lng":-84.515404,"type":"bar, restaurant"},
{"id":296,"company":"Copper Blue","address":"900 Main St., Milford, OH 45150","lat":39.17767,"lng":-84.280031,"type":"bar, restaurant"},
{"id":297,"company":"Wine Connection","address":"1258 St. Rt. 28 (Goshen Pike), Milford, OH 45150","lat":39.16908,"lng":-84.267334,"type":"Carry-out"},
{"id":298,"company":"Quarter Bistro","address":"6904 Wooster Pike, Cincinnati, OH 45227","lat":39.14517,"lng":-84.373097,"type":"bar, restaurant"},
{"id":299,"company":"Pho Lang Thang","address":"114 W. Elder St., Cincinnati, OH 45202","lat":39.115481,"lng":-84.518891,"type":"bar, restaurant"},
{"id":300,"company":"J.R.'s Table","address":"713 Vine Street, Cincinnati, OH 45202","lat":39.104255,"lng":-84.51416,"type":"bar, restaurant"},
{"id":301,"company":"Mama Mimi's - Beechmont","address":"8312 Beechmont Ave., Cincinnati, OH 45255","lat":39.072954,"lng":-84.324183,"type":"bar, restaurant"},
{"id":302,"company":"Old Bag of Nails Pub","address":"5234 Kings Mills Rd., Mason, OH 45040","lat":39.356593,"lng":-84.280394,"type":"bar, restaurant"},
{"id":303,"company":"Jimmy G's","address":"435 Elm St., Cincinnati, OH 45205","lat":39.100465,"lng":-84.516313,"type":"bar, restaurant"},
{"id":304,"company":"Art for the Heart","address":"6980 Cambridge Ave., Mariemont, OH 45227","lat":39.148766,"lng":-84.372392,"type":"Carry-out"},
{"id":305,"company":"Baba Budans","address":"239 W McMillian, Cincinnati, OH 45219","lat":39.127682,"lng":-84.520898,"type":"bar, restaurant"},
{"id":306,"company":"Bob's 8th St. Drive Thru","address":"4209 W. 8th St., Cincinnati, OH 45205","lat":39.106927,"lng":-84.589282,"type":"Carry-out"},
{"id":307,"company":"BP - Hopple St.","address":"1326 Hopple St., Cincinnati, OH 45225","lat":39.137326,"lng":-84.538496,"type":"Carry-out"},
{"id":308,"company":"Bronte Bistro at Joseph Beth","address":"2692 Madison Ave., Cincinnati, OH 45208","lat":39.146504,"lng":-84.44446,"type":"bar, restaurant"},
{"id":309,"company":"Clermont Springs Deli","address":"8427 Beechmont Ave., Cincinnati, OH 45255","lat":39.072303,"lng":-84.321122,"type":"bar, restaurant"},
{"id":310,"company":"Exxon - Mt. Carmel","address":"4248 Mt. Carmel Tabasco Rd., Cincinnati, OH 45244","lat":39.086034,"lng":-84.300064,"type":"Carry-out"},
{"id":311,"company":"Hahana Beach","address":"7605 Woster Pk, Cincinnati, OH 45244","lat":39.13911,"lng":-84.356378,"type":"bar, restaurant"},
{"id":312,"company":"Lehr's","address":"740 Main St., Milford, OH 45150","lat":39.176936,"lng":-84.284715,"type":"Carry-out"},
{"id":313,"company":"Moon Market","address":"512-516 S. Locust St., Oxford, OH 45056","lat":39.50558,"lng":-84.74943,"type":"Carry-out"},
{"id":314,"company":"Mt Adams Pavillion","address":"949 Pavillion St, Cincinnati, OH 45202","lat":39.107488,"lng":-84.497246,"type":"bar, restaurant"},
{"id":315,"company":"Rootie's","address":"3609 Harrison Rd., Cheviot, OH 45211","lat":39.155847,"lng":-84.609663,"type":"bar, restaurant"},
{"id":316,"company":"School House Resturant","address":"8031 Glendale-Milford Rd., Camp Dennison, OH 45111","lat":39.198754,"lng":-84.289107,"type":"bar, restaurant"},
{"id":317,"company":"Take Home Tano","address":"851 Loveland Madeira Rd., Loveland, OH 45140","lat":39.261693,"lng":-84.27107,"type":"bar, restaurant"},
{"id":318,"company":"U-Shop","address":"21 E .High St., Oxford, OH 45056","lat":39.510249,"lng":-84.741718,"type":"Carry-out"},
{"id":319,"company":"Walgreens - Corry St.","address":"1 W Corry St., Cincinnati, OH 45219","lat":39.128541,"lng":-84.508824,"type":"Carry-out"},
{"id":320,"company":"Walgreens - Main St.","address":"406 Main St., Cincinnati, OH 45202","lat":39.100718,"lng":-84.509173,"type":"Carry-out"},
{"id":321,"company":"Walgreens 12831 - Beechmont","address":"7135 Beechmont Ave., Cincinnati, OH 45230","lat":39.073251,"lng":-84.362212,"type":"Carry-out"},
{"id":322,"company":"Woody's - Clifton","address":"339 Calhoun St., Cincinnati, OH 45219","lat":39.128347,"lng":-84.519972,"type":"bar, restaurant"},
{"id":323,"company":"Anchor","address":"1401 Race St., Cincinnati, OH 45202","lat":39.110402,"lng":-84.517289,"type":"bar, restaurant"},
{"id":324,"company":"Main St. Wine & Spirits","address":"1252 W OHIO PK, Amelia, OH 45102","lat":39.047778,"lng":-84.243328,"type":"Carry-out"},
{"id":325,"company":"Monty's on Montgomery","address":"4108 Montgomery Rd., Norwood, OH 45212","lat":39.154006,"lng":-84.460584,"type":"bar, restaurant"},
{"id":326,"company":"Keystone Bar & Grill - Clifton","address":"249 Calhoun St., Cincinnati, OH 45219","lat":39.12831,"lng":-84.516543,"type":"bar, restaurant"},
{"id":327,"company":"Springboro Wine and Spirits","address":"281 W Central Ave, Springboro, OH 45066","lat":39.559058,"lng":-84.241098,"type":"Carry-out"},
{"id":328,"company":"Daniel's Restaurant & Pub","address":"2735 Vine St., Cincinnati, OH 45219","lat":39.13154,"lng":-84.509687,"type":"bar, restaurant"},
{"id":329,"company":"Barrio - Cincinnati","address":"3935 Spring Grove Ave., Cincinnati, OH 45223","lat":39.158038,"lng":-84.540116,"type":"bar, restaurant"},
{"id":330,"company":"Wine Source, The","address":"11802 Springfield Pike, Cincinnati, OH 45246","lat":39.292454,"lng":-84.485256,"type":"Carry-out"},
{"id":331,"company":"Beckett Wine and Liquor","address":"8212 Princeton-Glendale Rd., West Chester, OH 45069","lat":39.353092,"lng":-84.461179,"type":"Carry-out"},
{"id":332,"company":"Pick N Go","address":"4746 Spring Grove Ave., Cincinnati, OH 45232","lat":39.165488,"lng":-84.514535,"type":"Carry-out"},
{"id":333,"company":"Donna's Carryout","address":"1919 Clenay Ave., Cincinnati, OH 45212","lat":39.148236,"lng":-84.465295,"type":"Carry-out"},
{"id":334,"company":"FB","address":"126 W 6th St, Cincinnati, OH 45202","lat":39.102118,"lng":-84.515804,"type":"bar, restaurant"},
{"id":335,"company":"Madeira Market","address":"7722 Laurel Ave., Madeira, OH 45243","lat":39.189688,"lng":-84.362187,"type":"Carry-out"},
{"id":336,"company":"Main St. Gourmet","address":"9 S. Main St., Oxford, OH 45056","lat":39.510054,"lng":-84.742143,"type":"bar, restaurant"},
{"id":337,"company":"Relish Fusion Tapas","address":"5947 Deerfield Blvd., Mason, OH 45040","lat":39.30782,"lng":-84.320385,"type":"bar, restaurant"},
{"id":338,"company":"Sports Depot Bar and Grill","address":"6701 Ruwes Oak Dr., Cincinnati, OH 45248","lat":39.195901,"lng":-84.675653,"type":"bar, restaurant"},
{"id":339,"company":"Sunoco - Ohio Pike","address":"1263 Ohio Pike, Amelia, OH 45102","lat":39.045695,"lng":-84.243651,"type":"Carry-out"},
{"id":340,"company":"Applebee's - Eastgate","address":"4440 Glen Este Withamsville Rd., Cincinnati, OH 45231","lat":39.095025,"lng":-84.261649,"type":"bar, restaurant"},
{"id":341,"company":"BP - Blue Ash","address":"6151 Pfeiffer Rd., Blue Ash, OH 45242","lat":39.249412,"lng":-84.367748,"type":"Carry-out"},
{"id":342,"company":"BP - West Chester","address":"9171 Union Center Blvd., West Chester, OH 45069","lat":39.324946,"lng":-84.435062,"type":"Carry-out"},
{"id":343,"company":"Chad's Drive Thru","address":"7551 Harrison Ave., Cincinnati, OH 45247","lat":39.216959,"lng":-84.689319,"type":"Carry-out"},
{"id":344,"company":"Emilia Enoteca","address":"2038 Madison Rd, Cincinnati, OH 45208","lat":39.132294,"lng":-84.461374,"type":"bar, restaurant"},
{"id":345,"company":"Holiday Inn - Sharonville","address":"3855 Hauck Rd., Sharonville, OH 45241","lat":39.289941,"lng":-84.398429,"type":"bar, restaurant"},
{"id":346,"company":"Kroger 376 - St. Route 22 & 3","address":"2900 US Route 22, Maineville, OH 45039","lat":39.308678,"lng":-84.276517,"type":"Carry-out"},
{"id":347,"company":"Larry's Food Mart - Stephenson Oil Company","address":"3920 Wade Mill Rd., Hamilton, OH 45014","lat":39.320789,"lng":-84.639634,"type":"Carry-out"},
{"id":348,"company":"Marathon - Cheviot","address":"6050 Cheviot Rd., Cincinnati, OH 45247","lat":39.203132,"lng":-84.59963,"type":"Carry-out"},
{"id":349,"company":"One Stop Party Shop","address":"5215 Delhi Pike, Cincinnati, OH 45238","lat":39.094314,"lng":-84.616131,"type":"Carry-out"},
{"id":350,"company":"Roswells Bar","address":"3735 Glenmore Ave., Cheviot, OH 45211","lat":39.155865,"lng":-84.611487,"type":"bar, restaurant"},
{"id":351,"company":"Shell - Harper's Point","address":"11406 Montgomery Rd., Cincinnati, OH 45249","lat":39.273015,"lng":-84.326557,"type":"Carry-out"},
{"id":352,"company":"Shell - Hyde Park","address":"3980 Erie Ave., Cincinnati, OH 45208","lat":39.14979,"lng":-84.407541,"type":"Carry-out"},
{"id":353,"company":"COCK & BULL ENGLISH PUB","address":"601 MAIN STCOVINGTON KY 41011","lat":39.084009,"lng":-84.517774,"type":"bar, restaurant"},
{"id":354,"company":"DEP'S (FT. THOMAS)","address":"424 ALEXANDRIA PIKE FORT THOMAS KY 41075","lat":39.065112,"lng":-84.461015,"type":"Carry-out"},
{"id":355,"company":"PARTY TOWN (TURFWAY)","address":"6823 BURLINGTON PIKE FLORENCE KY 41042","lat":39.010537,"lng":-84.628766,"type":"Carry-out"},
{"id":356,"company":"COSMO'S ","address":"604 MAIN ST COVINGTON KY 41011","lat":39.083954,"lng":-84.517263,"type":"bar, restaurant"},
{"id":357,"company":"KEYSTONE PUB","address":"313 GREENUP ST COVINGTON KY 41011","lat":39.088284,"lng":-84.508285,"type":"bar, restaurant"},
{"id":358,"company":"PACHINKO","address":"424 W 6TH ST COVINGTON KY 41011","lat":39.084048,"lng":-84.517404,"type":"bar, restaurant"},
{"id":359,"company":"UNITED LIQUOR","address":"8470 US 42 FLORENCE KY 41042","lat":38.977131,"lng":-84.658235,"type":"Carry-out"},
{"id":360,"company":"THE PUB (CRESTVIEW HILLS)","address":"2853 DIXIE HIGHWAY CRESTVIEW HILLS KY 41017","lat":39.025355,"lng":-84.578863,"type":"bar, restaurant"},
{"id":361,"company":"MOLLY MALONE'S PUB (COV)","address":"112 EAST 4TH ST COVINGTON KY 41011","lat":39.087446,"lng":-84.508724,"type":"bar, restaurant"},
{"id":362,"company":"AMERASIA CAFE & BAR","address":"521 MADISON AVE COVINGTON KY 41011","lat":39.085111,"lng":-84.510995,"type":"bar, restaurant"},
{"id":363,"company":"SHORTNECKS","address":"830 MONMOUTH ST NEWPORT KY 41071","lat":39.088601,"lng":-84.490969,"type":"bar, restaurant"},
{"id":364,"company":"CRESCENT SPRINGS TOBACCO","address":"535 BUTTERMILK PIKE CRESCENT SPRING KY 41117","lat":39.048542,"lng":-84.576935,"type":"Carry-out"},
{"id":365,"company":"LIQUOR CITY - BAKEWELL","address":"430 BAKEWELL & 5 TH COVINGTON KY 41011","lat":39.085375,"lng":-84.518769,"type":"Carry-out"},
{"id":366,"company":"WALGREENS MADISON AVE","address":"1026 MADISON AVE COVINGTON KY 41011","lat":39.079849,"lng":-84.508509,"type":"Carry-out"},
{"id":367,"company":"DOWN UNDER REST & BAR","address":"126 PARK PLACE COVINGTON KY 41011","lat":39.08806,"lng":-84.50859,"type":"bar, restaurant"},
{"id":368,"company":"WUNDER BAR","address":"1132 LEE ST COVINGTON KY 41011","lat":39.076805,"lng":-84.515054,"type":"bar, restaurant"},
{"id":369,"company":"FORUM","address":"322 GREENUP ST COVINGTON KY 41011","lat":39.088118,"lng":-84.507681,"type":"bar, restaurant"},
{"id":370,"company":"PARTY SOURCE (BELLEVUE) ","address":"95 RIVIERA DR BELLEVUE KY 41073","lat":39.100314,"lng":-84.487595,"type":"Carry-out"},
{"id":371,"company":"CORK 'N BOTTLE (COV)","address":"501 Crescent Ave, Covington, KY 41011","lat":39.085214,"lng":-84.524033,"type":"Carry-out"},
{"id":372,"company":"CORK 'N BOTTLE (BUTTERMILK)","address":"584 Buttermilk Pike, Crescent Springs, KY 41017","lat":39.051095,"lng":-84.5765,"type":"Carry-out"},
{"id":373,"company":"TOUSEY HOUSE TAVERN","address":"5963 N Jefferson St, Burlington, KY 41005","lat":39.028741,"lng":-84.724203,"type":"bar, restaurant"},
{"id":374,"company":"HEBRON DISCOUNT LIQUOR AND TOBACCO","address":"2091 N Bend Rd Ste 110 Hebron, KY 41048","lat":39.086897,"lng":-84.71207,"type":"Carry-out"},
{"id":375,"company":"GOOD SPIRITS WINE AND TOBACCO (HEBRON)","address":"1960 N Bend Rd, Hebron, KY 41048","lat":39.091439,"lng":-84.712101,"type":"Carry-out"},
{"id":376,"company":"LIQUOR CABINET","address":"1990 N Bend Rd # A, Hebron, KY 41048","lat":39.08952,"lng":-84.710996,"type":"Carry-out"},
{"id":377,"company":"HEBRON BREW HAUS","address":"2030 Northside Dr, Hebron, KY 41048","lat":39.086194,"lng":-84.708596,"type":"bar, restaurant"},
{"id":378,"company":"HOLLAR HOPS AND GRILL","address":"Suite 1, 7500 Oakbrook Dr, Florence, KY 41042","lat":38.991007,"lng":-84.694787,"type":"bar, restaurant"},
{"id":379,"company":"STAR LIQUOR","address":"8645 Haines Dr, Florence, KY 41042","lat":38.972376,"lng":-84.664963,"type":"Carry-out"},
{"id":380,"company":"HEBRON CORNER MART","address":"2006 Petersburg Rd, Hebron, KY 41048","lat":39.066167,"lng":-84.703448,"type":"Carry-out"},
{"id":381,"company":"DIXIE GAS MART","address":"2220 DIXIEHWY. FT MITCHELL ,KY41017","lat":39.046413,"lng":-84.552658,"type":"Carry-out"},
{"id":382,"company":"FLIPDADDY'S (UNION)","address":"8863 U.S. 42, Union, KY 41091","lat":38.966191,"lng":-84.675656,"type":"bar, restaurant"},
{"id":383,"company":"GOOD SPIRITS (INDEPENDENCE)","address":"3960 Turkeyfoot Rd, Erlanger, KY 41018","lat":38.975148,"lng":-84.593274,"type":"Carry-out"},
{"id":384,"company":"GOOD SPIRITS (ERLANGER)","address":"3145 Dixie Hwy Ste B,Erlanger,KY 41018","lat":39.018773,"lng":-84.592307,"type":"Carry-out"},
{"id":385,"company":"MAINSTRASSE VILLAGE PUB","address":"619 Main St, Covington, KY 41011","lat":39.083499,"lng":-84.517769,"type":"bar, restaurant"},
{"id":386,"company":"DISCOUNT LIQUOR (EDGEWOOD)","address":"4035 Dixie Hwy, Elsmere, KY 41018","lat":39.011706,"lng":-84.607148,"type":"Carry-out"},
{"id":387,"company":"THE LIQUOR BOX","address":"4197 Richardson Rd, Independence, KY 41051","lat":38.966875,"lng":-84.599741,"type":"Carry-out"},
{"id":388,"company":"LIQUOR CITY FLORENCE","address":"7903 Dream St.Florence, KY 41042","lat":38.987735,"lng":-84.641441,"type":"Carry-out"}]

