[{"id":0,"company":"Jungle Jims - Eastgate","address":"4450 Eastgate South Drive, Cincinnati, OH 45245","lat":39.095927,"lng":-84.270897,"bar/restaurant or carry-out":"carry-out"},
{"id":1,"company":"Jungle Jim's Fairfield","address":"5440 Dixie Hwy., Fairfield, OH 45014","lat":39.335751,"lng":-84.524303,"bar/restaurant or carry-out":"carry-out"},
{"id":2,"company":"Neons #","address":"208 E. 12th St., Cincinnati, OH 45205","lat":39.109416,"lng":-84.511197,"bar/restaurant or carry-out":"bar/restaurant"},
{"id":3,"company":"Firehouse Grill #","address":"4785 Lake Forest Dr., Blue Ash, OH 45242","lat":39.251712,"lng":-84.378355,"bar/restaurant or carry-out":"bar/restaurant"},
{"id":4,"company":"Whole Foods - Mason","address":"5805 Deerfield Blvd., Mason, OH 45040","lat":39.307662,"lng":-84.3164,"bar/restaurant or carry-out":"carry-out"},
{"id":5,"company":"Bigg's - Hyde Park","address":"3872 Paxton Avenue, Cincinnati, OH 45209","lat":39.145987,"lng":-84.430102,"bar/restaurant or carry-out":"carry-out"},
{"id":6,"company":"Kroger 355 - Hyde Park","address":"3760 Paxton Ave, Cincinnati, OH 45209","lat":39.144519,"lng":-84.430121,"bar/restaurant or carry-out":"carry-out"},
{"id":7,"company":"Bigg's - Ridge/Remke","address":"3240 Highland Ave, Cincinnati, OH 45213","lat":39.16936,"lng":-84.428537,"bar/restaurant or carry-out":"carry-out"},
{"id":8,"company":"BP - Pleasant Ridge","address":"6135 Montgomery Rd, Cincinnati, OH 45213","lat":39.183628,"lng":-84.425658,"bar/restaurant or carry-out":"carry-out"},
{"id":9,"company":"Arthur's #","address":"3518 Edwards Rd., Cincinnati, OH 45208","lat":39.140292,"lng":-84.443184,"bar/restaurant or carry-out":"bar/restaurant"},
{"id":10,"company":"Whole Foods - Cincinnati","address":"2693 Edmondson Rd., Cincinnati, OH 45209","lat":39.145638,"lng":-84.447205,"bar/restaurant or carry-out":"carry-out"},
{"id":11,"company":"Kroger 915 - Beechmont","address":"7580 Beechmont Ave, Cincinnati, OH 45255","lat":39.07282,"lng":-84.34704,"bar/restaurant or carry-out":"carry-out"},
{"id":12,"company":"Northside Tavern #","address":"4163 Hamilton Ave, Cincinnati, OH 45223","lat":39.162414,"lng":-84.540184,"bar/restaurant or carry-out":"bar/restaurant"},
{"id":13,"company":"Brass Tap - U Square #","address":"251 Calhoun St., Cincinnati, OH 45219","lat":39.128311,"lng":-84.516546,"bar/restaurant or carry-out":"bar/restaurant"},
{"id":14,"company":"Belmont Party Supply","address":"2621 S.Smithville Rd., Dayton, OH 45420","lat":39.72894,"lng":-84.141302,"bar/restaurant or carry-out":"carry-out"},
{"id":15,"company":"Shell - Newtown","address":"3804 Church St., Newtown, OH 45244","lat":39.131053,"lng":-84.356781,"bar/restaurant or carry-out":"carry-out"},
{"id":16,"company":"Gaslight Café #","address":"6104 Montgomery Rd, Cincinnati, OH 45213","lat":39.182054,"lng":-84.426896,"bar/restaurant or carry-out":"bar/restaurant"},
{"id":17,"company":"O'Bryan's Wine-Landen","address":"8972 Columbia Rd., Loveland, OH 45140","lat":39.305416,"lng":-84.278498,"bar/restaurant or carry-out":"carry-out"},
{"id":18,"company":"Incline Public House","address":"2601 W. 8th St., Cincinnati, OH 45204","lat":39.105074,"lng":-84.556595,"bar/restaurant or carry-out":"bar/restaurant"},
{"id":19,"company":"Brew River Gastropub #","address":"2062 Riverside Dr., Cincinnati, OH 45202","lat":39.12186,"lng":-84.475067,"bar/restaurant or carry-out":"bar/restaurant"},
{"id":20,"company":"Oakley Pub #","address":"3924 Isabella, Cincinnati, OH 45209","lat":39.151137,"lng":-84.432241,"bar/restaurant or carry-out":"bar/restaurant"},
{"id":21,"company":"Great Wolf Lodge","address":"2501 Great Wolf Dr., Mason, OH 45040","lat":39.350639,"lng":-84.263884,"bar/restaurant or carry-out":"bar/restaurant"},
{"id":22,"company":"City Beverage Drive-Thru","address":"3661 Shaw Ave., Cincinnati, OH 45208","lat":39.144444,"lng":-84.439906,"bar/restaurant or carry-out":"carry-out"},
{"id":23,"company":"Kroger 402 - Madeira","address":"6950 Miami Ave., Madeira, OH 45243","lat":39.187827,"lng":-84.361705,"bar/restaurant or carry-out":"carry-out"},
{"id":24,"company":"Dewey's Pizza - Montgomery #","address":"11338 Montgomery Rd, Cincinnati, OH 45249","lat":39.271928,"lng":-84.327714,"bar/restaurant or carry-out":"bar/restaurant"},
{"id":25,"company":"Dewey's Pizza - Oakley #","address":"3014 Madison Rd, Cincinnati, OH 45209","lat":39.151032,"lng":-84.433838,"bar/restaurant or carry-out":"bar/restaurant"},
{"id":26,"company":"Root Cellar","address":"7699 Montgomery Rd., Cincinnati, OH 45236","lat":39.196949,"lng":-84.386018,"bar/restaurant or carry-out":"carry-out"},
{"id":27,"company":"The Eagle #","address":"1342 Vine St., Cincinnati, OH 45202","lat":39.110738,"lng":-84.515241,"bar/restaurant or carry-out":"bar/restaurant"},
{"id":28,"company":"Habit's Café #","address":"3036 Madison Rd., Cincinnati, OH 45209","lat":39.151709,"lng":-84.432567,"bar/restaurant or carry-out":"bar/restaurant"},
{"id":29,"company":"Kroger 353 - Harpers Point","address":"11390 Montgomery Rd., Montgomery, OH 45249","lat":39.271866,"lng":-84.326132,"bar/restaurant or carry-out":"carry-out"},
{"id":30,"company":"Dewey's Pizza - Kenwood #","address":"7767 Kenwood Rd, Cincinnati, OH 45236","lat":39.202126,"lng":-84.380107,"bar/restaurant or carry-out":"bar/restaurant"},
{"id":31,"company":"Tavern on the Bend #","address":"5471 North Bend Rd, Cincinnati, OH 45247","lat":39.190281,"lng":-84.600278,"bar/restaurant or carry-out":"bar/restaurant"},
{"id":32,"company":"Arrow - 725","address":"615 Lyons Rd., Dayton, OH 45459","lat":39.63076,"lng":-84.188835,"bar/restaurant or carry-out":"carry-out"},
{"id":33,"company":"Hyde Park Wine & Spirits","address":"2719 Madison Rd., Cincinnati, OH 45209","lat":39.145391,"lng":-84.442633,"bar/restaurant or carry-out":"carry-out"},
{"id":34,"company":"Eisers Drive Thru","address":"4403 Verne Ave, Cincinnati, OH 45209","lat":39.155817,"lng":-84.43212,"bar/restaurant or carry-out":"carry-out"},
{"id":35,"company":"A Tavola #","address":"1220 Vine St, Cincinnati, OH 45202","lat":39.108978,"lng":-84.514785,"bar/restaurant or carry-out":"bar/restaurant"},
{"id":36,"company":"Bigg's - Beechmont","address":"5218 Beechmont Ave., Cincinnati, OH 45230","lat":39.106955,"lng":-84.395436,"bar/restaurant or carry-out":"carry-out"},
{"id":37,"company":"20th Century Theatre #","address":"3036 madison rd, Cincinnati, OH 45209","lat":39.151709,"lng":-84.432567,"bar/restaurant or carry-out":"bar/restaurant"},
{"id":38,"company":"Molly Malone's #","address":"6111 Montgomery Rd., Cincinnati, OH 45213","lat":39.182561,"lng":-84.426866,"bar/restaurant or carry-out":"bar/restaurant"},
{"id":39,"company":"Country Fresh Farm Market","address":"8315 Beechmont Ave., Cincinnati, OH 45255","lat":39.071365,"lng":-84.323949,"bar/restaurant or carry-out":"carry-out"},
{"id":40,"company":"Dorothy Lane - Washington Sq.","address":"6177 Far Hills Ave., Dayton, OH 45459","lat":39.655748,"lng":-84.157286,"bar/restaurant or carry-out":"carry-out"},
{"id":41,"company":"Kroger 447 - Lebanon","address":"1425 Columbus Ave, Lebanon, OH 45036","lat":39.454066,"lng":-84.181759,"bar/restaurant or carry-out":"carry-out"},
{"id":42,"company":"Dutch's Pony Keg DBA Dutchs Bar #","address":"3378 Erie Ave., Cincinnati, OH 45208","lat":39.141427,"lng":-84.421578,"bar/restaurant or carry-out":"bar/restaurant"},
{"id":43,"company":"Arlin's Ludlow #","address":"307 Ludlow Ave, Cincinnati, OH 45220","lat":39.143534,"lng":-84.519681,"bar/restaurant or carry-out":"bar/restaurant"},
{"id":44,"company":"Dewey's Pizza - Clifton #","address":"265 Hosea Ave, Cincinnati, OH 45220","lat":39.143679,"lng":-84.518446,"bar/restaurant or carry-out":"bar/restaurant"},
{"id":45,"company":"Flip Daddy's #","address":"7453 Wooster Pk, Cincinnati, OH 45227","lat":40.054307,"lng":-82.940775,"bar/restaurant or carry-out":"bar/restaurant"},
{"id":46,"company":"LackMan #","address":"1237 VIne Street, Cincinnati, OH 45202","lat":39.10931,"lng":-84.515321,"bar/restaurant or carry-out":"bar/restaurant"},
{"id":47,"company":"Dilly Deli #","address":"6818 Wooster Pike, Cincinnati, OH 45227","lat":39.145251,"lng":-84.376403,"bar/restaurant or carry-out":"bar/restaurant"},
{"id":48,"company":"Rookwood - Pottery #","address":"1077 Celestial St., Cincinnati, OH 45202","lat":39.107086,"lng":-84.500694,"bar/restaurant or carry-out":"bar/restaurant"},
{"id":49,"company":"Paxton's #","address":"126 W Loveland Ave, Loveland, OH 45140","lat":39.267991,"lng":-84.25813,"bar/restaurant or carry-out":"bar/restaurant"},
{"id":50,"company":"Chappy's Tap Room","address":"2733 W. Alex-Bell Rd., Dayton, OH 45449","lat":39.672723,"lng":-84.217215,"bar/restaurant or carry-out":"bar/restaurant"},
{"id":51,"company":"South Park Tavern","address":"1301 Wayne Ave, Dayton, OH 45410","lat":39.749178,"lng":-84.174352,"bar/restaurant or carry-out":"bar/restaurant"},
{"id":52,"company":"Market Wines - Findlay Market","address":"128 W Elder St, Cincinnati, OH 45202","lat":39.115534,"lng":-84.519588,"bar/restaurant or carry-out":"carry-out"},
{"id":53,"company":"Jefferson Social #","address":"105 E Freedom Way, Cincinnati, OH 45205","lat":39.097179,"lng":-84.510286,"bar/restaurant or carry-out":"bar/restaurant"},
{"id":54,"company":"Cappy's Carryout","address":"309 W Loveland Ave, Loveland, OH 45140","lat":39.268095,"lng":-84.260071,"bar/restaurant or carry-out":"carry-out"},
{"id":55,"company":"Gordo's Pub & Grill #","address":"4328 Montgomery Rd., Cincinnati, OH 45212","lat":39.156311,"lng":-84.458742,"bar/restaurant or carry-out":"bar/restaurant"},
{"id":56,"company":"National Exemplar #","address":"6880 Wooster Pike, Mariemont, OH 45227","lat":39.14577,"lng":-84.376417,"bar/restaurant or carry-out":"bar/restaurant"},
{"id":57,"company":"Dorothy Lane - Springboro","address":"740 N. Main St., Springboro, OH 45066","lat":39.577003,"lng":-84.230861,"bar/restaurant or carry-out":"carry-out"},
{"id":58,"company":"Blind Bobs","address":"430 E Fifth Street, Dayton, OH 45402","lat":39.75691,"lng":-84.184699,"bar/restaurant or carry-out":"bar/restaurant"},
{"id":59,"company":"Jeff's Marathon","address":"6094 Bridgetown Rd., Cincinnati, OH 45248","lat":39.158163,"lng":-84.64945,"bar/restaurant or carry-out":"carry-out"},
{"id":60,"company":"Adriatico's #","address":"113 W. McMillan, Cincinnati, OH 45219","lat":39.127433,"lng":-84.516406,"bar/restaurant or carry-out":"bar/restaurant"},
{"id":61,"company":"Cock -N- Bull Hyde Park #","address":"2653 Erie Ave., Cincinnati, OH 45208","lat":39.139742,"lng":-84.443988,"bar/restaurant or carry-out":"bar/restaurant"},
{"id":62,"company":"Columbus Convention Center","address":"400 N. High St., Columbus, OH 43215","lat":39.97129,"lng":-83.001379,"bar/restaurant or carry-out":"bar/restaurant"},
{"id":63,"company":"Dewey's Pizza - West Chester #","address":"7663 Cox Lane, West Chester, OH 45069","lat":39.355009,"lng":-84.365888,"bar/restaurant or carry-out":"bar/restaurant"},
{"id":64,"company":"Milano's - West Chester #","address":"7701 Voice of America Centre Dr., West Chester, OH 45069","lat":39.353307,"lng":-84.361798,"bar/restaurant or carry-out":"bar/restaurant"},
{"id":65,"company":"Listing Loon, The","address":"4124 Hamilton Ave., Cincinnati, OH 45223","lat":39.161009,"lng":-84.539267,"bar/restaurant or carry-out":"carry-out"},
{"id":66,"company":"Dorothy Lane - Oakwood","address":"2710 Far Hills Ave., Dayton, OH 45419","lat":39.706466,"lng":-84.17059,"bar/restaurant or carry-out":"carry-out"},
{"id":67,"company":"Luckie's Pony Keg","address":"8600 Blue Ash Rd, Cincinnati, OH 45236","lat":39.215608,"lng":-84.38678,"bar/restaurant or carry-out":"carry-out"},
{"id":68,"company":"Flip Daddy's - Fields Ertel #","address":"12071 Mason Montgomery Rd, Cincinnati, OH 45249","lat":39.290118,"lng":-84.316609,"bar/restaurant or carry-out":"bar/restaurant"},
{"id":69,"company":"Salem Gardens #","address":"6396 Salem Rd., Cincinnati, OH 45230","lat":39.074954,"lng":-84.383119,"bar/restaurant or carry-out":"bar/restaurant"},
{"id":70,"company":"Zips #","address":"1036 Delta Ave., Cincinnati, OH 45208","lat":39.129697,"lng":-84.429278,"bar/restaurant or carry-out":"bar/restaurant"},
{"id":71,"company":"Delta Snack Shack #","address":"430 Delta Ave, Cincinnati, OH 45226","lat":39.118383,"lng":-84.438444,"bar/restaurant or carry-out":"bar/restaurant"},
{"id":72,"company":"Arnold's - Cincinnati #","address":"210 E 8th St, Cincinnati, OH 45202","lat":39.105173,"lng":-84.510123,"bar/restaurant or carry-out":"bar/restaurant"},
{"id":73,"company":"Kroger 351 - Montgomery","address":"9939 Montgomery Rd., Montgomery, OH 45242","lat":39.237232,"lng":-84.349885,"bar/restaurant or carry-out":"carry-out"},
{"id":74,"company":"Mac's Pizza Pub - Fairfax #","address":"6309 Wooster Pike, Cincinnati, OH 45227","lat":39.14307,"lng":-84.386336,"bar/restaurant or carry-out":"bar/restaurant"},
{"id":75,"company":"Kroger 421 - Mariemont","address":"7385 Wooster Pike, Cincinnati, OH 45227","lat":39.141896,"lng":-84.361653,"bar/restaurant or carry-out":"carry-out"},
{"id":76,"company":"Kroger 942 - Blue Ash","address":"4100 Hunt Rd, Blue Ash, OH 45236","lat":39.226934,"lng":-84.397488,"bar/restaurant or carry-out":"carry-out"},
{"id":77,"company":"Kroger 383 - Middletown","address":"7300 Yankee Rd, Middletown, OH 45044","lat":39.376862,"lng":-84.376381,"bar/restaurant or carry-out":"carry-out"},
{"id":78,"company":"Lucky's Taproom","address":"520 E. Fifth St., Dayton, OH 45402","lat":39.756814,"lng":-84.182959,"bar/restaurant or carry-out":"bar/restaurant"},
{"id":79,"company":"Metropole at 21C #","address":"609 Walnut St., Cincinnati, OH 45202","lat":39.103172,"lng":-84.512491,"bar/restaurant or carry-out":"bar/restaurant"},
{"id":80,"company":"Hyatt Regency - Cincinnati","address":"151 W 5th St., Cincinnati, OH 45202","lat":39.100345,"lng":-84.515718,"bar/restaurant or carry-out":"bar/restaurant"},
{"id":81,"company":"5th Street Brew Pub","address":"1600 E 5th St., Dayton, OH 45403","lat":39.758535,"lng":-84.171968,"bar/restaurant or carry-out":"bar/restaurant"},
{"id":82,"company":"Cock -N- Bull #","address":"275 E Sharon Rd, Cincinnati, OH 45246","lat":39.271914,"lng":-84.458913,"bar/restaurant or carry-out":"bar/restaurant"},
{"id":83,"company":"Kingsgate Marriott #","address":"151 Goodman Dr., Cincinnati, OH 45219","lat":39.137136,"lng":-84.507815,"bar/restaurant or carry-out":"bar/restaurant"},
{"id":84,"company":"Spinoza's","address":"2727 Fairfield Commons Blvd, Beavercreek, OH 45431","lat":39.767377,"lng":-84.056717,"bar/restaurant or carry-out":"bar/restaurant"},
{"id":85,"company":"The Daily Growler","address":"2812 Fishinger Road, Upper Arlington, OH 43221","lat":40.030122,"lng":-83.091091,"bar/restaurant or carry-out":"carry-out"},
{"id":86,"company":"Yard House - Cincinnati #","address":"95 East Freedom Way, Cincinnati, OH 45202","lat":39.097169,"lng":-84.510352,"bar/restaurant or carry-out":"bar/restaurant"},
{"id":87,"company":"Arrow - Oakwood","address":"2950 Far Hills Ave., Dayton, OH 45419","lat":39.704977,"lng":-84.170057,"bar/restaurant or carry-out":"carry-out"},
{"id":88,"company":"The Corner Pub #","address":"7833 Cooper Rd., Montgomery, OH 45242","lat":39.226368,"lng":-84.355134,"bar/restaurant or carry-out":"bar/restaurant"},
{"id":89,"company":"Sotto #","address":"116 E. 6th St., Cincinnati, OH 45202","lat":39.102784,"lng":-84.5112,"bar/restaurant or carry-out":"bar/restaurant"},
{"id":90,"company":"Marty's Hops & Vines","address":"6110 Hamilton Ave, Cincinnati, OH 45224","lat":39.202192,"lng":-84.547316,"bar/restaurant or carry-out":"carry-out"},
{"id":91,"company":"Tavern on the Hill #","address":"1111 St. Gregory St., Cincinnati, OH 45205","lat":39.108254,"lng":-84.498215,"bar/restaurant or carry-out":"bar/restaurant"},
{"id":92,"company":"Kroger 826 - Kettering","address":"530 E Stroop Rd, Dayton, OH 45429","lat":39.689339,"lng":-84.162393,"bar/restaurant or carry-out":"carry-out"},
{"id":93,"company":"Wild Mikes #","address":"7587 Bridgetown Road, Cincinnati, OH 45248","lat":39.164558,"lng":-84.699098,"bar/restaurant or carry-out":"bar/restaurant"},
{"id":94,"company":"Kroger 722 - Austin Landing","address":"10101 Landing Way, Miamisburg, OH 45342","lat":39.600829,"lng":-84.231405,"bar/restaurant or carry-out":"carry-out"},
{"id":95,"company":"Milano's - Beavercreek","address":"2260 N. Fairfield Rd., Beavercreek, OH 45431","lat":39.755645,"lng":-84.053285,"bar/restaurant or carry-out":"bar/restaurant"},
{"id":96,"company":"Fogarty's #","address":"3620 Harrison Ave., Cheviot, OH 45211","lat":39.156109,"lng":-84.610067,"bar/restaurant or carry-out":"bar/restaurant"},
{"id":97,"company":"Maribelle's Tavern #","address":"3235 Madison Rd, Cincinnati, OH 45209","lat":39.15476,"lng":-84.426647,"bar/restaurant or carry-out":"bar/restaurant"},
{"id":98,"company":"Fries Café #","address":"3247 Jefferson Ave., Cincinnati, OH 45220","lat":39.139755,"lng":-84.513074,"bar/restaurant or carry-out":"bar/restaurant"},
{"id":99,"company":"Kroger 921 - Milford","address":"1093 Goshen Pike, Milford, OH 45150","lat":39.168856,"lng":-84.266433,"bar/restaurant or carry-out":"carry-out"},
{"id":100,"company":"Mayday Bar #","address":"4227-31 Spring Grove Ave, Cincinnati, OH 45223","lat":39.159878,"lng":-84.532678,"bar/restaurant or carry-out":"bar/restaurant"},
{"id":101,"company":"Knockback Nats #","address":"10 W. 7th St., Cincinnati, OH 45202","lat":39.10384,"lng":-84.5142,"bar/restaurant or carry-out":"bar/restaurant"},
{"id":102,"company":"Brazenhead - Tylersville #","address":"5650 Tylersville Rd, Mason, OH 45040","lat":39.352126,"lng":-84.32263,"bar/restaurant or carry-out":"bar/restaurant"},
{"id":103,"company":"Crest Tavern","address":"397 Crestview Rd., Columbus, OH 43202","lat":40.021916,"lng":-83.002212,"bar/restaurant or carry-out":"bar/restaurant"},
{"id":104,"company":"Dingle House #","address":"9102 Union Center Blvd, West Chester, OH 45069","lat":39.327803,"lng":-84.435271,"bar/restaurant or carry-out":"bar/restaurant"},
{"id":105,"company":"J. Alexander's - Cincinnati #","address":"2629 Edmundson Rd., Cincinnati, OH 45209","lat":39.148479,"lng":-84.44325,"bar/restaurant or carry-out":"bar/restaurant"},
{"id":106,"company":"King's Table","address":"2348 Grange Hall Rd, Beavercreek, OH 45431","lat":39.75821,"lng":-84.075215,"bar/restaurant or carry-out":"bar/restaurant"},
{"id":107,"company":"TGI Friday's - Beechmont #","address":"7480 Beechmont Ave., Cincinnati, OH 45255","lat":39.072863,"lng":-84.34975,"bar/restaurant or carry-out":"bar/restaurant"},
{"id":108,"company":"The Works #","address":"20 Great Millitzer Way, Loveland, OH 45140","lat":39.268948,"lng":-84.263826,"bar/restaurant or carry-out":"bar/restaurant"},
{"id":109,"company":"Uno's - Beechmont #","address":"7500 Beechmont Ave., Cincinnati, OH 45255","lat":39.074382,"lng":-84.349166,"bar/restaurant or carry-out":"bar/restaurant"},
{"id":110,"company":"Comet, The #","address":"4579 Hamilton Ave., Cincinnati, OH 45223","lat":39.17274,"lng":-84.543136,"bar/restaurant or carry-out":"bar/restaurant"},
{"id":111,"company":"The Drinkery","address":"1150 Main Street, Cincinnati, OH 45202","lat":39.10859,"lng":-84.511492,"bar/restaurant or carry-out":"bar/restaurant"},
{"id":112,"company":"Kroger 435 - Branch Hill","address":"6388 Branch Hill Guinea Pike, Loveland, OH 45140","lat":39.229041,"lng":-84.255988,"bar/restaurant or carry-out":"carry-out"},
{"id":113,"company":"Keystone Bar & Grill #","address":"3384 Erie Ave., Cincinnati, OH 45208","lat":39.141474,"lng":-84.421118,"bar/restaurant or carry-out":"bar/restaurant"},
{"id":114,"company":"Brentwood Spirits","address":"8621 Winton Rd., Cincinnati, OH 45231","lat":39.224714,"lng":-84.516733,"bar/restaurant or carry-out":"carry-out"},
{"id":115,"company":"Stop-N-Go","address":"141 W. McMillan, Cincinnati, OH 45219","lat":39.12746,"lng":-84.517354,"bar/restaurant or carry-out":"carry-out"},
{"id":116,"company":"Wildflower Café #","address":"207 East Main St, Mason, OH 45040","lat":39.361364,"lng":-84.305635,"bar/restaurant or carry-out":"bar/restaurant"},
{"id":117,"company":"Parker's Blue Ash Grill #","address":"4200 Cooper Rd, Blue Ash, OH 45242","lat":39.238155,"lng":-84.391383,"bar/restaurant or carry-out":"bar/restaurant"},
{"id":118,"company":"Shell - Blue Ash","address":"10415 Kenwood Rd., Blue Ash, OH 45242","lat":39.251196,"lng":-84.375127,"bar/restaurant or carry-out":"carry-out"},
{"id":119,"company":"Japp's #","address":"1134 Main St., Cincinnati, OH 45202","lat":39.108849,"lng":-84.511292,"bar/restaurant or carry-out":"bar/restaurant"},
{"id":120,"company":"Kroger 418 - Norwood","address":"4500 Montgomery Rd., Norwood, OH 45212","lat":39.158617,"lng":-84.457332,"bar/restaurant or carry-out":"carry-out"},
{"id":121,"company":"Lavomatic Café #","address":"1211 Vine St., Cincinnati, OH 45202","lat":39.108679,"lng":-84.515002,"bar/restaurant or carry-out":"bar/restaurant"},
{"id":122,"company":"Trolley Stop","address":"530 E 5th St., Dayton, OH 45402","lat":39.756899,"lng":-84.18275,"bar/restaurant or carry-out":"carry-out"},
{"id":123,"company":"Tap n Go #","address":"950 Pavilion St., Cincinnati, OH 45202","lat":39.107774,"lng":-84.497062,"bar/restaurant or carry-out":"bar/restaurant"},
{"id":124,"company":"Igby's #","address":"122 E 6th St., Cincinnati, OH 45202","lat":39.103011,"lng":-84.511037,"bar/restaurant or carry-out":"bar/restaurant"},
{"id":125,"company":"Oak Tavern #","address":"3089 Madison Rd, Cincinnati, OH 45209","lat":39.15259,"lng":-84.430719,"bar/restaurant or carry-out":"bar/restaurant"},
{"id":126,"company":"Liquor & Wine Warehouse","address":"3440 York Commons Blvd., Dayton, OH 45414","lat":39.844633,"lng":-84.196797,"bar/restaurant or carry-out":"carry-out"},
{"id":127,"company":"Goodfella's - Beechmont #","address":"7466 Beechmont Ave. Suite 412, Cincinnati, OH 45255","lat":39.072864,"lng":-84.349837,"bar/restaurant or carry-out":"bar/restaurant"},
{"id":128,"company":"Market, The","address":"4726 Wilmington Pike, Dayton, OH 45440","lat":39.674711,"lng":-84.116191,"bar/restaurant or carry-out":"carry-out"},
{"id":129,"company":"Red Robin - West Chester #","address":"9434 Civic Center Blvd., West Chester, OH 45069","lat":39.350886,"lng":-84.419067,"bar/restaurant or carry-out":"bar/restaurant"},
{"id":130,"company":"Main Stay Rock Bar #","address":"301 W 5th St., Cincinnati, OH 45202","lat":39.100239,"lng":-84.517957,"bar/restaurant or carry-out":"bar/restaurant"},
{"id":131,"company":"Mio's Pizza - Sutton #","address":"1212 Sutton Rd., Cincinnati, OH 45230","lat":39.075894,"lng":-84.391879,"bar/restaurant or carry-out":"bar/restaurant"},
{"id":132,"company":"Kroger 938 - Englewood","address":"885 Union Rd, Englewood, OH 45322","lat":39.863625,"lng":-84.313889,"bar/restaurant or carry-out":"carry-out"},
{"id":133,"company":"Quik Pik - 3 COPIES!!!!","address":"4145 Montgomery Rd., Cincinnati, OH 45212","lat":39.15497,"lng":-84.460524,"bar/restaurant or carry-out":"carry-out"},
{"id":134,"company":"2 Putt Tavern and Grill #","address":"6040 St. Rt. 48, Maineville, OH 45039","lat":39.315059,"lng":-84.22077,"bar/restaurant or carry-out":"bar/restaurant"},
{"id":135,"company":"Back Porch Saloon #","address":"9626 Princeton-Glendale Road, Hamilton, OH 45011","lat":39.3174,"lng":-84.463234,"bar/restaurant or carry-out":"bar/restaurant"},
{"id":136,"company":"Buffalo Wings and Rings - Fairfield #","address":"5486 Dixie HWY, Fairfield, OH 45014","lat":39.334236,"lng":-84.52472,"bar/restaurant or carry-out":"bar/restaurant"},
{"id":137,"company":"Buffalo Wings and Rings - Winton #","address":"8377 Winton Rd., Cincinnati, OH 45231","lat":39.219811,"lng":-84.518021,"bar/restaurant or carry-out":"bar/restaurant"},
{"id":138,"company":"Fox & Hound - Mason #","address":"5113 Bowen Dr., Mason, OH 45040","lat":39.311694,"lng":-84.314524,"bar/restaurant or carry-out":"bar/restaurant"},
{"id":139,"company":"Latitudes #","address":"7454 Beechmont Ave Suite 303, Cincinnati, OH 45255","lat":39.072866,"lng":-84.349911,"bar/restaurant or carry-out":"bar/restaurant"},
{"id":140,"company":"Rhinegeist","address":"1910 Elm St., Cincinnati, OH 45202","lat":39.117274,"lng":-84.519574,"bar/restaurant or carry-out":"bar/restaurant"},
{"id":141,"company":"Rusty Bucket - Mason #","address":"5035 Deerfield Blvd., Mason, OH 45040","lat":39.307804,"lng":-84.31476,"bar/restaurant or carry-out":"bar/restaurant"},
{"id":142,"company":"Salazars #","address":"1403 Republic St., Cincinnati, OH 45205","lat":39.110528,"lng":-84.516402,"bar/restaurant or carry-out":"bar/restaurant"},
{"id":143,"company":"Slatt's #","address":"4858 Cooper Rd, Blue Ash, OH 45242","lat":39.231023,"lng":-84.376281,"bar/restaurant or carry-out":"bar/restaurant"},
{"id":144,"company":"Stone Creek Dining Company #","address":"9386 Montgomery Rd., Cincinnati, OH 45242","lat":39.226522,"lng":-84.354868,"bar/restaurant or carry-out":"bar/restaurant"},
{"id":145,"company":"Tap House Grill","address":"8740 Montgomery Rd., Cincinnati, OH 45236","lat":39.213491,"lng":-84.359404,"bar/restaurant or carry-out":"bar/restaurant"},
{"id":146,"company":"De Sha's #","address":"11320 Montgomery Rd., Cincinnati, OH 45249","lat":39.271528,"lng":-84.328016,"bar/restaurant or carry-out":"bar/restaurant"},
{"id":147,"company":"Riddle Road Market","address":"533 Riddle Rd. #1, Cincinnati, OH 45220","lat":39.135595,"lng":-84.526185,"bar/restaurant or carry-out":"carry-out"},
{"id":148,"company":"Kroger 811 - Beavercreek","address":"3195 Dayton-Xenia Rd #500, Beavercreek, OH 45434","lat":39.725853,"lng":-84.054742,"bar/restaurant or carry-out":"carry-out"},
{"id":149,"company":"Hilton Netherland Plaza - Cincinnati #","address":"35 West 5th St., Cincinnati, OH 45202","lat":39.100977,"lng":-84.514206,"bar/restaurant or carry-out":"bar/restaurant"},
{"id":150,"company":"Million's Café #","address":"3210 Linwood Ave., Cincinnati, OH 45226","lat":39.128202,"lng":-84.4299,"bar/restaurant or carry-out":"bar/restaurant"},
{"id":151,"company":"Delicio Coal Fired Pizza #","address":"9321 Montgomery Rd., Montgomery, OH 45242","lat":39.224819,"lng":-84.355705,"bar/restaurant or carry-out":"bar/restaurant"},
{"id":152,"company":"Village Keg","address":"5 Enfield St., Greenhills, OH 45218","lat":39.26978,"lng":-84.521473,"bar/restaurant or carry-out":"carry-out"},
{"id":153,"company":"ZZ-Public Sale","address":"add .065% sales tax, NA, NA 45242","lat":39.236436,"lng":-84.36472,"bar/restaurant or carry-out":"carry-out"},
{"id":154,"company":"HD Beans & Bottles #","address":"6721 Montgomery Rd, Cincinnati, OH 45236","lat":39.190324,"lng":-84.410223,"bar/restaurant or carry-out":"bar/restaurant"},
{"id":155,"company":"Local127 #","address":"413 Vine St, Cincinnati, OH 45202","lat":39.10043,"lng":-84.512939,"bar/restaurant or carry-out":"bar/restaurant"},
{"id":156,"company":"Crows Nest #","address":"4544 W 8th St., Cincinnati, OH 45238","lat":39.109421,"lng":-84.600966,"bar/restaurant or carry-out":"bar/restaurant"},
{"id":157,"company":"Marathon - West Chester","address":"7809 Cin-Day Rd, West Chester, OH 45069","lat":39.341965,"lng":-84.406761,"bar/restaurant or carry-out":"carry-out"},
{"id":158,"company":"Milano's - Miamisburg","address":"9572 Springboro Pike, Miamisburg, OH 45342","lat":39.611373,"lng":-84.227094,"bar/restaurant or carry-out":"bar/restaurant"},
{"id":159,"company":"Milano's - UD","address":"1820 Brown St., Dayton, OH 45409","lat":39.734743,"lng":-84.180332,"bar/restaurant or carry-out":"bar/restaurant"},
{"id":160,"company":"Park n Vine","address":"1202 Main St., Cincinnati, OH 45202","lat":39.109362,"lng":-84.51142,"bar/restaurant or carry-out":"carry-out"},
{"id":161,"company":"Stanley's #","address":"323 Stanley Ave, Cincinnati, OH 45226","lat":39.115075,"lng":-84.437369,"bar/restaurant or carry-out":"bar/restaurant"},
{"id":162,"company":"Oakley Wines","address":"4011 Allston St., Cincinnati, OH 45209","lat":39.151968,"lng":-84.433207,"bar/restaurant or carry-out":"carry-out"},
{"id":163,"company":"La Poste #","address":"3410 Telford St, Cincinnati, OH 45220","lat":39.144065,"lng":-84.520388,"bar/restaurant or carry-out":"bar/restaurant"},
{"id":164,"company":"The M","address":"3520 Erie Ave, Cincinnati, OH 45208","lat":39.141223,"lng":-84.418493,"bar/restaurant or carry-out":"bar/restaurant"},
{"id":165,"company":"BP - Beechmont","address":"7380 Beechmont Ave., Cincinnati, OH 45230","lat":39.072896,"lng":-84.352643,"bar/restaurant or carry-out":"carry-out"},
{"id":166,"company":"Rhinehaus #","address":"119 E. 12th St., Cincinnati, OH 45202","lat":39.108463,"lng":-84.512432,"bar/restaurant or carry-out":"bar/restaurant"},
{"id":167,"company":"Village Shoppe & Go","address":"3011 Access Place, Cincinnati, OH 45241","lat":39.253694,"lng":-84.42425,"bar/restaurant or carry-out":"carry-out"},
{"id":168,"company":"Cloud 9 #","address":"1018 Delta Ave., Cincinnati, OH 45208","lat":39.129022,"lng":-84.429758,"bar/restaurant or carry-out":"bar/restaurant"},
{"id":169,"company":"World of Beer - Brewery District","address":"503 South Front Street, Columbus, OH 43215","lat":39.951417,"lng":-83.001039,"bar/restaurant or carry-out":"bar/restaurant"},
{"id":170,"company":"Mio's Pizza - Anderson #","address":"8298 Clough Pike, Cincinnati, OH 45244","lat":39.088325,"lng":-84.322363,"bar/restaurant or carry-out":"bar/restaurant"},
{"id":171,"company":"Terry's Turf Club #","address":"4618 Eastern Ave, Cincinnati, OH 45226","lat":39.118278,"lng":-84.419264,"bar/restaurant or carry-out":"bar/restaurant"},
{"id":172,"company":"Doc's Place #","address":"12 Mulberry St., Lebanon, OH 45036","lat":39.434607,"lng":-84.208687,"bar/restaurant or carry-out":"bar/restaurant"},
{"id":173,"company":"O Pub #","address":"10 W. Park Pl., Oxford, OH 45056","lat":39.510917,"lng":-84.743365,"bar/restaurant or carry-out":"bar/restaurant"},
{"id":174,"company":"Oxford Spirits","address":"21 Lynn Ave., Oxford, OH 45056","lat":39.509831,"lng":-84.749949,"bar/restaurant or carry-out":"carry-out"},
{"id":175,"company":"Shell - Hyde Park","address":"3980 Erie Ave., Cincinnati, OH 45208","lat":39.14979,"lng":-84.407541,"bar/restaurant or carry-out":"carry-out"},
{"id":176,"company":"Walgreens - Race St.","address":"601 Race St., Cincinnati, OH 45202","lat":39.102333,"lng":-84.51509,"bar/restaurant or carry-out":"carry-out"},
{"id":177,"company":"Riversbend Wine & Spirits","address":"6052 S. State Route 48, Maineville, OH 45039","lat":39.35158,"lng":-84.219068,"bar/restaurant or carry-out":"carry-out"},
{"id":178,"company":"Trio Restaurant #","address":"7465 Kenwood Road Ste. 11, Cincinnati, OH 45236","lat":39.198615,"lng":-84.380442,"bar/restaurant or carry-out":"bar/restaurant"},
{"id":179,"company":"Ameristore","address":"6545 Harrison Ave. 1st Floor, Cincinnati, OH 45247","lat":39.193646,"lng":-84.660148,"bar/restaurant or carry-out":"carry-out"},
{"id":180,"company":"Kroger 436 - Harrison Rd.","address":"5830 Harrison Rd, Cincinnati, OH 45248","lat":39.17299,"lng":-84.64056,"bar/restaurant or carry-out":"carry-out"},
{"id":181,"company":"Habanero #","address":"358 Ludlow Ave., Cincinnati, OH 45220","lat":39.143867,"lng":-84.521795,"bar/restaurant or carry-out":"bar/restaurant"},
{"id":182,"company":"Thai 9","address":"11 Brown St., Dayton, OH 45402","lat":39.75689,"lng":-84.18595,"bar/restaurant or carry-out":"bar/restaurant"},
{"id":183,"company":"Shell 1202 - Calhoun St.","address":"205 Calhoun St., Cincinnati, OH 45219","lat":39.128098,"lng":-84.514988,"bar/restaurant or carry-out":"carry-out"},
{"id":184,"company":"Champps Restaurant - West Chester #","address":"9424 Civic Centre Blvd., West Chester, OH 45069","lat":39.350886,"lng":-84.419067,"bar/restaurant or carry-out":"bar/restaurant"},
{"id":185,"company":"Louie's Tap House & Grill #","address":"8267 Arbor Square Dr, Mason, OH 45040","lat":39.318677,"lng":-84.314101,"bar/restaurant or carry-out":"bar/restaurant"},
{"id":186,"company":"Nicholson's Pub #","address":"625 Walnut Street, Cincinnati, OH 45202","lat":39.103304,"lng":-84.512594,"bar/restaurant or carry-out":"bar/restaurant"},
{"id":187,"company":"Roosters- Springboro","address":"257 W Central Ave., Springboro, OH 45066","lat":39.558847,"lng":-84.240546,"bar/restaurant or carry-out":"bar/restaurant"},
{"id":188,"company":"Bistro Grace #","address":"4034 Hamilton Ave., Cincinnati, OH 45223","lat":39.159504,"lng":-84.539099,"bar/restaurant or carry-out":"bar/restaurant"},
{"id":189,"company":"Allyn's Café #","address":"3538 Columbia Parkway, Cincinnati, OH 45226","lat":39.116498,"lng":-84.437585,"bar/restaurant or carry-out":"bar/restaurant"},
{"id":190,"company":"Kaze #","address":"1400 Vine St., Cincinnati, OH 45202","lat":39.111065,"lng":-84.515171,"bar/restaurant or carry-out":"bar/restaurant"},
{"id":191,"company":"Anderson Food Mart","address":"6730 Clough Pike, Cincinnati, OH 45244","lat":39.098479,"lng":-84.36859,"bar/restaurant or carry-out":"carry-out"},
{"id":192,"company":"Aramark at US Bank Arena","address":"100 Broadway, Cincinnati, OH 45202","lat":39.098068,"lng":-84.504357,"bar/restaurant or carry-out":"bar/restaurant"},
{"id":193,"company":"Bigg's - Western Hills","address":"5071 Glencrossing Way, Cincinnati, OH 45238","lat":39.12991,"lng":-84.612396,"bar/restaurant or carry-out":"carry-out"},
{"id":194,"company":"Kroger 448 - Mason","address":"5100 Terra Firma Dr Store#448, Mason, OH 45040","lat":39.360059,"lng":-84.309939,"bar/restaurant or carry-out":"carry-out"},
{"id":195,"company":"Brunings Clock Shop","address":"2476 Commons Blvd, Beaver Creek, OH 45431","lat":39.761398,"lng":-84.055029,"bar/restaurant or carry-out":"carry-out"},
{"id":196,"company":"312 Bar #","address":"8450 Blue Ash Dr., Cincinnati, OH 45236","lat":39.211865,"lng":-84.388633,"bar/restaurant or carry-out":"bar/restaurant"},
{"id":197,"company":"Queen City Wine & Spirits","address":"113 E. 5th St., Cincinnati, OH 45202","lat":39.101331,"lng":-84.510999,"bar/restaurant or carry-out":"carry-out"},
{"id":198,"company":"Rapid Run Carryout","address":"5179 Rapid Run Rd., Cincinnati, OH 45238","lat":39.111323,"lng":-84.613046,"bar/restaurant or carry-out":"carry-out"},
{"id":199,"company":"Wine World","address":"7737 Five Mile Rd., Cincinnati, OH 45230","lat":39.07496,"lng":-84.352097,"bar/restaurant or carry-out":"carry-out"},
{"id":200,"company":"Trotta's Pizza & Drive Thru #","address":"3501 Werk Rd., Cincinnati, OH 45248","lat":39.141011,"lng":-84.618885,"bar/restaurant or carry-out":"bar/restaurant"},
{"id":201,"company":"Winner's Market","address":"4203 Kirby Ave., Cincinnati, OH 45223","lat":39.164707,"lng":-84.547724,"bar/restaurant or carry-out":"carry-out"},
{"id":202,"company":"Embers Restaurant #","address":"8170 Montgomery Rd., Madeira, OH 45236","lat":39.204377,"lng":-84.368555,"bar/restaurant or carry-out":"bar/restaurant"},
{"id":203,"company":"Larry's Convenient Store","address":"5810 Cheviot Rd., Cincinnati, OH 45247","lat":39.199483,"lng":-84.600884,"bar/restaurant or carry-out":"carry-out"},
{"id":204,"company":"Kroger 336 - Monroe","address":"3033 Heritage Green Dr, Monroe, OH 45050","lat":39.442801,"lng":-84.37775,"bar/restaurant or carry-out":"carry-out"},
{"id":205,"company":"Django #","address":"4046 Hamilton Ave., Cincinnati, OH 45223","lat":39.160055,"lng":-84.539254,"bar/restaurant or carry-out":"bar/restaurant"},
{"id":206,"company":"Bob's Bar","address":"4961 N High st, Columbus, OH 43214","lat":40.065097,"lng":-83.019367,"bar/restaurant or carry-out":"bar/restaurant"},
{"id":207,"company":"Lucky Dog Grille #","address":"729 Reading Rd., Mason, OH 45040","lat":39.351473,"lng":-84.322536,"bar/restaurant or carry-out":"bar/restaurant"},
{"id":208,"company":"Righteous Room #","address":"641 Walnut St, Cincinnati, OH 45202","lat":39.103652,"lng":-84.512228,"bar/restaurant or carry-out":"bar/restaurant"},
{"id":209,"company":"O'Bryons Pub #","address":"1998 Madison Rd, Cincinnati, OH 45208","lat":39.132194,"lng":-84.463141,"bar/restaurant or carry-out":"bar/restaurant"},
{"id":210,"company":"Shell- Wooster Pike","address":"7436 Wooster Pike, Cincinnati, OH 45227","lat":39.142154,"lng":-84.359273,"bar/restaurant or carry-out":"carry-out"},
{"id":211,"company":"Longworth's #","address":"1108 Saint Gregory St., Cincinnati, OH 45202","lat":39.107955,"lng":-84.49747,"bar/restaurant or carry-out":"bar/restaurant"},
{"id":212,"company":"McLevy's Pub #","address":"8512 Market Place Ln., Montgomery, OH 45242","lat":39.237192,"lng":-84.347431,"bar/restaurant or carry-out":"bar/restaurant"},
{"id":213,"company":"Car Rock Café #","address":"7912 Blue Ash Rd., Cincinnati, OH 45236","lat":39.204987,"lng":-84.392845,"bar/restaurant or carry-out":"bar/restaurant"},
{"id":214,"company":"Ravine Market","address":"350 Warner St., Cincinnati, OH 45219","lat":39.125313,"lng":-84.525626,"bar/restaurant or carry-out":"carry-out"},
{"id":215,"company":"Shaddocks Market","address":"4713 Central Ave., Middletown, OH 45042","lat":39.5105,"lng":-84.344706,"bar/restaurant or carry-out":"carry-out"},
{"id":216,"company":"Bakersfield OTR #","address":"1213 Vine St., Cincinnati, OH 45202","lat":39.108795,"lng":-84.515119,"bar/restaurant or carry-out":"bar/restaurant"},
{"id":217,"company":"Indian Mound Cafe","address":"5226 Montgomery Rd., Norwood, OH 45212","lat":39.169641,"lng":-84.45014,"bar/restaurant or carry-out":"bar/restaurant"},
{"id":218,"company":"Ameristop - Wooster Pike","address":"6300 Wooster Pike, Cincinnati, OH 45227","lat":39.143723,"lng":-84.386783,"bar/restaurant or carry-out":"carry-out"},
{"id":219,"company":"Jeff's Quick Stop","address":"367 Bridge St., Loveland, OH 45140","lat":39.246217,"lng":-84.293776,"bar/restaurant or carry-out":"carry-out"},
{"id":220,"company":"Mama Mimi's - Kenwood #","address":"7714 B Montgomery Rd., Cincinnati, OH 45236","lat":39.197137,"lng":-84.385397,"bar/restaurant or carry-out":"bar/restaurant"},
{"id":221,"company":"Kwik n Kold - Wyoming","address":"1511 Springfield Pike, Wyoming, OH 45215","lat":39.241557,"lng":-84.471652,"bar/restaurant or carry-out":"carry-out"},
{"id":222,"company":"Sunoco- Winton Rd.","address":"9177 Winton Rd., Cincinnati, OH 45231","lat":39.233744,"lng":-84.50996,"bar/restaurant or carry-out":"carry-out"},
{"id":223,"company":"Teller's #","address":"2710 Erie Avenue, Cincinnati, OH 45208","lat":39.140009,"lng":-84.442785,"bar/restaurant or carry-out":"bar/restaurant"},
{"id":224,"company":"TGI Friday's - Kenwood #","address":"8150 Montgomery Rd., Madiera, OH 45236","lat":39.204324,"lng":-84.368621,"bar/restaurant or carry-out":"bar/restaurant"},
{"id":225,"company":"Thirsty's Oasis #","address":"5589 S SR 741, Mason, OH 45040","lat":39.356115,"lng":-84.267216,"bar/restaurant or carry-out":"bar/restaurant"},
{"id":226,"company":"Archers Tavern","address":"9496 Dayton-Lebanon Pike, Centerville, OH 45458","lat":39.606483,"lng":-84.160171,"bar/restaurant or carry-out":"bar/restaurant"},
{"id":227,"company":"Golden Lamb #","address":"27-31 S Broadway St, Lebanon, OH 45036","lat":39.433807,"lng":-84.208809,"bar/restaurant or carry-out":"bar/restaurant"},
{"id":228,"company":"Scene #","address":"677 Walnut Ave, Cincinnati, OH 45202","lat":39.103838,"lng":-84.512002,"bar/restaurant or carry-out":"bar/restaurant"},
{"id":229,"company":"Shell - North Bend","address":"5394 North Bend Rd., Cincinnati, OH 45247","lat":39.187758,"lng":-84.602305,"bar/restaurant or carry-out":"carry-out"},
{"id":230,"company":"Hillside Gastropub #","address":"5510 Rybolt Rd., Cincinnati, OH 45248","lat":39.193987,"lng":-84.661442,"bar/restaurant or carry-out":"bar/restaurant"},
{"id":231,"company":"Mio's Pizza - Clifton #","address":"2634 Vine St., Cincinnati, OH 45219","lat":39.130227,"lng":-84.509187,"bar/restaurant or carry-out":"bar/restaurant"},
{"id":232,"company":"Olives @Ludlow Garage #","address":"342 Ludlow ave, Cincinnati, OH 45220","lat":39.144088,"lng":-84.521274,"bar/restaurant or carry-out":"bar/restaurant"},
{"id":233,"company":"Pleasant Hour Café #","address":"6083 Montgomery Rd., Cincinnati, OH 45213","lat":39.18222,"lng":-84.42807,"bar/restaurant or carry-out":"bar/restaurant"},
{"id":234,"company":"Beckett Wine and Liquor","address":"8212 Princeton-Glendale Rd., West Chester, OH 45069","lat":39.353092,"lng":-84.461179,"bar/restaurant or carry-out":"carry-out"},
{"id":235,"company":"Norwood Drive Thru","address":"5463 Montgomery Rd., Cincinnati, OH 45212","lat":39.173683,"lng":-84.444407,"bar/restaurant or carry-out":"carry-out"},
{"id":236,"company":"Wine Store - Montgomery","address":"9905 Montgomery Rd., Cincinnati, OH 45242","lat":39.235993,"lng":-84.350486,"bar/restaurant or carry-out":"carry-out"},
{"id":237,"company":"BP - Hyde Park","address":"2697 Madison Rd., Norwood, OH 45208","lat":39.145354,"lng":-84.442944,"bar/restaurant or carry-out":"carry-out"},
{"id":238,"company":"Kroger 830 - Fairborn","address":"1161 E Dayton- Yellow Spring, Fairborn, OH 45324","lat":39.78556,"lng":-83.996332,"bar/restaurant or carry-out":"carry-out"},
{"id":239,"company":"Via Vite #","address":"520 Vine Street, Cincinnati, OH 45202","lat":39.101898,"lng":-84.513027,"bar/restaurant or carry-out":"bar/restaurant"},
{"id":240,"company":"Kroger 441 - Towne Blvd","address":"3420 Towne Blvd, Middletown, OH 45005","lat":39.495227,"lng":-84.327808,"bar/restaurant or carry-out":"carry-out"},
{"id":241,"company":"Marty's Corner Store","address":"6203 Branch Hill Guinea Pike, Milford, OH 45150","lat":39.214431,"lng":-84.240659,"bar/restaurant or carry-out":"carry-out"},
{"id":242,"company":"Alfios Buon Cibo #","address":"2724 Erie Ave., Cincinnati, OH 45208","lat":39.139771,"lng":-84.442193,"bar/restaurant or carry-out":"bar/restaurant"},
{"id":243,"company":"Everything's D Vine","address":"318 W. 4th St., Cincinnati, OH 45202","lat":39.099153,"lng":-84.518096,"bar/restaurant or carry-out":"carry-out"},
{"id":244,"company":"Mama Mimi's - Oakley #","address":"3923 Isabella Ave., Cincinnati, OH 45209","lat":39.150982,"lng":-84.432292,"bar/restaurant or carry-out":"bar/restaurant"},
{"id":245,"company":"Vandalia Carryout","address":"351 E. National Rd., Vandalia, OH 45377","lat":39.89127,"lng":-84.19331,"bar/restaurant or carry-out":"carry-out"},
{"id":246,"company":"Mt. Lookout Tavern #","address":"3209 Linwood Ave., Cincinnati, OH 45226","lat":39.128277,"lng":-84.430305,"bar/restaurant or carry-out":"bar/restaurant"},
{"id":247,"company":"Remington Market","address":"9390 Loveland Madeira Rd., Cincinnati, OH 45242","lat":39.227107,"lng":-84.325339,"bar/restaurant or carry-out":"carry-out"},
{"id":248,"company":"Camargo Beverage","address":"8161 Camargo Rd, Madeira, OH 45243","lat":39.192326,"lng":-84.350897,"bar/restaurant or carry-out":"carry-out"},
{"id":249,"company":"Beer Barn","address":"4017 Indian Ripple Rd., Dayton, OH 45440","lat":39.694885,"lng":-84.085596,"bar/restaurant or carry-out":"bar/restaurant"},
{"id":250,"company":"Marathon - Clough","address":"8345 Clough, Cincinnati, OH 45244","lat":39.087731,"lng":-84.322432,"bar/restaurant or carry-out":"carry-out"},
{"id":251,"company":"Red Feather #","address":"3200 Madison Rd., Cincinnati, OH 45209","lat":39.155078,"lng":-84.427449,"bar/restaurant or carry-out":"bar/restaurant"},
{"id":252,"company":"Wurst Bar on the Square #","address":"3204 Linwood Ave., Cincinnati, OH 45208","lat":39.128274,"lng":-84.429888,"bar/restaurant or carry-out":"bar/restaurant"},
{"id":253,"company":"1215 Vine St. Wine Bar #","address":"1215 Vine St., Cincinnati, OH 45202","lat":39.108862,"lng":-84.514933,"bar/restaurant or carry-out":"bar/restaurant"},
{"id":254,"company":"Ameristop - Fairfield","address":"6330 Pleasant Ave., Fairfield, OH 45014","lat":39.310253,"lng":-84.561558,"bar/restaurant or carry-out":"carry-out"},
{"id":255,"company":"Walgreens - Montgomery Rd.","address":"6204 Montgomery Rd., Cincinnati, OH 45213","lat":39.183162,"lng":-84.425017,"bar/restaurant or carry-out":"carry-out"},
{"id":256,"company":"BJ's - Dayton","address":"10563 Innovation Dr., Miamisburg, OH 45342","lat":39.602958,"lng":-84.231835,"bar/restaurant or carry-out":"bar/restaurant"},
{"id":257,"company":"Blue Wisp Jazz Club #","address":"700 Race St., Cincinnati, OH 45202","lat":39.103507,"lng":-84.515242,"bar/restaurant or carry-out":"bar/restaurant"},
{"id":258,"company":"Bogart's #","address":"2621 Vine St., Cincinnati, OH 45219","lat":39.12992,"lng":-84.509549,"bar/restaurant or carry-out":"bar/restaurant"},
{"id":259,"company":"Bullwinkle's","address":"19 N Main st, Miamisburg, OH 45342","lat":39.642449,"lng":-84.28932,"bar/restaurant or carry-out":"bar/restaurant"},
{"id":260,"company":"Champ's - Centerville","address":"7880 Washington Village Dr., Centerville, OH 45459","lat":39.632129,"lng":-84.194369,"bar/restaurant or carry-out":"bar/restaurant"},
{"id":261,"company":"Columbus Brewing Co.","address":"525 Short St., Columbus, OH 43215","lat":39.950766,"lng":-83.003714,"bar/restaurant or carry-out":"bar/restaurant"},
{"id":262,"company":"Fox & Hound - Beavercreek","address":"2661 Fairfield Commons Blvd., Beavercreek, OH 45431","lat":39.768173,"lng":-84.058959,"bar/restaurant or carry-out":"bar/restaurant"},
{"id":263,"company":"Hap's Irish Pub","address":"3510 Erie Ave., Cincinnati, OH 45208","lat":39.14138,"lng":-84.418689,"bar/restaurant or carry-out":"bar/restaurant"},
{"id":264,"company":"Lock 27 - Centerville","address":"1035 S Main St., Centerville, OH 45458","lat":39.60876,"lng":-84.160681,"bar/restaurant or carry-out":"bar/restaurant"},
{"id":265,"company":"Mac's Pizza Pub #","address":"205 W McMillian St, Cincinnati, OH 45219","lat":39.127844,"lng":-84.519595,"bar/restaurant or carry-out":"bar/restaurant"},
{"id":266,"company":"Mecklenburg Gardens #","address":"302 E. University Ave, Cincinnati, OH 45219","lat":39.132701,"lng":-84.502638,"bar/restaurant or carry-out":"bar/restaurant"},
{"id":267,"company":"Ohio Tap Room","address":"1291 W Third Ave., Columbus, OH 43212","lat":39.984677,"lng":-83.040096,"bar/restaurant or carry-out":"bar/restaurant"},
{"id":268,"company":"Peaches Grill","address":"104 Xenia Ave., Yellow Springs, OH 45387","lat":39.807148,"lng":-83.888101,"bar/restaurant or carry-out":"bar/restaurant"},
{"id":269,"company":"Putter's - Milford #","address":"5723 Signal Hill Ct., Milford, OH 45150","lat":39.185861,"lng":-84.267056,"bar/restaurant or carry-out":"bar/restaurant"},
{"id":270,"company":"Rusty Bucket - Miami Twp","address":"2812 Miamisburg Centerville Rd., Dayton, OH 45459","lat":39.637245,"lng":-84.22205,"bar/restaurant or carry-out":"bar/restaurant"},
{"id":271,"company":"Scene 75","address":"6196 Poe Ave., Vandalia, OH 45414","lat":39.837343,"lng":-84.187066,"bar/restaurant or carry-out":"bar/restaurant"},
{"id":272,"company":"Slyders Tavern","address":"836 Watervliet Ave, Dayton, OH 45420","lat":39.730021,"lng":-84.139879,"bar/restaurant or carry-out":"bar/restaurant"},
{"id":273,"company":"Tina's #","address":"350 W 4th St, Cincinnati, OH 45202","lat":39.0991,"lng":-84.518462,"bar/restaurant or carry-out":"bar/restaurant"},
{"id":274,"company":"World of Beer - Easton","address":"3934 Townsfair Way, Columbus, OH 43219","lat":40.049102,"lng":-82.916871,"bar/restaurant or carry-out":"bar/restaurant"},
{"id":275,"company":"Zula #","address":"1400 Race St., Cincinnati, OH 45202","lat":39.110492,"lng":-84.516793,"bar/restaurant or carry-out":"bar/restaurant"},
{"id":276,"company":"Double Tree Suites Bistro - Blue Ash","address":"6300 E. Kemper Rd., Delver back dock by dumpster, OH 45241","lat":39.279883,"lng":-84.406761,"bar/restaurant or carry-out":"bar/restaurant"},
{"id":277,"company":"Old Bag of Nails Pub - Mason #","address":"5234 Kings Mills Rd., Mason, OH 45040","lat":39.356619,"lng":-84.280387,"bar/restaurant or carry-out":"bar/restaurant"},
{"id":278,"company":"Bunkers","address":"893 E National Rd, Vandalia, OH 45377","lat":39.892453,"lng":-84.180887,"bar/restaurant or carry-out":"bar/restaurant"},
{"id":279,"company":"Pizzelli Pizza #","address":"7639 Wooster Pike, Cincinnati, OH 45227","lat":39.138751,"lng":-84.354139,"bar/restaurant or carry-out":"bar/restaurant"},
{"id":280,"company":"Taggart's","address":"970 Patterson Rd, Dayton, OH 45419","lat":39.724222,"lng":-84.15311,"bar/restaurant or carry-out":"bar/restaurant"},
{"id":281,"company":"Fine Wine & True Spirits","address":"6080 Wilmington Pike, Dayton, OH 45459","lat":39.652492,"lng":-84.109881,"bar/restaurant or carry-out":"carry-out"},
{"id":282,"company":"Grapes Wine & Beer - Moraine","address":"2653 West Alex-Bell Rd., Moraine, OH 45459","lat":39.673011,"lng":-84.21533,"bar/restaurant or carry-out":"carry-out"},
{"id":283,"company":"Marathon - Mason","address":"6391 Reading Rd., Mason, OH 45040","lat":39.346827,"lng":-84.329933,"bar/restaurant or carry-out":"carry-out"},
{"id":284,"company":"Padrino #","address":"111 Main St., Milford, OH 45150","lat":39.173145,"lng":-84.296354,"bar/restaurant or carry-out":"bar/restaurant"},
{"id":285,"company":"Ameristop - Fields Ertel","address":"8675 Fields Ertel Rd., Mason, OH 45040","lat":39.293149,"lng":-84.328611,"bar/restaurant or carry-out":"carry-out"},
{"id":286,"company":"BP-Beechwood","address":"3251 Mt. Carmel Rd., Cincinnati, OH 45244","lat":39.113973,"lng":-84.30799,"bar/restaurant or carry-out":"carry-out"},
{"id":287,"company":"Tacocracy #","address":"4029 Hamilton Ave., Cincinnati, OH 45223","lat":39.15915,"lng":-84.539446,"bar/restaurant or carry-out":"bar/restaurant"},
{"id":288,"company":"Ameristop - West Carrollton","address":"1903 S Alex Rd., West Carrollton, OH 45449","lat":39.647897,"lng":-84.242972,"bar/restaurant or carry-out":"carry-out"},
{"id":289,"company":"Aroma - Kenwood","address":"7875 Montgomery Rd., Cincinnati, OH 45236","lat":39.200932,"lng":-84.376009,"bar/restaurant or carry-out":"bar/restaurant"},
{"id":290,"company":"Ameristop - Springdale Rd.","address":"5687 Springdale Rd., Cincinnati, OH 45247","lat":39.232856,"lng":-84.628007,"bar/restaurant or carry-out":"carry-out"},
{"id":291,"company":"Lehr's","address":"740 Main St., Milford, OH 45150","lat":39.176936,"lng":-84.284715,"bar/restaurant or carry-out":"carry-out"},
{"id":292,"company":"Twig's Liquor","address":"11018 Reading Rd, Cincinnati, OH 45241","lat":39.268824,"lng":-84.413054,"bar/restaurant or carry-out":"carry-out"},
{"id":293,"company":"Wine Guys - Bridgewater #","address":"3371 Princeton Rd., Hamilton, OH 45011","lat":39.390572,"lng":-84.503671,"bar/restaurant or carry-out":"bar/restaurant"},
{"id":294,"company":"Langen Meats","address":"5855 Cheviot Rd., Cincinnati, OH 45247","lat":39.199799,"lng":-84.601097,"bar/restaurant or carry-out":"carry-out"},
{"id":295,"company":"Little Chicago #","address":"402 Clark St., Middletown, OH 45044","lat":39.519229,"lng":-84.396979,"bar/restaurant or carry-out":"bar/restaurant"},
{"id":296,"company":"Mio's Pizza - Blue Ash #","address":"9500 Kenwood Rd. Unit C&D, Blue Ash, OH 45242","lat":39.232003,"lng":-84.378273,"bar/restaurant or carry-out":"bar/restaurant"},
{"id":297,"company":"One Eyed Jack-DAYTON","address":"2638 Colonel Glenn Hwy, Fairborn, OH 45324","lat":39.777971,"lng":-84.054578,"bar/restaurant or carry-out":"bar/restaurant"},
{"id":298,"company":"Stone Creek Dining - West Chester #","address":"6200 Muhlhauser Rd, West Chester, OH 45069","lat":39.325654,"lng":-84.427367,"bar/restaurant or carry-out":"bar/restaurant"},
{"id":299,"company":"Ameristop - Lebanon","address":"304 E Main St., Lebanon, OH 45036","lat":39.433257,"lng":-84.203716,"bar/restaurant or carry-out":"carry-out"},
{"id":300,"company":"Carlo & Johnny's #","address":"9769 Montgomery Rd., Montgomery, OH 45242","lat":39.23386,"lng":-84.35337,"bar/restaurant or carry-out":"bar/restaurant"},
{"id":301,"company":"Madeira Wine & Spirits","address":"6917 Miami Ave., Maderia, OH 45243","lat":39.187121,"lng":-84.363724,"bar/restaurant or carry-out":"carry-out"},
{"id":302,"company":"Wyoming Wines","address":"1208 Springfield Pike, Cincinnati, OH 45215","lat":39.236592,"lng":-84.471316,"bar/restaurant or carry-out":"carry-out"},
{"id":303,"company":"Kroger 923 - Centerville","address":"1095 S. Main St., Centerville, OH 45458","lat":39.608796,"lng":-84.161185,"bar/restaurant or carry-out":"carry-out"},
{"id":304,"company":"Walgreens 12831 - Beechmont","address":"7135 Beechmont Ave., Cincinnati, OH 45230","lat":39.073251,"lng":-84.362212,"bar/restaurant or carry-out":"carry-out"},
{"id":305,"company":"Quanhapa #","address":"1331 Vine St., Cincinnati, OH 45202","lat":39.110393,"lng":-84.515404,"bar/restaurant or carry-out":"bar/restaurant"},
{"id":306,"company":"Wild Mike's - Green Township #","address":"4498 Harrison Ave., Cincinnati, OH 45211","lat":39.16428,"lng":-84.630112,"bar/restaurant or carry-out":"bar/restaurant"},
{"id":307,"company":"Ameristop-Liberty Twp","address":"6583 Cin-Day Rd., Middletown, OH 45044","lat":39.515058,"lng":-84.398276,"bar/restaurant or carry-out":"carry-out"},
{"id":308,"company":"Mama Vitas #","address":"6405 Branch Hill Guinea Pike, Loveland, OH 45140","lat":39.230519,"lng":-84.259069,"bar/restaurant or carry-out":"bar/restaurant"},
{"id":309,"company":"Nonu, Inc. - The Wine List","address":"7753 Tylersville Rd., West Chester, OH 45069","lat":39.353111,"lng":-84.36666,"bar/restaurant or carry-out":"carry-out"},
{"id":310,"company":"Sunoco - Ohio Pike","address":"1263 Ohio Pike, Amelia, OH 45102","lat":39.045695,"lng":-84.243651,"bar/restaurant or carry-out":"carry-out"},
{"id":311,"company":"Baba Budans #","address":"239 W McMillian, Cincinnati, OH 45219","lat":39.127682,"lng":-84.520898,"bar/restaurant or carry-out":"bar/restaurant"},
{"id":312,"company":"Beef O'Brady's - Springdale #","address":"370 Glensprings Dr., Springdale, OH 45246","lat":39.292651,"lng":-84.48592,"bar/restaurant or carry-out":"bar/restaurant"},
{"id":313,"company":"Carl's Deli #","address":"2836 Observatory, Cincinnati, OH 45208","lat":39.137431,"lng":-84.437291,"bar/restaurant or carry-out":"bar/restaurant"},
{"id":314,"company":"Exxon - Mt. Carmel","address":"4248 Mt. Carmel Tabasco Rd., Cincinnati, OH 45244","lat":39.130723,"lng":-84.322649,"bar/restaurant or carry-out":"carry-out"},
{"id":315,"company":"Halls Corner Carryout","address":"3851 Kemp Rd, Beavercreek, OH 45431","lat":39.756573,"lng":-84.075863,"bar/restaurant or carry-out":"carry-out"},
{"id":316,"company":"Ludlow Wines","address":"343 Ludlow Ave, Cincinnati, OH 45220","lat":39.143547,"lng":-84.521175,"bar/restaurant or carry-out":"carry-out"},
{"id":317,"company":"Middletown Fine Wine and Spirits","address":"721 Breiel Blvd., Middletown, OH 45044","lat":39.502725,"lng":-84.354741,"bar/restaurant or carry-out":"carry-out"},
{"id":318,"company":"Claddagh - Mason #","address":"5075 Deerfield Blvd, Mason, OH 45040-2505","lat":39.306563,"lng":-84.31439,"bar/restaurant or carry-out":"bar/restaurant"},
{"id":319,"company":"MOTR #","address":"1345 main st, Cincinnati, OH 45202","lat":39.111082,"lng":-84.512358,"bar/restaurant or carry-out":"bar/restaurant"},
{"id":320,"company":"Western Bowl","address":"6383 Glenway Ave., Cincinnati, OH 45211","lat":39.148658,"lng":-84.628787,"bar/restaurant or carry-out":"bar/restaurant"},
{"id":321,"company":"Mama Mimi's - Beechmont #","address":"8312 Beechmont Ave., Cincinnati, OH 45255","lat":39.072954,"lng":-84.324183,"bar/restaurant or carry-out":"bar/restaurant"},
{"id":322,"company":"Centerville Carryout","address":"34 W. Franklin St., Centerville, OH 45459","lat":39.628354,"lng":-84.160217,"bar/restaurant or carry-out":"carry-out"},
{"id":323,"company":"UC Catskeller #","address":"2766 Clifton Ave., Cincinnati, OH 45221","lat":39.133158,"lng":-84.520253,"bar/restaurant or carry-out":"bar/restaurant"},
{"id":324,"company":"A Bottle or Two #","address":"11920 Montgomery Rd, Cincinnati, OH 45249","lat":39.285984,"lng":-84.30918,"bar/restaurant or carry-out":"bar/restaurant"},
{"id":325,"company":"Larry's Food Mart - Stephenson Oil Company","address":"3920 Wade Mill Rd., Hamilton, OH 45014","lat":39.320789,"lng":-84.639634,"bar/restaurant or carry-out":"carry-out"},
{"id":326,"company":"Shell - Harper's Point","address":"11406 Montgomery Rd., Cincinnati, OH 45249","lat":39.273015,"lng":-84.326557,"bar/restaurant or carry-out":"carry-out"},
{"id":327,"company":"Camp Dennison","address":"10005 Fletcher Rd., Camp Dennison, OH 45111","lat":39.210547,"lng":-84.291286,"bar/restaurant or carry-out":"bar/restaurant"},
{"id":328,"company":"Moerlein Lager House #","address":"115 Knuxhall Way, Cincinnati, OH 45202","lat":39.103197,"lng":-84.506488,"bar/restaurant or carry-out":"bar/restaurant"},
{"id":329,"company":"Pub - Rookwood #","address":"2692 Edmondson Rd., Norwood, OH 45209","lat":39.148899,"lng":-84.444231,"bar/restaurant or carry-out":"bar/restaurant"},
{"id":330,"company":"Sweeney's Seafood","address":"28 W. Franklin St., Centerville, OH 45459","lat":39.628042,"lng":-84.159989,"bar/restaurant or carry-out":"bar/restaurant"},
{"id":331,"company":"45 East - Oxford #","address":"45 East High St, Oxford, OH 45056","lat":39.510126,"lng":-84.741072,"bar/restaurant or carry-out":"bar/restaurant"},
{"id":332,"company":"Main Street Cafe - Newtown #","address":"6903 Main St., Newtown, OH 45244","lat":39.124434,"lng":-84.361676,"bar/restaurant or carry-out":"bar/restaurant"},
{"id":333,"company":"Pelican's Reef #","address":"7261 Beechmont Ave., Cincinnati, OH 45230","lat":39.072844,"lng":-84.356588,"bar/restaurant or carry-out":"bar/restaurant"},
{"id":334,"company":"Pour House- Centerville","address":"536 Centerville Miamisburg Rd, Centerville, OH 45459","lat":39.627825,"lng":-84.17344,"bar/restaurant or carry-out":"bar/restaurant"},
{"id":335,"company":"Bronte Bistro at Joseph Beth #","address":"2692 Madison Ave., Cincinnati, OH 45208","lat":39.146504,"lng":-84.44446,"bar/restaurant or carry-out":"bar/restaurant"},
{"id":336,"company":"JP's Food Mart","address":"6380 Branch Hill-Guinea Pike, Cincinnati, OH 45140","lat":39.241139,"lng":-84.248952,"bar/restaurant or carry-out":"carry-out"},
{"id":337,"company":"Miami Valley Wine-Brandt Pike","address":"6565 Brandt Pike, Huber Heights, OH 45424","lat":39.848159,"lng":-84.113306,"bar/restaurant or carry-out":"carry-out"},
{"id":338,"company":"Ruth's Parkside Café #","address":"4101 Spring Grove Ave., Cincinnati, OH 45223","lat":39.160302,"lng":-84.53716,"bar/restaurant or carry-out":"bar/restaurant"},
{"id":339,"company":"Sunoco - Montgomery","address":"8186 Montgomery Rd., Madeira, OH 45236","lat":39.204983,"lng":-84.367344,"bar/restaurant or carry-out":"carry-out"},
{"id":340,"company":"Sunoco U.D.","address":"1927 Brown St, Dayton, OH 45409","lat":39.733763,"lng":-84.180779,"bar/restaurant or carry-out":"carry-out"},
{"id":341,"company":"Rootie's #","address":"3609 Harrison Rd., Cheviot, OH 45211","lat":39.155847,"lng":-84.609659,"bar/restaurant or carry-out":"bar/restaurant"},
{"id":342,"company":"BP - Yellow Springs","address":"4 Xenia Ave, Yellow Springs, OH 45387","lat":39.806381,"lng":-83.888747,"bar/restaurant or carry-out":"carry-out"},
{"id":343,"company":"Hatting's Super Market","address":"6148 Bridgetown Rd., Cincinnati, OH 45248","lat":39.157147,"lng":-84.650813,"bar/restaurant or carry-out":"carry-out"},
{"id":344,"company":"5th St. Wine & Deli","address":"416 E 5th St., Dayton, OH 45402","lat":39.756885,"lng":-84.185155,"bar/restaurant or carry-out":"bar/restaurant"},
{"id":345,"company":"Bob's 8th St. Drive Thru","address":"4209 W. 8th St., Cincinnati, OH 45205","lat":39.106927,"lng":-84.589282,"bar/restaurant or carry-out":"carry-out"},
{"id":346,"company":"Copper Blue #","address":"900 Main St., Milford, OH 45150","lat":39.17767,"lng":-84.280031,"bar/restaurant or carry-out":"bar/restaurant"},
{"id":347,"company":"Desales Market","address":"2841 Woodburn Ave., Cincinnati, OH 45206","lat":39.130039,"lng":-84.476732,"bar/restaurant or carry-out":"carry-out"},
{"id":348,"company":"Noonan's Party Supply","address":"1350 Main Street, Hamilton, OH 45013","lat":39.421409,"lng":-84.590581,"bar/restaurant or carry-out":"carry-out"},
{"id":349,"company":"Old E Drive Thru","address":"11360 US 50, North Bend, OH 45052","lat":39.151437,"lng":-84.746231,"bar/restaurant or carry-out":"carry-out"},
{"id":350,"company":"Pho Lang Thang #","address":"114 W. Elder St., Cincinnati, OH 45202","lat":39.115481,"lng":-84.518891,"bar/restaurant or carry-out":"bar/restaurant"},
{"id":351,"company":"Reading Village Market","address":"8400 Reading Rd., Reading, OH 45237","lat":39.211865,"lng":-84.447151,"bar/restaurant or carry-out":"carry-out"},
{"id":352,"company":"Seeger's","address":"1001 W Main St, Lebanon, OH 45036","lat":39.434446,"lng":-84.225855,"bar/restaurant or carry-out":"carry-out"},
{"id":353,"company":"Sunoco - Bethel","address":"622 W. Plane St., Bethel, OH 45106","lat":38.965015,"lng":-84.090125,"bar/restaurant or carry-out":"carry-out"},
{"id":354,"company":"Wine Connection","address":"1258 St. Rt. 28 (Goshen Pike), Milford, OH 45150","lat":39.16908,"lng":-84.267334,"bar/restaurant or carry-out":"carry-out"},
{"id":355,"company":"Anchor #","address":"1401 Race St., Cincinnati, OH 45202","lat":39.110402,"lng":-84.517289,"bar/restaurant or carry-out":"bar/restaurant"},
{"id":356,"company":"Brew House #","address":"1047 E. McMillan St., Cincinnati, OH 45206","lat":39.12547,"lng":-84.486688,"bar/restaurant or carry-out":"bar/restaurant"},
{"id":357,"company":"Lucy Blue #","address":"1126 Main St., Cincinnati, OH 45202","lat":39.108757,"lng":-84.51099,"bar/restaurant or carry-out":"bar/restaurant"},
{"id":358,"company":"MJ's On Main #","address":"18 Main St., Milford, OH 45150","lat":39.17218,"lng":-84.296111,"bar/restaurant or carry-out":"bar/restaurant"},
{"id":359,"company":"Plum St. Café #","address":"423 Plum St., Cincinnati, OH 45202","lat":39.103238,"lng":-84.518489,"bar/restaurant or carry-out":"bar/restaurant"},
{"id":360,"company":"Ryan's Pub","address":"3800 Victory Pkwy, Cincinnati, OH 45207","lat":39.148936,"lng":-84.479575,"bar/restaurant or carry-out":"bar/restaurant"},
{"id":361,"company":"Troy's Cafe & Catering #","address":"4877 Smith Rd, West Chester, OH 45069","lat":39.35102,"lng":-84.453735,"bar/restaurant or carry-out":"bar/restaurant"},
{"id":362,"company":"Shell - Sharonville","address":"11820 Lebanon Rd., Sharonville, OH 45241","lat":39.287846,"lng":-84.395483,"bar/restaurant or carry-out":"carry-out"},
{"id":363,"company":"Smile Drive Thru","address":"5430 Glenway Ave., Cincinnati, OH 45238","lat":39.129452,"lng":-84.606465,"bar/restaurant or carry-out":"carry-out"},
{"id":364,"company":"BP - Loveland","address":"226 Loveland Madeira Rd., Loveland, OH 45140","lat":39.267007,"lng":-84.266301,"bar/restaurant or carry-out":"carry-out"},
{"id":365,"company":"Dillonvale IGA","address":"3950 E. Galbraith Rd, Cincinnati, OH 45236","lat":39.208704,"lng":-84.402325,"bar/restaurant or carry-out":"carry-out"},
{"id":366,"company":"Locals Sports Bar and Grill #","address":"19 E. 7th St., Cincinnati, OH 45202","lat":39.103709,"lng":-84.513025,"bar/restaurant or carry-out":"bar/restaurant"},
{"id":367,"company":"Roswells Bar #","address":"3735 Glenmore Ave., Cheviot, OH 45211","lat":39.155865,"lng":-84.611487,"bar/restaurant or carry-out":"bar/restaurant"},
{"id":368,"company":"Walgreens - Mitchell","address":"9 W Mitchell Ave., Cincinnati, OH 45217","lat":39.160815,"lng":-84.506125,"bar/restaurant or carry-out":"carry-out"},
{"id":369,"company":"101 Beer Kitchen","address":"7509 Sawmill Road, Dublin, OH 43016","lat":40.118057,"lng":-83.090417,"bar/restaurant or carry-out":"bar/restaurant"},
{"id":370,"company":"4th St Patio","address":"1810 N 4th St, Columbus, OH 43202","lat":40.000298,"lng":-82.998316,"bar/restaurant or carry-out":"bar/restaurant"},
{"id":371,"company":"Betta's Italian Oven #","address":"3764 Montgomery Rd., Cincinnati, OH 45212","lat":39.148127,"lng":-84.465774,"bar/restaurant or carry-out":"bar/restaurant"},
{"id":372,"company":"Buz / Green Dog Café #","address":"3543 Columbia Pkwy, Cincinnati, OH 45226","lat":39.115391,"lng":-84.43808,"bar/restaurant or carry-out":"bar/restaurant"},
{"id":373,"company":"Casa Bianca #","address":"4940 Muhlhauser Rd., Cincinnati, OH 45246","lat":39.316889,"lng":-84.454797,"bar/restaurant or carry-out":"bar/restaurant"},
{"id":374,"company":"Cincnnati Marriott North","address":"6189 Mulhauser Rd., West Chester, OH 45069","lat":39.320615,"lng":-84.43034,"bar/restaurant or carry-out":"bar/restaurant"},
{"id":375,"company":"Cold Beer & Cheeseburgers","address":"1060 Patterson Rd., Dayton, OH 45420","lat":39.724095,"lng":-84.150788,"bar/restaurant or carry-out":"bar/restaurant"},
{"id":376,"company":"Dirty Franks","address":"248 S 4th St, Columbus, OH 43215","lat":39.957504,"lng":-82.994986,"bar/restaurant or carry-out":"bar/restaurant"},
{"id":377,"company":"Extroidnary Burger","address":"4482 Glengarry Dr, Beavercreek, OH 45440","lat":39.693787,"lng":-84.104469,"bar/restaurant or carry-out":"bar/restaurant"},
{"id":378,"company":"Flipside and Patio","address":"3945 Easton Station, Columbus, OH 43219","lat":40.049868,"lng":-82.915496,"bar/restaurant or carry-out":"bar/restaurant"},
{"id":379,"company":"Fricker's - Mason #","address":"8850 Governors Hill Dr., Mason, OH 45249","lat":39.290381,"lng":-84.317889,"bar/restaurant or carry-out":"bar/restaurant"},
{"id":380,"company":"Fricker's - Miller Lane","address":"6834 Miller Ln., Dayton, OH 45414","lat":39.846422,"lng":-84.190782,"bar/restaurant or carry-out":"bar/restaurant"},
{"id":381,"company":"Game Time Sports Bar Grille #","address":"3613 Harrison Ave, Cincinnati, OH 45211","lat":39.155994,"lng":-84.609704,"bar/restaurant or carry-out":"bar/restaurant"},
{"id":382,"company":"Jtaps Bar & Grill #","address":"6441 Glenway Ave., Cincinnati, OH 45211","lat":39.150779,"lng":-84.628256,"bar/restaurant or carry-out":"bar/restaurant"},
{"id":383,"company":"Kirby's #","address":"378 Bridge St., Loveland, OH 45140","lat":39.246312,"lng":-84.292997,"bar/restaurant or carry-out":"bar/restaurant"},
{"id":384,"company":"LaRosa's - Colerain #","address":"3657 Stonecreek Blvd, Cincinnati, OH 45251","lat":39.252935,"lng":-84.600249,"bar/restaurant or carry-out":"bar/restaurant"},
{"id":385,"company":"Local Cantina","address":"1423-B Grandview Ave, Columbus, OH 43212","lat":39.986925,"lng":-83.044622,"bar/restaurant or carry-out":"bar/restaurant"},
{"id":386,"company":"Matt the Miller's - Grandview","address":"1400 Grandview Ave, Columbus, OH 43212","lat":39.985568,"lng":-83.044783,"bar/restaurant or carry-out":"bar/restaurant"},
{"id":387,"company":"Mellow Mushroom West Chester #","address":"9238 Floer Dr., West Chester, OH 45069","lat":39.323185,"lng":-84.430432,"bar/restaurant or carry-out":"bar/restaurant"},
{"id":388,"company":"Millennium Hotel","address":"150 W 5th St., Cincinnati, OH 45202","lat":39.101248,"lng":-84.516007,"bar/restaurant or carry-out":"bar/restaurant"},
{"id":389,"company":"Natalie's Coal Fired Pizza","address":"5593 N. High St., Worthington, OH 43085","lat":40.077001,"lng":-83.01875,"bar/restaurant or carry-out":"bar/restaurant"},
{"id":390,"company":"R.P.McMurphy's #","address":"2910 Wasson Rd., Cincinnati, OH 45209","lat":39.144603,"lng":-84.435073,"bar/restaurant or carry-out":"bar/restaurant"},
{"id":391,"company":"Roosters - Huber Heights","address":"5571 Merily Way, Huber Heights, OH 45424","lat":39.867606,"lng":-84.136361,"bar/restaurant or carry-out":"bar/restaurant"},
{"id":392,"company":"Sammy's - Blue Ash","address":"4767 Creek Rd., Blue Ash, OH 45242","lat":39.257912,"lng":-84.375146,"bar/restaurant or carry-out":"bar/restaurant"},
{"id":393,"company":"Savor Growl","address":"2991 Indianola Ave, Columbus, OH 43214","lat":40.024733,"lng":-83.001889,"bar/restaurant or carry-out":"carry-out"},
{"id":394,"company":"Senate #","address":"1214 Vine St, Cincinnati, OH 45202","lat":39.108906,"lng":-84.514317,"bar/restaurant or carry-out":"bar/restaurant"},
{"id":395,"company":"Southern Belle","address":"134 N Patterson Blvd, Dayton, OH 45402","lat":39.763009,"lng":-84.186681,"bar/restaurant or carry-out":"bar/restaurant"},
{"id":396,"company":"Studio 35","address":"3055 Indianola Ave, Columbus, OH 43202","lat":40.026044,"lng":-83.001577,"bar/restaurant or carry-out":"bar/restaurant"},
{"id":397,"company":"TGI Friday's - Fields Ertel #","address":"9141 Fields Ertel Road, Cincinnati, OH 45249","lat":39.291865,"lng":-84.308151,"bar/restaurant or carry-out":"bar/restaurant"},
{"id":398,"company":"TJ Chumps - Fairborn","address":"1100 E Dayton Yellow-Springs Rd., Fairborn, OH 45324","lat":39.782521,"lng":-83.99923,"bar/restaurant or carry-out":"bar/restaurant"},
{"id":399,"company":"Trinity Irish Pub #","address":"8953 Princeton Glendale Rd., West Chester, OH 45069","lat":39.334169,"lng":-84.46309,"bar/restaurant or carry-out":"bar/restaurant"},
{"id":400,"company":"Whole Foods - Columbus","address":"3670 W Dublin Granville Rd, Columbus, OH 43235","lat":40.094918,"lng":-83.087497,"bar/restaurant or carry-out":"carry-out"},
{"id":401,"company":"Yabos Tacos - Westerville","address":"7097 State Rt 3, Westerville, OH 43082","lat":40.149649,"lng":-82.922128,"bar/restaurant or carry-out":"bar/restaurant"},
{"id":402,"company":"Beef O'Brady's - Beavercreek","address":"3347 SeaJay Dr., Beavercreek, OH 45430","lat":39.72058,"lng":-84.064208,"bar/restaurant or carry-out":"bar/restaurant"},
{"id":403,"company":"Company 7 BBQ","address":"1001 S. Main Street, Englewood, OH 45322","lat":39.861505,"lng":-84.285281,"bar/restaurant or carry-out":"bar/restaurant"},
{"id":404,"company":"Double Days - Centerville","address":"199 E Alex Bell Rd., Centerville, OH 45459","lat":39.644202,"lng":-84.150893,"bar/restaurant or carry-out":"bar/restaurant"},
{"id":405,"company":"Jimmy G's #","address":"435 Elm St., Cincinnati, OH 45205","lat":39.100465,"lng":-84.516313,"bar/restaurant or carry-out":"bar/restaurant"},
{"id":406,"company":"Ladder 11","address":"936 Brown St, Dayton, OH 45409","lat":39.745827,"lng":-84.182781,"bar/restaurant or carry-out":"bar/restaurant"},
{"id":407,"company":"Montessori School of Dayton Brew Ha Ha","address":"2900 Acosta Street, Kettering, OH 45420","lat":39.70421,"lng":-84.121223,"bar/restaurant or carry-out":"carry-out"},
{"id":408,"company":"Toots","address":"12191 Montgomery Rd., Loveland, OH 45140","lat":39.291594,"lng":-84.297952,"bar/restaurant or carry-out":"bar/restaurant"},
{"id":409,"company":"Kroger 468 - Amelia","address":"262 W Main St., Amelia, OH 45102","lat":39.036684,"lng":-84.231652,"bar/restaurant or carry-out":"carry-out"},
{"id":410,"company":"Kroger 902 - Eastgate","address":"4530 Eastgate Blvd, Cincinnati, OH 45245","lat":39.103088,"lng":-84.271893,"bar/restaurant or carry-out":"carry-out"},
{"id":411,"company":"Piazza Discepoli - White Oak","address":"5872 Cheviot Road, Cincinnati, OH 45247","lat":39.200248,"lng":-84.600752,"bar/restaurant or carry-out":"carry-out"},
{"id":412,"company":"Pick N Go","address":"4746 Spring Grove Ave., Cincinnati, OH 45232","lat":39.165488,"lng":-84.514535,"bar/restaurant or carry-out":"carry-out"},
{"id":413,"company":"Art of Entertaining","address":"2019 Madison Rd., Cincinnati, OH 45208","lat":39.132136,"lng":-84.462112,"bar/restaurant or carry-out":"bar/restaurant"},
{"id":414,"company":"BP - West Chester","address":"9171 Union Center Blvd., West Chester, OH 45069","lat":39.325014,"lng":-84.434413,"bar/restaurant or carry-out":"carry-out"},
{"id":415,"company":"Buck's Tavern #","address":"3299 St. Route 22 & 3, Loveland, OH 45140","lat":39.268948,"lng":-84.263826,"bar/restaurant or carry-out":"bar/restaurant"},
{"id":416,"company":"Cincy Deli & Ice #","address":"2832 Jefferson Ave., Cincinnati, OH 45219","lat":39.132878,"lng":-84.51062,"bar/restaurant or carry-out":"bar/restaurant"},
{"id":417,"company":"Donna's Carryout","address":"1919 Clenay Ave., Cincinnati, OH 45212","lat":39.162977,"lng":-84.454021,"bar/restaurant or carry-out":"carry-out"},
{"id":418,"company":"Dot's Market--3 COPIES","address":"118 W. Franklin St, Bellbrook, OH 45305","lat":39.637908,"lng":-84.074658,"bar/restaurant or carry-out":"carry-out"},
{"id":419,"company":"Gabby's Café #","address":"515 Wyoming Ave, Wyoming, OH 45215","lat":39.22691,"lng":-84.465177,"bar/restaurant or carry-out":"bar/restaurant"},
{"id":420,"company":"Johnny's Campus Deli #","address":"209 E. Sycamore St, Oxford, OH 45056","lat":39.515061,"lng":-84.738891,"bar/restaurant or carry-out":"bar/restaurant"},
{"id":421,"company":"London Bridge","address":"2109 1/2 Beechmont Ave., Cincinnati, OH 45230","lat":39.092935,"lng":-84.386995,"bar/restaurant or carry-out":"bar/restaurant"},
{"id":422,"company":"Madeira Market","address":"7722 Laurel Ave., Madeira, OH 45243","lat":39.189688,"lng":-84.362187,"bar/restaurant or carry-out":"carry-out"},
{"id":423,"company":"The Bar #","address":"9101 Reading Rd., Reading, OH 45215","lat":39.22423,"lng":-84.440279,"bar/restaurant or carry-out":"bar/restaurant"},
{"id":424,"company":"Wine Guys - Rookwood #","address":"2692 Madison Rd., Cincinnati, OH 45208","lat":39.146504,"lng":-84.44446,"bar/restaurant or carry-out":"bar/restaurant"},
{"id":425,"company":"At The Square #","address":"1045 Central Ave., Middletown, OH 45042","lat":39.51662,"lng":-84.403821,"bar/restaurant or carry-out":"bar/restaurant"},
{"id":426,"company":"B & B Carryout","address":"2028 E State Route 73, Waynesville, OH 45068","lat":39.546916,"lng":-84.156125,"bar/restaurant or carry-out":"carry-out"},
{"id":427,"company":"Bee Gee's","address":"5995 Bigger Rd., Kettering, OH 45440","lat":39.658326,"lng":-84.127424,"bar/restaurant or carry-out":"bar/restaurant"},
{"id":428,"company":"Jay's Food Mart","address":"6100 Winton Rd., Fairfield, OH 45014","lat":39.314576,"lng":-84.541288,"bar/restaurant or carry-out":"carry-out"},
{"id":429,"company":"Kroger 376 - St. Route 22 & 3","address":"2900 US Route 22, Maineville, OH 45039","lat":39.308678,"lng":-84.276517,"bar/restaurant or carry-out":"carry-out"},
{"id":430,"company":"Zip in","address":"9216 Dayton-Oxford Rd., Carlisle, OH 45005","lat":39.588088,"lng":-84.295796,"bar/restaurant or carry-out":"carry-out"},
{"id":431,"company":"Boston's Bistro #2","address":"7500 N Main St., Dayton, OH 45415","lat":39.832997,"lng":-84.25248,"bar/restaurant or carry-out":"bar/restaurant"},
{"id":432,"company":"Winton Food Mart","address":"6120 Winton Rd., Fairfield, OH 45014","lat":39.313707,"lng":-84.541334,"bar/restaurant or carry-out":"carry-out"},
{"id":433,"company":"Banana Leaf Modern Thai #","address":"101 E Main St., Mason, OH 45040","lat":39.359632,"lng":-84.308732,"bar/restaurant or carry-out":"bar/restaurant"},
{"id":434,"company":"Clermont Springs Deli #","address":"8427 Beechmont Ave., Cincinnati, OH 45255","lat":39.072294,"lng":-84.320972,"bar/restaurant or carry-out":"bar/restaurant"},
{"id":435,"company":"Dive Bar - Cincy #","address":"2608 Vine St, Cincinnati, OH 45219","lat":39.129486,"lng":-84.509272,"bar/restaurant or carry-out":"bar/restaurant"},
{"id":436,"company":"Emilia Enoteca #","address":"2038 Madison Rd, Cincinnati, OH 45208","lat":39.132294,"lng":-84.461374,"bar/restaurant or carry-out":"bar/restaurant"},
{"id":437,"company":"Keystone Bar & Grill - Clifton #","address":"249 Calhoun St., Cincinnati, OH 45219","lat":39.12811,"lng":-84.516017,"bar/restaurant or carry-out":"bar/restaurant"},
{"id":438,"company":"Lou's Beverage","address":"740 Reading Rd. (Rt. 42), Mason, OH 45040","lat":39.360059,"lng":-84.309939,"bar/restaurant or carry-out":"carry-out"},
{"id":439,"company":"Main St. Wine & Spirits","address":"1252 W OHIO PK, Amelia, OH 45102","lat":39.031681,"lng":-84.20809,"bar/restaurant or carry-out":"carry-out"},
{"id":440,"company":"O'Malleys in the Alley #","address":"25 W. Ogden St., Cincinnati, OH 45202","lat":39.099383,"lng":-84.512515,"bar/restaurant or carry-out":"bar/restaurant"},
{"id":441,"company":"Residence Inn - Cincinnati #","address":"506 E. 4th St., Cincinnati, OH 45202","lat":39.101439,"lng":-84.504435,"bar/restaurant or carry-out":"bar/restaurant"},
{"id":442,"company":"Siler's Drive Thru","address":"986 Old St. Rte 74, Batavia, OH 45103","lat":39.077007,"lng":-84.176879,"bar/restaurant or carry-out":"carry-out"},
{"id":443,"company":"Todd's IGA Express","address":"313 W. State St., Trenton, OH 45067","lat":39.480946,"lng":-84.46248,"bar/restaurant or carry-out":"carry-out"},
{"id":444,"company":"West Chester Food Mart - Marathon","address":"7363 Kingsgate Way, West Chester, OH 45069","lat":39.352436,"lng":-84.370381,"bar/restaurant or carry-out":"carry-out"},
{"id":445,"company":"Wine Guys - Banks #","address":"161 Freedom Way East, Cincinnati, OH 45202","lat":39.097237,"lng":-84.509895,"bar/restaurant or carry-out":"bar/restaurant"},
{"id":446,"company":"Bell Event Center #","address":"444 Reading Rd., Cincinnati, OH 45202","lat":39.108897,"lng":-84.507006,"bar/restaurant or carry-out":"bar/restaurant"},
{"id":447,"company":"Pizza Tower","address":"8945 Governors Way, Cincinnati, OH 45249","lat":39.291222,"lng":-84.31503,"bar/restaurant or carry-out":"bar/restaurant"},
{"id":448,"company":"Embassy Suites - Blue Ash","address":"4554 Lake Forest Dr, Blue Ash, OH 45242","lat":39.254689,"lng":-84.381661,"bar/restaurant or carry-out":"bar/restaurant"},
{"id":449,"company":"J.R.'s Table #","address":"713 Vine Street, Cincinnati, OH 45202","lat":39.104123,"lng":-84.51387,"bar/restaurant or carry-out":"bar/restaurant"},
{"id":450,"company":"Stella 12 #","address":"12 S Beech St, Oxford, OH 45056","lat":39.510056,"lng":-84.744295,"bar/restaurant or carry-out":"bar/restaurant"},
{"id":451,"company":"Dave & Busters - Springdale","address":"11775 Commons Dr., Springdale, OH 45246","lat":39.291945,"lng":-84.457168,"bar/restaurant or carry-out":"bar/restaurant"},
{"id":452,"company":"One Stop Party Shop","address":"5215 Delhi Pike, Cincinnati, OH 45238","lat":39.094314,"lng":-84.616131,"bar/restaurant or carry-out":"carry-out"},
{"id":453,"company":"Stained 1054 Bistro #","address":"1054 Central Ave., Middletown, OH 45044","lat":39.516206,"lng":-84.403826,"bar/restaurant or carry-out":"bar/restaurant"},
{"id":454,"company":"Air City Beer and Wine","address":"3114 N. Dixie, Dayton, OH 45414","lat":39.793895,"lng":-84.1909,"bar/restaurant or carry-out":"carry-out"},
{"id":455,"company":"Ameristop Kings Mills","address":"5542 State Route 741, Mason, OH 45040","lat":39.357905,"lng":-84.268198,"bar/restaurant or carry-out":"carry-out"},
{"id":456,"company":"Boca #","address":"114 E. 6th St., Cincinnati, OH 45202","lat":39.102981,"lng":-84.511274,"bar/restaurant or carry-out":"bar/restaurant"},
{"id":457,"company":"BP - Blue Ash","address":"6151 Pfeiffer Rd., Blue Ash, OH 45242","lat":39.249412,"lng":-84.367748,"bar/restaurant or carry-out":"carry-out"},
{"id":458,"company":"Browndog Café #","address":"5893 Pfeiffer Rd., Blue Ash, OH 45242","lat":39.249344,"lng":-84.365106,"bar/restaurant or carry-out":"bar/restaurant"},
{"id":459,"company":"Carlisle Food Mart","address":"801 Central Avenue, Carlisle, OH 45005","lat":39.584328,"lng":-84.32606,"bar/restaurant or carry-out":"carry-out"},
{"id":460,"company":"Charlie's Import Food & Beer","address":"429 Troy St, Dayton, OH 45404","lat":39.775406,"lng":-84.174971,"bar/restaurant or carry-out":"carry-out"},
{"id":461,"company":"Clifton International Market","address":"3232 Jefferson Ave., Cincinnati, OH 45220","lat":39.139141,"lng":-84.512015,"bar/restaurant or carry-out":"carry-out"},
{"id":462,"company":"IGA Rivertown Market","address":"1041 Old US 52, New Richmond, OH 45157","lat":38.968664,"lng":-84.286734,"bar/restaurant or carry-out":"carry-out"},
{"id":463,"company":"Jackie O's","address":"24 W Union St, Athens, OH 45701","lat":39.327617,"lng":-82.102377,"bar/restaurant or carry-out":"bar/restaurant"},
{"id":464,"company":"King Quick","address":"11636 Chesterdale Rd., Sharonville, OH 45246","lat":39.286554,"lng":-84.447882,"bar/restaurant or carry-out":"carry-out"},
{"id":465,"company":"Marathon - Batavia","address":"1098 Cincinnati Batavia Pike, Batavia, OH 45103","lat":39.09567,"lng":-84.251142,"bar/restaurant or carry-out":"carry-out"},
{"id":466,"company":"Marathon - Cheviot","address":"6050 Cheviot Rd., Cincinnati, OH 45247","lat":39.203132,"lng":-84.59963,"bar/restaurant or carry-out":"carry-out"},
{"id":467,"company":"Mt Adams Pavillion #","address":"949 Pavillion St, Cincinnati, OH 45202","lat":39.107488,"lng":-84.497246,"bar/restaurant or carry-out":"bar/restaurant"},
{"id":468,"company":"Relish Fusion Tapas #","address":"5947 Deerfield Blvd., Mason, OH 45040","lat":39.30782,"lng":-84.320385,"bar/restaurant or carry-out":"bar/restaurant"},
{"id":469,"company":"Ruth's Chris Steak House #","address":"100 E. Freedom Way Suite 160, Cincinnati, OH 45202","lat":39.097193,"lng":-84.51029,"bar/restaurant or carry-out":"bar/restaurant"},
{"id":470,"company":"U-Shop","address":"21 E .High St., Oxford, OH 45056","lat":39.510249,"lng":-84.741718,"bar/restaurant or carry-out":"carry-out"},
{"id":471,"company":"Walgreens - North Bend","address":"5403 N Bend Rd., Cincinnati, OH 45247","lat":39.189246,"lng":-84.602293,"bar/restaurant or carry-out":"carry-out"},
{"id":472,"company":"Billie's","address":"4203 Delhi Pike, Cincinnati, OH 45238","lat":39.09521,"lng":-84.590847,"bar/restaurant or carry-out":"bar/restaurant"},
{"id":473,"company":"Uncorked at the Spicy Olive #","address":"7671 Cox Ln. Unit A, West Chester, OH 45069","lat":39.355009,"lng":-84.365888,"bar/restaurant or carry-out":"bar/restaurant"},
{"id":474,"company":"Chamellion #","address":"4114 Hamilton Ave, Cincinnati, OH 45233","lat":39.160742,"lng":-84.539082,"bar/restaurant or carry-out":"bar/restaurant"},
{"id":475,"company":"Den, The","address":"117 E HIGH ST, Oford, OH 45056","lat":39.510225,"lng":-84.739893,"bar/restaurant or carry-out":"bar/restaurant"},
{"id":476,"company":"Mantra #","address":"932-34 Hatch St, Cincinnati, OH 45209","lat":39.109498,"lng":-84.49766,"bar/restaurant or carry-out":"bar/restaurant"},
{"id":477,"company":"Marathon - Bellbrook","address":"4491 State Route 725, Bellbrook, OH 45305","lat":39.63795,"lng":-84.110935,"bar/restaurant or carry-out":"carry-out"},
{"id":478,"company":"Marriott Mason #","address":"9664 Mason Montgomery Rd., Mason, OH 45040","lat":39.296793,"lng":-84.31367,"bar/restaurant or carry-out":"bar/restaurant"},
{"id":479,"company":"Nada #","address":"600 Walnut St, Cincinnati, OH 45202","lat":39.102969,"lng":-84.511412,"bar/restaurant or carry-out":"bar/restaurant"},
{"id":480,"company":"Price Hill Chili","address":"4920 Glenway Ave., Cincinnati, OH 45238","lat":39.119136,"lng":-84.599475,"bar/restaurant or carry-out":"bar/restaurant"},
{"id":481,"company":"Rumbleseat Wine","address":"5853 Far Hills Ave, Dayton, OH 45429","lat":39.661134,"lng":-84.158663,"bar/restaurant or carry-out":"bar/restaurant"},
{"id":482,"company":"School House Resturant #","address":"8031 Glendale-Milford Rd., Camp Dennison, OH 45111","lat":39.198754,"lng":-84.289107,"bar/restaurant or carry-out":"bar/restaurant"},
{"id":483,"company":"Shell - Werk Rd.","address":"5984 Glenway Ave., Cincinnati, OH 45238","lat":39.14101,"lng":-84.617919,"bar/restaurant or carry-out":"carry-out"},
{"id":484,"company":"Traci's #","address":"784 Loveland Miamiville Rd., Loveland, OH 45150","lat":39.228511,"lng":-84.257803,"bar/restaurant or carry-out":"bar/restaurant"},
{"id":485,"company":"Vonderhaars Market","address":"19 W Pleasant St., Reading, OH 45215","lat":39.22868,"lng":-84.438744,"bar/restaurant or carry-out":"carry-out"},
{"id":486,"company":"White Oak Deli","address":"6035 Cheviot Rd., Cincinnati, OH 45247","lat":39.202881,"lng":-84.600179,"bar/restaurant or carry-out":"carry-out"},
{"id":487,"company":"Emporium","address":"233 Xenia Ave., Yellow Springs, OH 45387-1832","lat":39.805551,"lng":-83.888996,"bar/restaurant or carry-out":"bar/restaurant"},
{"id":488,"company":"Main St. Gourmet #","address":"9 S. Main St., Oxford, OH 45056","lat":39.510054,"lng":-84.742143,"bar/restaurant or carry-out":"bar/restaurant"},
{"id":489,"company":"Shell - Harrison","address":"9990 Harrison Ave, Cincinnati, OH 45030","lat":39.198477,"lng":-84.671403,"bar/restaurant or carry-out":"carry-out"},
{"id":490,"company":"Walgreens - Troy Pike","address":"6495 Old Troy Pike, Huber Heights, OH 45242","lat":39.848041,"lng":-84.139661,"bar/restaurant or carry-out":"carry-out"},
{"id":491,"company":"Anderson's North","address":"7000 Bent Tree Blvd., Columbus, OH 43235","lat":40.097097,"lng":-83.082188,"bar/restaurant or carry-out":"carry-out"},
{"id":492,"company":"Beef O'Brady's - Centerville","address":"953 S. Main St, Centerville, OH 45458","lat":39.610655,"lng":-84.163302,"bar/restaurant or carry-out":"bar/restaurant"},
{"id":493,"company":"Brothers Drake Meadery","address":"26 E. 5th Ave., Columbus, OH 43201","lat":39.987312,"lng":-83.004597,"bar/restaurant or carry-out":"bar/restaurant"},
{"id":494,"company":"Cadillac Jacks of Centerville Inc","address":"9400 Springboro Pike, Centerville, Oh 45449","lat":39.645218,"lng":-84.224515,"bar/restaurant or carry-out":"carry-out"},
{"id":495,"company":"Cocoa's Bistro","address":"250 Warren Street, Dayton, OH 45402","lat":39.750406,"lng":-84.186697,"bar/restaurant or carry-out":"bar/restaurant"},
{"id":496,"company":"Flyboy Deli","address":"2515 Far Hills Ave., Oakwood, OH 45419","lat":39.708435,"lng":-84.171364,"bar/restaurant or carry-out":"bar/restaurant"},
{"id":497,"company":"Meadowlark cafe","address":"5531 farhills, Kettering, OH 45429","lat":39.666059,"lng":-84.162889,"bar/restaurant or carry-out":"bar/restaurant"},
{"id":498,"company":"MJ's Cafe","address":"119 E Third St., Dayton, OH 45402","lat":39.759972,"lng":-84.189138,"bar/restaurant or carry-out":"bar/restaurant"},
{"id":499,"company":"Oscar Event Center #","address":"5440 Dixie Hwy, Fairfield, OH 45014","lat":39.335751,"lng":-84.524303,"bar/restaurant or carry-out":"bar/restaurant"},
{"id":500,"company":"Riff Raff Tavern","address":"130 N Patterson, Dayton, OH 45402","lat":39.762902,"lng":-84.186652,"bar/restaurant or carry-out":"bar/restaurant"},
{"id":501,"company":"Smoq #","address":"275 Pictoria Drive, Cincinnati, OH 45246","lat":39.297275,"lng":-84.480458,"bar/restaurant or carry-out":"bar/restaurant"},
{"id":502,"company":"Taste of Belgium #","address":"1133 Vine St, Cincinnati, OH 45202","lat":39.108145,"lng":-84.514854,"bar/restaurant or carry-out":"bar/restaurant"},
{"id":503,"company":"Tropics","address":"580 Lincoln Park Blvd, Kettering, OH 45429","lat":39.696221,"lng":-84.158653,"bar/restaurant or carry-out":"bar/restaurant"},
{"id":504,"company":"Ameristop - Beechmont","address":"7870 Beechmont Ave., Cincinnati, OH 45255","lat":39.07269,"lng":-84.337761,"bar/restaurant or carry-out":"carry-out"},
{"id":505,"company":"Ameristop Food Mart #29100","address":"8260 Princeton Glendale Road, West Chester, OH 45069","lat":39.351312,"lng":-84.461297,"bar/restaurant or carry-out":"carry-out"},
{"id":506,"company":"Beer Depot","address":"712 Watervielet Avenue, Dayton, OH 45420","lat":39.73153,"lng":-84.141916,"bar/restaurant or carry-out":"bar/restaurant"},
{"id":507,"company":"BP - Fairborn","address":"1040 Dayton Yellow Springs Rd, Fairborn, OH 45324","lat":39.782234,"lng":-84.001296,"bar/restaurant or carry-out":"carry-out"},
{"id":508,"company":"BP - Hopple St.","address":"1326 Hopple St., Cincinnati, OH 45225","lat":39.137326,"lng":-84.538496,"bar/restaurant or carry-out":"carry-out"},
{"id":509,"company":"Chad's Drive Thru","address":"7551 Harrison Ave., Cincinnati, OH 45247","lat":39.216959,"lng":-84.689319,"bar/restaurant or carry-out":"carry-out"},
{"id":510,"company":"Coldstream Country Club","address":"400 Asbury Rd., Cincinnati, OH 45230","lat":39.048071,"lng":-84.346715,"bar/restaurant or carry-out":"bar/restaurant"},
{"id":511,"company":"Cork n Bottle","address":"881 E Franklin St., Centerville, OH 45459","lat":39.628552,"lng":-84.142365,"bar/restaurant or carry-out":"carry-out"},
{"id":512,"company":"Eastside Café #","address":"671 Ohio Pike, Withamsville, OH 45245","lat":39.06456,"lng":-84.289908,"bar/restaurant or carry-out":"bar/restaurant"},
{"id":513,"company":"Gameday Grill and Patio","address":"7576 n. state rt. 48, Waynesville, OH 45068","lat":39.546436,"lng":-84.165935,"bar/restaurant or carry-out":"bar/restaurant"},
{"id":514,"company":"Hahana Beach #","address":"7605 Woster Pk, Cincinnati, OH 45244","lat":40.054307,"lng":-82.940775,"bar/restaurant or carry-out":"bar/restaurant"},
{"id":515,"company":"Handy One","address":"3105 E. Dorothy Lane, Kettering, OH 45420","lat":39.69766,"lng":-84.107254,"bar/restaurant or carry-out":"carry-out"},
{"id":516,"company":"Hunter IGA Express","address":"4077 W State Route 122, Franklin, OH 45005","lat":39.492623,"lng":-84.280672,"bar/restaurant or carry-out":"carry-out"},
{"id":517,"company":"Ichiban","address":"1020 Delta Ave., Cincinnati, OH 45208","lat":39.129225,"lng":-84.429702,"bar/restaurant or carry-out":"bar/restaurant"},
{"id":518,"company":"Maineville Shell","address":"34 Grandin Rd., Maineville, OH 45039","lat":39.346247,"lng":-84.219531,"bar/restaurant or carry-out":"carry-out"},
{"id":519,"company":"Marathon - Kremer","address":"3579 Miamisburg Centerville Rd., West Carrollton, OH 45449","lat":39.641175,"lng":-84.235703,"bar/restaurant or carry-out":"carry-out"},
{"id":520,"company":"Moon Market","address":"512-516 S. Locust St., Oxford, OH 45056","lat":39.505103,"lng":-84.749434,"bar/restaurant or carry-out":"carry-out"},
{"id":521,"company":"North Dayton Drive Thru","address":"1201 Troy St., Dayton, OH 45404","lat":39.784593,"lng":-84.173429,"bar/restaurant or carry-out":"carry-out"},
{"id":522,"company":"Quarter Bistro #","address":"6904 Wooster Pike, Cincinnati, OH 45227","lat":39.14517,"lng":-84.373097,"bar/restaurant or carry-out":"bar/restaurant"},
{"id":523,"company":"Quencher Drive Thru","address":"6720 Clough Pike, Cincinnati, OH 45244","lat":39.098759,"lng":-84.368524,"bar/restaurant or carry-out":"carry-out"},
{"id":524,"company":"Red Robin - Kenwood #","address":"7875 Montgomery Rd., Cincinnati, OH 45236","lat":39.200932,"lng":-84.376009,"bar/restaurant or carry-out":"bar/restaurant"},
{"id":525,"company":"Red Robin - Mason #","address":"5013 Bowen Dr., Mason, OH 45040","lat":39.310546,"lng":-84.314735,"bar/restaurant or carry-out":"bar/restaurant"},
{"id":526,"company":"Shriners Food and Mini Mart","address":"555 N Broadway, Lebanon, OH 45036","lat":39.442304,"lng":-84.206797,"bar/restaurant or carry-out":"carry-out"},
{"id":527,"company":"SpeedZone","address":"1983 Bellbrook Ave, Xenia, OH 45385","lat":39.665858,"lng":-83.961292,"bar/restaurant or carry-out":"carry-out"},
{"id":528,"company":"Springboro Wine and Spirits","address":"281 W Central Ave, Springboro, OH 45066","lat":39.559005,"lng":-84.241128,"bar/restaurant or carry-out":"carry-out"},
{"id":529,"company":"St. Mary Funfest #","address":"2853 Erie Ave, Cincinnati, OH 45208","lat":39.139082,"lng":-84.437589,"bar/restaurant or carry-out":"bar/restaurant"},
{"id":530,"company":"Sunoco - Middletown","address":"2401 Cincinnati-Dayton Rd., Middletown, OH 45044","lat":39.488409,"lng":-84.338884,"bar/restaurant or carry-out":"carry-out"},
{"id":531,"company":"Taste of Belgium - Short Vine #","address":"2845 Vine St., Cincinnati, OH 45219","lat":39.132609,"lng":-84.509753,"bar/restaurant or carry-out":"bar/restaurant"},
{"id":532,"company":"Union Depot","address":"130 N. Main Street, Union, OH 45322","lat":39.900664,"lng":-84.30644,"bar/restaurant or carry-out":"carry-out"},
{"id":533,"company":"Walgreens - Main St.","address":"406 Main St., Cincinnati, OH 45202","lat":39.100718,"lng":-84.509173,"bar/restaurant or carry-out":"carry-out"},
{"id":534,"company":"Wild Mike's - Delhi #","address":"5043 Delhi Pike, Delhi Township, OH 45238","lat":39.095003,"lng":-84.612056,"bar/restaurant or carry-out":"bar/restaurant"},
{"id":535,"company":"Wine Source, The","address":"11802 Springfield Pike, Cincinnati, OH 45246","lat":39.292292,"lng":-84.485246,"bar/restaurant or carry-out":"carry-out"},
{"id":536,"company":"Woodman Drive Thru","address":"1624 Woodman Dr., Dayton, OH 45432","lat":39.733482,"lng":-84.121346,"bar/restaurant or carry-out":"carry-out"},
{"id":537,"company":"Marathon - Northside","address":"4200 Kirby Ave., Cincinnati, OH 45223","lat":39.164717,"lng":-84.547072,"bar/restaurant or carry-out":"carry-out"},
{"id":538,"company":"Heritage Tastings #","address":"7664 Wooster Pike, Cincinnati, OH 45227","lat":39.13948,"lng":-84.353766,"bar/restaurant or carry-out":"bar/restaurant"},
{"id":539,"company":"Ale House/Don's Carryout","address":"4956 Springboro Rd., Moraine, OH 45439","lat":39.710058,"lng":-84.216946,"bar/restaurant or carry-out":"carry-out"},
{"id":540,"company":"Ambiance Wine Bar","address":"345 S Main St., Springboro, OH 45066","lat":39.552635,"lng":-84.233823,"bar/restaurant or carry-out":"bar/restaurant"},
{"id":541,"company":"Beaver Beverage","address":"3981 Dayton Xenia Rd., Beavercreek, OH 45432","lat":39.736829,"lng":-84.082859,"bar/restaurant or carry-out":"carry-out"},
{"id":542,"company":"Bella Vino - West Chester #","address":"6064 West Chester Rd., West Chester, OH 45069","lat":39.328135,"lng":-84.423107,"bar/restaurant or carry-out":"bar/restaurant"},
{"id":543,"company":"China Gourmet #","address":"3340 Erie Ave., Cincinnati, OH 45208","lat":39.14173,"lng":-84.42291,"bar/restaurant or carry-out":"bar/restaurant"},
{"id":544,"company":"Cru Wine Bar #","address":"103-105 W Spring St., Oxford, OH 45056","lat":39.507353,"lng":-84.744128,"bar/restaurant or carry-out":"bar/restaurant"},
{"id":545,"company":"Danny's Drive In","address":"1579 State Rt 28, Loveland, OH 45140","lat":39.219907,"lng":-84.190784,"bar/restaurant or carry-out":"carry-out"},
{"id":546,"company":"Eddie Merlot's #","address":"10808 Montgomery Rd., Cincinnati, OH 45242","lat":39.259295,"lng":-84.339338,"bar/restaurant or carry-out":"bar/restaurant"},
{"id":547,"company":"Grotto - Cincinnati #","address":"1101 St. Gregory St., Cincinnati, OH 45202","lat":39.107925,"lng":-84.497741,"bar/restaurant or carry-out":"bar/restaurant"},
{"id":548,"company":"Healthy Alternative - Englewood","address":"8258 North Main St, Dayton, OH 45415","lat":39.845308,"lng":-84.263586,"bar/restaurant or carry-out":"carry-out"},
{"id":549,"company":"Honk-N-Hollar","address":"649 N. Detroit St. Hwy 68, Xenia, OH 45385","lat":39.684782,"lng":-83.929653,"bar/restaurant or carry-out":"carry-out"},
{"id":550,"company":"Little Store","address":"7325 Peters Pike, Dayton, OH 45414","lat":39.854107,"lng":-84.227525,"bar/restaurant or carry-out":"bar/restaurant"},
{"id":551,"company":"Little York Drive Thru","address":"3811 Little York Rd., Dayton, OH 45414","lat":39.859128,"lng":-84.198293,"bar/restaurant or carry-out":"carry-out"},
{"id":552,"company":"Marathon - Stroop","address":"1890 E. Stroop Rd., Kettering, OH 45429","lat":39.688461,"lng":-84.130891,"bar/restaurant or carry-out":"carry-out"},
{"id":553,"company":"Miami Trail Tavern","address":"44 Xenia Town Sq., Xenia, OH 45385","lat":39.685796,"lng":-83.932687,"bar/restaurant or carry-out":"bar/restaurant"},
{"id":554,"company":"Monk's Cove","address":"1104 St. Gregory St., Cincinnati, OH 45202","lat":39.107901,"lng":-84.497477,"bar/restaurant or carry-out":"bar/restaurant"},
{"id":555,"company":"Nectar #","address":"1000 Delta Ave., Cincinnati, OH 45209","lat":39.128472,"lng":-84.429877,"bar/restaurant or carry-out":"bar/restaurant"},
{"id":556,"company":"Piccolo Wine Room","address":"23 Village Square, Cincinnati, OH 45246","lat":39.27087,"lng":-84.459433,"bar/restaurant or carry-out":"carry-out"},
{"id":557,"company":"Red Ox #","address":"95 E. Chestnut St., Oxford, OH 45056","lat":39.500115,"lng":-84.741395,"bar/restaurant or carry-out":"bar/restaurant"},
{"id":558,"company":"S. Main St. Drive-Thru","address":"3324 S. Main St., Middletown, OH 45044","lat":39.480302,"lng":-84.419615,"bar/restaurant or carry-out":"carry-out"},
{"id":559,"company":"Sam's Corner Store","address":"7011 New Haven Rd, Harrison, OH 45030","lat":39.265744,"lng":-84.6729,"bar/restaurant or carry-out":"carry-out"},
{"id":560,"company":"Shell - Byers","address":"125 Byers Rd., Miamisburg, OH 45342","lat":39.639896,"lng":-84.235221,"bar/restaurant or carry-out":"carry-out"},
{"id":561,"company":"Valero - Englewood","address":"709 S. Main Street, Englewood, OH 45322","lat":39.86762,"lng":-84.291671,"bar/restaurant or carry-out":"carry-out"},
{"id":562,"company":"Walgreens - Corry St.","address":"1 W Corry St., Cincinnati, OH 45219","lat":39.128541,"lng":-84.508824,"bar/restaurant or carry-out":"carry-out"},
{"id":563,"company":"Walgreens - Fairborn","address":"183 E Dayton Yellow Springs Rd., Fairborn, OH 45324","lat":39.789791,"lng":-84.02021,"bar/restaurant or carry-out":"carry-out"},
{"id":564,"company":"Walgreens - Huber Heights","address":"5000 Brandt Pike, Huber Heights, OH 45424","lat":39.825885,"lng":-84.12174,"bar/restaurant or carry-out":"carry-out"},
{"id":565,"company":"Walgreens 09577 - Cox Ln.","address":"7776 Cox Ln., West Chester, OH 45069","lat":39.355009,"lng":-84.365888,"bar/restaurant or carry-out":"carry-out"},
{"id":566,"company":"Wine Merchant","address":"3972 Edwards Rd, Cincinnati, OH 45209","lat":39.152059,"lng":-84.442115,"bar/restaurant or carry-out":"carry-out"},
{"id":567,"company":"Xenia Liquors","address":"623 W 2nd St., Xenia, OH 45385","lat":39.682788,"lng":-83.939764,"bar/restaurant or carry-out":"carry-out"},
{"id":568,"company":"Zip Thru Beer & Wine","address":"1404 Patterson Rd., Dayton, OH 45420","lat":39.723277,"lng":-84.141598,"bar/restaurant or carry-out":"carry-out"},
{"id":569,"company":"Barnesburg Tavern #","address":"5744 Springdale Rd., Cincinnati, OH 45239","lat":39.231123,"lng":-84.629748,"bar/restaurant or carry-out":"bar/restaurant"},
{"id":570,"company":"Matt Hall","address":"4650 Lake Forest Drive, Blue Ash, OH 45242","lat":39.255386,"lng":-84.377542,"bar/restaurant or carry-out":"carry-out"},
{"id":571,"company":"Pies & Pints - Dayton","address":"52 Plum St., Beavercreek, OH 45440","lat":39.694071,"lng":-84.10153,"bar/restaurant or carry-out":"bar/restaurant"},
{"id":572,"company":"915 PUB & GRILL","address":"915 NORTH FT THOMAS AVE, FORT THOMAS, KY 41075","lat":39.087713,"lng":-84.448613,"bar/restaurant or carry-out":"Bar/Restaurant"},
{"id":573,"company":"AA LIQUORS & TOBACCO","address":"1412 GLORIA TERRELL DR, WILDER, KY 41071","lat":39.008828,"lng":-84.470441,"bar/restaurant or carry-out":"Carry-out"},
{"id":574,"company":"ALEXANDRIA CARRY OUT","address":"8039-B ALEXANDRIA PIKE, ALEXANDRIA, KY 41001","lat":38.962273,"lng":-84.393372,"bar/restaurant or carry-out":"Carry-out"},
{"id":575,"company":"AMERASIA CAFE & BAR LLC","address":"521 MADISON AVE, COVINGTON, KY 41011","lat":39.085111,"lng":-84.510995,"bar/restaurant or carry-out":"Bar/Restaurant"},
{"id":576,"company":"AMERISTOP FOODMART 29079","address":"3516 Dixie Hwy, Erlanger, KY 41018","lat":39.016645,"lng":-84.601564,"bar/restaurant or carry-out":"Carry-out"},
{"id":577,"company":"ANTONE'S WINE & SPIRITS","address":"2606 ALEXANDRIA PIKE, SOUTHGATE, KY 41071","lat":39.070732,"lng":-84.470268,"bar/restaurant or carry-out":"Carry-out"},
{"id":578,"company":"ANTONES WINE & SPIRITS II","address":"4147 MADISON PIKE #5, COVINGTON, KY 41017","lat":38.991756,"lng":-84.534153,"bar/restaurant or carry-out":"Carry-out"},
{"id":579,"company":"ARNIES","address":"120 E 3rd St, Newport, KY 41071","lat":39.094197,"lng":-84.494907,"bar/restaurant or carry-out":"Bar/Restaurant"},
{"id":580,"company":"B LIST","address":"343 Division St, Bellevue, KY 41073","lat":39.104461,"lng":-84.480368,"bar/restaurant or carry-out":"Bar/Restaurant"},