[{"company":"Northside Rock N Roll Carnival ","address":"4109 Hamilton Ave, Cincinnati, OH 45223","lat":39.160585,"lng":-84.540147,"bar/restaurant or carry-out":"bar/restaurant"},
{"company":"Bunbury Festival","address":"705 Pete Rose Way, Cincinnati, OH 45202","lat":39.101725,"lng":-84.498609,"bar/restaurant or carry-out":"carry-out"},
{"company":"Holy Grail - Banks ","address":"161 Joe Nuxhall Way, Cincinnati, OH 45202","lat":39.097583,"lng":-84.509065,"bar/restaurant or carry-out":"bar/restaurant"},
{"company":"Press Grill","address":"741 N. High St., Columbus, OH 43215","lat":39.977535,"lng":-83.003846,"bar/restaurant or carry-out":"bar/restaurant"},
{"company":"Walgreens 07053 - Race St.","address":"601 Race St., Cincinnati, OH 45202","lat":39.102312,"lng":-84.515097,"bar/restaurant or carry-out":"carry-out"},
{"company":"Mac's Pizza Pub - Landen ","address":"2920 W US-22 And 3, Maineville, OH 45039","lat":39.308592,"lng":-84.2767,"bar/restaurant or carry-out":"bar/restaurant"},
{"company":"Kroger 830 - Fairborn","address":"1161 E Dayton- Yellow Spring, Fairborn, OH 45324","lat":39.820893,"lng":-84.019379,"bar/restaurant or carry-out":"carry-out"},
{"company":"Cincinnati Beerfest","address":"151 W. 5th St., Cincinnati, OH 45202","lat":39.100345,"lng":-84.515718,"bar/restaurant or carry-out":"carry-out"},
{"company":"Rick's Tavern","address":"5955 Boymel Dr., Fairfield, OH 45014","lat":39.317628,"lng":-84.49882,"bar/restaurant or carry-out":"bar/restaurant"},
{"company":"Fresh Thyme - Oakley","address":"3321 Alamo Dr., Cincinnati, OH 45209","lat":39.161743,"lng":-84.422768,"bar/restaurant or carry-out":"carry-out"},
{"company":"Kroger 919 - Princeton-Glendale","address":"8238 Princeton Glendale, West Chester, OH 45069","lat":39.352769,"lng":-84.459788,"bar/restaurant or carry-out":"carry-out"},
{"company":"Rudino's ","address":"9730 Montgomery Rd., Cincinnati, OH 45242","lat":39.232323,"lng":-84.351513,"bar/restaurant or carry-out":"bar/restaurant"},
{"company":"Kroger 408 - Maineville","address":"5705 South St RT 48, Mainville, OH 45039","lat":39.33376,"lng":-84.238417,"bar/restaurant or carry-out":"carry-out"},
{"company":"The Littlefield","address":"3934 Spring Grove Ave., Cincinnati, OH 45223","lat":39.15776,"lng":-84.539952,"bar/restaurant or carry-out":"bar/restaurant"},
{"company":"Athletic club","address":"136 E. Broad St., Columbus, OH 43215","lat":39.962857,"lng":-82.996962,"bar/restaurant or carry-out":"bar/restaurant"},
{"company":"Earth Fare 610 - Centerville","address":"101 E. Alex Bell Rd., Dayton, OH 45459","lat":39.644756,"lng":-84.154113,"bar/restaurant or carry-out":"carry-out"},
{"company":"Eli's Sports Bar and Grill","address":"3187 Western Row, Maineville, OH 45039","lat":39.335177,"lng":-84.276584,"bar/restaurant or carry-out":"bar/restaurant"},
{"company":"Dilly Deli","address":"6818 Wooster Pike, Cincinnati, OH 45227","lat":39.145251,"lng":-84.376403,"bar/restaurant or carry-out":"bar/restaurant"},
{"company":"Maketewah Country Club","address":"5401 Reading Rd., Cincinnati, OH 45237","lat":39.181658,"lng":-84.468389,"bar/restaurant or carry-out":"bar/restaurant"},
{"company":"Cheesecake Factory - Kenwood","address":"7875 Montgomery rd, Cincinnati, OH 45236","lat":39.20296,"lng":-84.375561,"bar/restaurant or carry-out":"bar/restaurant"},
{"company":"Shell GoCo - 1203 Hyde Park","address":"2700 Madison Rd, Cincinnati, OH 45209","lat":39.146188,"lng":-84.442381,"bar/restaurant or carry-out":"carry-out"},
{"company":"Trotta's Pizza & Drive Thru","address":"3501 Werk Rd., Cincinnati, OH 45248","lat":39.141038,"lng":-84.618759,"bar/restaurant or carry-out":"bar/restaurant"},
{"company":"Kroger 438 - Mt. Washington","address":"2120 Beechmont Ave, Cincinnati, OH 45230","lat":39.093604,"lng":-84.386403,"bar/restaurant or carry-out":"carry-out"},
{"company":"Anderson Pub & Grill","address":"8060 Beechmont Ave, Cincinnati, OH 45255","lat":39.073389,"lng":-84.331755,"bar/restaurant or carry-out":"bar/restaurant"},
{"company":"Washington Park","address":"1230 Elm St., Cincinnati, OH 45202","lat":39.108024,"lng":-84.518019,"bar/restaurant or carry-out":"carry-out"},
{"company":"Mazunte ","address":"5207 Madison Rd., Cincinnati, OH 45227","lat":39.161158,"lng":-84.405412,"bar/restaurant or carry-out":"bar/restaurant"},
{"company":"Marty's Hops  Vines","address":"6110 Hamilton Ave, Cincinnati, OH 45224","lat":39.202192,"lng":-84.547316,"bar/restaurant or carry-out":"carry-out"},
{"company":"LC Pavilion Complex","address":"405 Neil Ave, Columbus, OH 43215","lat":39.969805,"lng":-83.010019,"bar/restaurant or carry-out":"carry-out"},
{"company":"Shell GoCo - 1202 Clifton","address":"205 Calhoun St., Cincinnati, OH 45219","lat":39.128098,"lng":-84.514988,"bar/restaurant or carry-out":"carry-out"},
{"company":"Milestone 229","address":"229 Civic Center Dr., Columbus, OH 43215","lat":39.956765,"lng":-83.003677,"bar/restaurant or carry-out":"bar/restaurant"},
{"company":"TPC - Riversbend ","address":"316 Winding River Blvd, Maineville, OH 45039","lat":39.363956,"lng":-84.226148,"bar/restaurant or carry-out":"bar/restaurant"},
{"company":"Kroger 939 - Wessel Dr.","address":"560 Wessel Dr., Fairfield, OH 45014","lat":39.33613,"lng":-84.562058,"bar/restaurant or carry-out":"carry-out"},
{"company":"Flip Daddy's - Wooster Pike ","address":"7453 Wooster Pk, Cincinnati, OH 45227","lat":39.141052,"lng":-84.359098,"bar/restaurant or carry-out":"bar/restaurant"},
{"company":"Gordo's Pub  Grill ","address":"4328 Montgomery Rd., Cincinnati, OH 45212","lat":39.156352,"lng":-84.45873,"bar/restaurant or carry-out":"bar/restaurant"},
{"company":"Shell - Wooster Pike","address":"7436 Wooster Pike, Cincinnati, OH 45227","lat":39.142154,"lng":-84.359273,"bar/restaurant or carry-out":"carry-out"},
{"company":"General Denver Hotel ","address":"81 W Main St, Wilmington, OH 45177-2236","lat":39.445766,"lng":-83.829914,"bar/restaurant or carry-out":"bar/restaurant"},
{"company":"J.D. Legends","address":"65 Millard Dr., Franklin, OH 45005","lat":39.563097,"lng":-84.285245,"bar/restaurant or carry-out":"bar/restaurant"},
{"company":"Renaissance Hotel - Cincinnati","address":"36 E 4th St., Cincinnati, OH 45202","lat":39.100277,"lng":-84.511544,"bar/restaurant or carry-out":"bar/restaurant"},
{"company":"Fresh Market 150 - West Chester","address":"7720 Voice of America CenterDr, West Chester, OH 45069","lat":39.353381,"lng":-84.363386,"bar/restaurant or carry-out":"carry-out"},
{"company":"Kroger 430 - Liberty Fairfield","address":"5420 Liberty-Fairfield Rd., Hamilton, OH 45011","lat":39.418615,"lng":-84.474177,"bar/restaurant or carry-out":"carry-out"},
{"company":"Nativity School","address":"5936 Ridge Ave., Cincinnati, OH 45213","lat":39.179809,"lng":-84.426339,"bar/restaurant or carry-out":"carry-out"},
{"company":"Winner's Cafe at Cincy Sports Club","address":"3950 Red Bank Rd, Cincinnati, Oh 45227","lat":39.145348,"lng":-84.40127,"bar/restaurant or carry-out":"bar/restaurant"},
{"company":"Bernard's","address":"630 N High St, Columbus, OH 43215","lat":39.975324,"lng":-83.002788,"bar/restaurant or carry-out":"bar/restaurant"},
{"company":"Fricker's - West Chester ","address":"7844 Kingland Dr., West Chester, OH 45069","lat":39.351904,"lng":-84.367761,"bar/restaurant or carry-out":"bar/restaurant"},
{"company":"Lindey's Restaurant and Bar","address":"169 E. Beck St., Columbus, OH 43206","lat":39.950673,"lng":-82.993744,"bar/restaurant or carry-out":"bar/restaurant"},
{"company":"Minute Bar","address":"151 W Main Street, Lancaster, OH 43130","lat":39.713797,"lng":-82.603311,"bar/restaurant or carry-out":"bar/restaurant"},
{"company":"Sky Galley ","address":"262 Wilmer Ave, Cincinnati, OH 45226","lat":39.103714,"lng":-84.429421,"bar/restaurant or carry-out":"bar/restaurant"},
{"company":"Beechmont Beverage Drive-Thru","address":"7172 Beechmont Ave., Cincinnati, OH 45230","lat":39.073412,"lng":-84.359441,"bar/restaurant or carry-out":"carry-out"},
{"company":"Liberty's Bar & Bottle","address":"1427 Main St., Cincinnati, OH 45202","lat":39.112101,"lng":-84.512398,"bar/restaurant or carry-out":"bar/restaurant"},
{"company":"Jtaps Bar  Grill ","address":"6441 Glenway Ave., Cincinnati, OH 45211","lat":39.150779,"lng":-84.628256,"bar/restaurant or carry-out":"bar/restaurant"},
{"company":"Pelican's Reef ","address":"7261 Beechmont Ave., Cincinnati, OH 45230","lat":39.072844,"lng":-84.356588,"bar/restaurant or carry-out":"bar/restaurant"},
{"company":"The Varsity","address":"8112 Beechmont Ave, Cincinnati, OH 45255","lat":39.072928,"lng":-84.329028,"bar/restaurant or carry-out":"bar/restaurant"},
{"company":"Kroger 301 - OTR","address":"1420 Vine St, Cincinnati, OH 45202","lat":39.111571,"lng":-84.515138,"bar/restaurant or carry-out":"carry-out"},
{"company":"Wright-Patte Air Force Base Home & Garden","address":"Chestnut Dr., Dayton, OH 45433","lat":39.812937,"lng":-84.029734,"bar/restaurant or carry-out":"carry-out"},
{"company":"Findlay Market","address":"1801 Race St, Cincinnati, OH 45202","lat":39.115398,"lng":-84.518481,"bar/restaurant or carry-out":"carry-out"},
{"company":"Glendale Chamber Of Commerce ","address":"30 Village SQ, Glendale, OH 45246","lat":39.271567,"lng":-84.459668,"bar/restaurant or carry-out":"bar/restaurant"},
{"company":"Next Chapter","address":"940 Pavilion St., Cincinnati, OH 45202","lat":39.107806,"lng":-84.497558,"bar/restaurant or carry-out":"bar/restaurant"},
{"company":"Mellow Mushroom - Hyde Park ","address":"3804 Paxton Ave., Cincinnati, OH 45209","lat":39.145898,"lng":-84.430285,"bar/restaurant or carry-out":"bar/restaurant"},
{"company":"Symmes Tavern on the Green","address":"500 Wessel Dr., Fairfield, OH 45014","lat":39.335119,"lng":-84.564471,"bar/restaurant or carry-out":"bar/restaurant"},
{"company":"Cincinnati BrewHaHa","address":"720 E. Pete Rose Way, Cincinnati, OH 45202","lat":39.101827,"lng":-84.499935,"bar/restaurant or carry-out":"carry-out"},
{"company":"City of Montgomery","address":"9400 Montgomery Rd., Cincinnati, OH 45242","lat":39.226878,"lng":-84.354433,"bar/restaurant or carry-out":"carry-out"},
{"company":"Pet Promise DBA Ultimate Beer Run","address":"251 Neilston St., Columbus, OH 43215","lat":39.96834,"lng":-82.994959,"bar/restaurant or carry-out":"carry-out"},
{"company":"Union, The","address":"18 W. Union St., Athens, OH 45701","lat":39.327598,"lng":-82.102087,"bar/restaurant or carry-out":"bar/restaurant"},
{"company":"Woody's","address":"1739 N. High St., Columbus, OH 43210","lat":39.99772,"lng":-83.008575,"bar/restaurant or carry-out":"bar/restaurant"},
{"company":"BP - Kenwood","address":"7799 Montgomery Rd., Cincinnati, OH 45236","lat":39.198888,"lng":-84.380465,"bar/restaurant or carry-out":"carry-out"},
{"company":"Discount Drug Mart - Tylersville","address":"6172 Tylersville Rd., Mason, OH 45040","lat":39.352599,"lng":-84.332648,"bar/restaurant or carry-out":"carry-out"},
{"company":"Dixie Deli","address":"6687 Dixie Hwy, Fairfield, OH 45014","lat":39.318982,"lng":-84.497112,"bar/restaurant or carry-out":"bar/restaurant"},
{"company":"Shell GoCo - 1223 Ridge Rd","address":"5301 Ridge Rd, Cincinnati, OH 45213","lat":39.168778,"lng":-84.424343,"bar/restaurant or carry-out":"carry-out"},
{"company":"North Market Microbrew Fest","address":"59 Spruce St., Columbus, OH 43215","lat":39.972146,"lng":-83.004301,"bar/restaurant or carry-out":"carry-out"},
{"company":"Walnut Hills Redevelopment Foundation","address":"793 E Mcmillan, Cincinnati, OH 45206","lat":39.125462,"lng":-84.491031,"bar/restaurant or carry-out":"carry-out"},
{"company":"Deer Park Tavern","address":"7228 Blue Ash Rd., Deer Park, OH 45236","lat":39.199854,"lng":-84.397422,"bar/restaurant or carry-out":"bar/restaurant"},
{"company":"Mac's Pizza Pub - Clifton ","address":"205 W McMillian St, Cincinnati, OH 45219","lat":39.127714,"lng":-84.519644,"bar/restaurant or carry-out":"bar/restaurant"},
{"company":"Sycamore Creek Country Club","address":"8300 Country Club Lane, Springboro, OH 45066","lat":39.564928,"lng":-84.217683,"bar/restaurant or carry-out":"bar/restaurant"},
{"company":"BP - Mason","address":"5591 State Route 741 S, Mason, OH 45040","lat":39.358744,"lng":-84.280191,"bar/restaurant or carry-out":"carry-out"},
{"company":"Madeira Wine  Spirits","address":"6917 Miami Ave., Maderia, OH 45243","lat":39.187121,"lng":-84.363724,"bar/restaurant or carry-out":"carry-out"},
{"company":"Cincinnati Recreation Foundation","address":"4720 Eastern Ave, Cincinnati, OH 45226","lat":39.119749,"lng":-84.418378,"bar/restaurant or carry-out":"carry-out"},
{"company":"Pies & Pints - Dayton","address":"52 Plum St., Beavercreek, OH 45440","lat":39.693847,"lng":-84.101605,"bar/restaurant or carry-out":"bar/restaurant"},
{"company":"Keystone Bar  Grill - Clifton ","address":"249 Calhoun St., Cincinnati, OH 45219","lat":39.12811,"lng":-84.516017,"bar/restaurant or carry-out":"bar/restaurant"},
{"company":"Grab & Go- Fairfield","address":"6330 Pleasant Ave., Fairfield, OH 45014","lat":39.310253,"lng":-84.561558,"bar/restaurant or carry-out":"carry-out"},
{"company":"Shell GoCo - 1227 Montgomery","address":"10809 Montgomery Rd, Cincinnati, OH 45242","lat":39.261791,"lng":-84.337638,"bar/restaurant or carry-out":"carry-out"},
{"company":"Elegant Fare at Cincy Nature Preserve","address":"4949 Tealtown Rd., Milford, OH 45150","lat":39.126283,"lng":-84.24691,"bar/restaurant or carry-out":"carry-out"},
{"company":"Arthur's - Beechmont ","address":"8221 Beechmont Ave., Cincinnati, OH 45255","lat":39.072331,"lng":-84.327266,"bar/restaurant or carry-out":"bar/restaurant"},
{"company":"Ameristop Food Mart 29100","address":"8260 Princeton Glendale Road, West Chester, OH 45069","lat":39.351312,"lng":-84.461297,"bar/restaurant or carry-out":"carry-out"},
{"company":"Wyoming Recreation Foundation","address":"412 Wyoming Ave., Wyoming, OH 45215","lat":39.227545,"lng":-84.46617,"bar/restaurant or carry-out":"carry-out"},
{"company":"Buffalo Wild Wings - Mason","address":"6050 Snider Rd, Mason, OH 45040","lat":39.351245,"lng":-84.330252,"bar/restaurant or carry-out":"bar/restaurant"},
{"company":"Elbo Room","address":"1115 Magie Ave., Fairfield, OH 45014","lat":39.346114,"lng":-84.542923,"bar/restaurant or carry-out":"bar/restaurant"},
{"company":"Hearth Room","address":"125 W 4th St., Cincinnati, OH 45202","lat":39.099324,"lng":-84.51497,"bar/restaurant or carry-out":"bar/restaurant"},
{"company":"J. Austin's River Bank Cafe","address":"102 Main St., Hamilton, OH 45013","lat":39.402572,"lng":-84.566993,"bar/restaurant or carry-out":"bar/restaurant"},
{"company":"Miami Valley Gaming","address":"6000 State Route 63, Monroe, OH 45050","lat":39.44525,"lng":-84.399725,"bar/restaurant or carry-out":"bar/restaurant"},
{"company":"St. Vincent Festival","address":"7754 Montgomery Rd., Cincinnati, OH 45236","lat":39.194996,"lng":-84.383643,"bar/restaurant or carry-out":"carry-out"},
{"company":"Till Dynamic Fare","address":"247 King Ave., Columbus, OH 43201","lat":39.990238,"lng":-83.012953,"bar/restaurant or carry-out":"bar/restaurant"},
{"company":"Tony's - Athens","address":"7 W State St, Athens, OH 45701","lat":39.33067,"lng":-82.101357,"bar/restaurant or carry-out":"bar/restaurant"},
{"company":"Harrigans - Kettering","address":"4070 Marshall Rd, Kettering, OH 45429","lat":39.68786,"lng":-84.144457,"bar/restaurant or carry-out":"bar/restaurant"},
{"company":"Ohio Brew Week","address":"7 N Court St., Athens, OH 45701","lat":39.329485,"lng":-82.101184,"bar/restaurant or carry-out":"carry-out"},
{"company":"Cincy Deli  Ice ","address":"2832 Jefferson Ave., Cincinnati, OH 45219","lat":39.132886,"lng":-84.510681,"bar/restaurant or carry-out":"bar/restaurant"},
{"company":"Miami Market","address":"1296 SR 131, Milford, OH 45150","lat":39.17649,"lng":-84.222123,"bar/restaurant or carry-out":"carry-out"},
{"company":"Obscura ","address":"645 Walnut St., Cincinnati, OH 45202","lat":39.103797,"lng":-84.51205,"bar/restaurant or carry-out":"bar/restaurant"},
{"company":"H J Benken Florist","address":"6000 Plainfield Rd., Silverton, OH 45213","lat":39.179149,"lng":-84.398465,"bar/restaurant or carry-out":"carry-out"},
{"company":"Kroger 908 - Colerain","address":"9690 Colerain Av, Cincinnati, OH 45251","lat":39.248227,"lng":-84.594719,"bar/restaurant or carry-out":"carry-out"},
{"company":"Kraft House No. 5","address":"5 S. Liberty Street, Powell, OH 43065","lat":40.155261,"lng":-83.07827,"bar/restaurant or carry-out":"bar/restaurant"},
{"company":"Buckin' Donkey Grille","address":"3808 Wilmington Oike, Kettering, OH 45429","lat":39.69184,"lng":-84.134816,"bar/restaurant or carry-out":"bar/restaurant"},
{"company":"Kroger 569 - Brewer's Gate","address":"150 W. Sycamore St., Columbus, OH 43215","lat":39.949651,"lng":-83.001863,"bar/restaurant or carry-out":"carry-out"},
{"company":"Buffalo Wild Wings - Kenwood","address":"7714 Montgomery Rd., Cincinnati, OH 45236","lat":39.197133,"lng":-84.38541,"bar/restaurant or carry-out":"bar/restaurant"},
{"company":"Jack Binion's - Horseshoe Cincinnati ","address":"448 E Court St., Cincinnati, OH 45202","lat":39.107301,"lng":-84.505534,"bar/restaurant or carry-out":"bar/restaurant"},
{"company":"Premier Park Events","address":"425 Oak Street, Cincinnati, OH 45219","lat":39.130772,"lng":-84.500525,"bar/restaurant or carry-out":"carry-out"},
{"company":"Craft Pointe","address":"7920 Mason Montgomery Rd, Cincinnati, OH 45040","lat":39.291826,"lng":-84.314818,"bar/restaurant or carry-out":"carry-out"},
{"company":"Gertz Pony Keg","address":"8783 Reading Rd., Cincinnati, OH 45215","lat":39.22039,"lng":-84.442474,"bar/restaurant or carry-out":"carry-out"},
{"company":"Shell GoCo - 1222 Blue Ash","address":"9188 Plainfield Rd E/End, Blue Ash, OH 45236","lat":39.232003,"lng":-84.378273,"bar/restaurant or carry-out":"carry-out"},
{"company":"Sloppy Joe's","address":"1296 State Route 28, Loveland, OH 45140","lat":39.205305,"lng":-84.217903,"bar/restaurant or carry-out":"bar/restaurant"},
{"company":"Beer at the Pier","address":"6500 Cleveland Memorial Shoreway, Cleveland, OH 44102","lat":41.491357,"lng":-81.731552,"bar/restaurant or carry-out":"bar/restaurant"},
{"company":"Wheat Penny","address":"515 Wayne Ave., Dayton, OH 45402","lat":39.755216,"lng":-84.180353,"bar/restaurant or carry-out":"bar/restaurant"},
{"company":"Trinity Irish Pub ","address":"8953 Princeton Glendale Rd., West Chester, OH 45069","lat":39.334169,"lng":-84.46309,"bar/restaurant or carry-out":"bar/restaurant"},
{"company":"The Know Theatre","address":"1120 Jackson St., Cincinnati, OH 45202","lat":39.108086,"lng":-84.513711,"bar/restaurant or carry-out":"carry-out"},
{"company":"Walgreens 07435- Norwood","address":"4605 Montgomery Rd, Norwood, OH 45212","lat":39.160899,"lng":-84.456615,"bar/restaurant or carry-out":"carry-out"},
{"company":"BP - Landen","address":"3180 Montgomery Rd, Loveland, OH 45140","lat":39.30625,"lng":-84.279804,"bar/restaurant or carry-out":"carry-out"},
{"company":"Funky's Catering","address":"1761 Tennessee Ave., Cincinnati, OH 45229","lat":39.16685,"lng":-84.467202,"bar/restaurant or carry-out":"carry-out"},
{"company":"Munafo's Party Store","address":"9153 Cincinnati Columbus Road, West Chester, OH 45069","lat":39.320197,"lng":-84.366088,"bar/restaurant or carry-out":"carry-out"},
{"company":"Shell GoCo - 1221  Tri-County","address":"11595 Princeton Pike, Springdale, OH 45246","lat":39.287484,"lng":-84.46756,"bar/restaurant or carry-out":"carry-out"},
{"company":"Steve's BP","address":"6310 Hamilton Cleves Rd, Miamitown, OH 45041","lat":39.208971,"lng":-84.706477,"bar/restaurant or carry-out":"carry-out"},
{"company":"Buffalo Wild Wings - Oxford ","address":"10 E. Walnut St., Oxford, OH 45056","lat":39.509638,"lng":-84.742145,"bar/restaurant or carry-out":"bar/restaurant"},
{"company":"Buz  Green Dog Café ","address":"3543 Columbia Pkwy, Cincinnati, OH 45226","lat":39.115391,"lng":-84.43808,"bar/restaurant or carry-out":"bar/restaurant"},
{"company":"Holy Smoke BBQ","address":"5251 N. Hamilton Rd., Columbus, OH 43054","lat":40.04832,"lng":-82.864256,"bar/restaurant or carry-out":"bar/restaurant"},
{"company":"Mellow Mushroom - West Chester ","address":"9238 Floer Dr., West Chester, OH 45069","lat":39.323123,"lng":-84.430385,"bar/restaurant or carry-out":"bar/restaurant"},
{"company":"Pappadeaux ","address":"11975 North West Blvd., Springdale, OH 45246","lat":39.296468,"lng":-84.480321,"bar/restaurant or carry-out":"bar/restaurant"},
{"company":"Sea Jax Tavern","address":"5900 Bigger Rd, Kettering, OH 45440","lat":39.659109,"lng":-84.126333,"bar/restaurant or carry-out":"bar/restaurant"},
{"company":"Springfield Country Club","address":"2315 Signal Hill Road, Springfield, OH 45501","lat":39.955258,"lng":-83.811271,"bar/restaurant or carry-out":"bar/restaurant"},
{"company":"The Daily Growler - Powell","address":"258 W Olentangy St., Powell, OH 43065","lat":40.158302,"lng":-83.083315,"bar/restaurant or carry-out":"bar/restaurant"},
{"company":"Whiskey Barrel Bar and Billards","address":"857 W. Central Ave, Springboro, OH 45066","lat":39.562629,"lng":-84.26241,"bar/restaurant or carry-out":"bar/restaurant"},
{"company":"The Establishment","address":"2900 Wasson Rd., Cincinnati, OH 45209","lat":39.144548,"lng":-84.435339,"bar/restaurant or carry-out":"bar/restaurant"},
{"company":"Win Place or Show","address":"9933 Cincinnati-Columbus Rd, Cincinnati, OH 45241","lat":39.30417,"lng":-84.387458,"bar/restaurant or carry-out":"bar/restaurant"},
{"company":"Kwik n Kold - Hamilton","address":"4381 Hamilton Middletown Rd, Hamilton, OH 45011","lat":39.418226,"lng":-84.469905,"bar/restaurant or carry-out":"carry-out"},
{"company":"Junior Womens Club of Wyoming","address":"Fenced NW Corner of Oak Ave & Wyoming Ave, Wyoming, OH 45215","lat":39.227221,"lng":-84.468059,"bar/restaurant or carry-out":"carry-out"},
{"company":"Madisonville Redevelopment Corp.","address":"5906 Madison Rd., Cincinnati, OH 45227","lat":39.160702,"lng":-84.39276,"bar/restaurant or carry-out":"carry-out"},
{"company":"AleFest Dayton","address":"1301 E Siebenthaler Ave., Dayton, OH 45414","lat":39.804473,"lng":-84.203959,"bar/restaurant or carry-out":"carry-out"},
{"company":"Seasons Bistro","address":"28 S. Limestone, Springfield, OH 45502","lat":39.923871,"lng":-83.808407,"bar/restaurant or carry-out":"bar/restaurant"},
{"company":"Tusculum Market","address":"338 Stanley Ave., Cincinnati, OH 45226","lat":39.114629,"lng":-84.436954,"bar/restaurant or carry-out":"carry-out"},
{"company":"Aponte's","address":"312 Reading Rd., Mason, OH 45040","lat":39.357933,"lng":-84.314371,"bar/restaurant or carry-out":"bar/restaurant"},
{"company":"Austin's ","address":"35 S South St., Wilmington, OH 45177","lat":39.444885,"lng":-83.829117,"bar/restaurant or carry-out":"bar/restaurant"},
{"company":"BP - Montgomery Rd.","address":"8020 Montgomery Rd, Cincinnati, OH 45236","lat":39.201334,"lng":-84.372448,"bar/restaurant or carry-out":"carry-out"},
{"company":"John's Carryout","address":"7354 Blue Ash Rd, Blue Ash, OH 45236","lat":39.202117,"lng":-84.39546,"bar/restaurant or carry-out":"carry-out"},
{"company":"Junkers Tavern","address":"4156 Langland St, Cincinnati, OH 45223","lat":39.162997,"lng":-84.538182,"bar/restaurant or carry-out":"bar/restaurant"},
{"company":"Kroger 412 - Oxford","address":"300 S Locust St, Oxford, OH 45056","lat":39.507319,"lng":-84.751063,"bar/restaurant or carry-out":"carry-out"},
{"company":"Sunoco - Blue Ash","address":"10410 Kenwood Rd., Blue Ash, OH 45242","lat":39.250855,"lng":-84.374642,"bar/restaurant or carry-out":"carry-out"},
{"company":"Wyoming Business Association","address":"412 Wyoming Ave., Wyoming, OH 45215","lat":39.227545,"lng":-84.46617,"bar/restaurant or carry-out":"carry-out"},
{"company":"Carlo  Johnny's ","address":"9769 Montgomery Rd., Montgomery, OH 45242","lat":39.23386,"lng":-84.35337,"bar/restaurant or carry-out":"bar/restaurant"},
{"company":"Buffalo Wild Wings - Western Hills","address":"2178 Anderson Ferry Rd., Cincinnati, OH 45238","lat":39.129486,"lng":-84.614387,"bar/restaurant or carry-out":"bar/restaurant"},
{"company":"Deer Park Deli","address":"7916 Blue Ash Dr., Deer Park, OH 45236","lat":39.205121,"lng":-84.392972,"bar/restaurant or carry-out":"bar/restaurant"},
{"company":"Dean's Hops  Vines","address":"3722 Harrison Ave., Cincinnati, OH 45211","lat":39.156667,"lng":-84.612089,"bar/restaurant or carry-out":"bar/restaurant"},
{"company":"PF Changs - Dayton","address":"2626 Miamisburg Centerville Rd, Dayton, OH 45459","lat":39.636438,"lng":-84.218356,"bar/restaurant or carry-out":"bar/restaurant"},
{"company":"Blue Ash Golf Course","address":"4040 Cooper Rd., Cincinnati, OH 45241","lat":39.23902,"lng":-84.398165,"bar/restaurant or carry-out":"bar/restaurant"},
{"company":"BP - Deerfield","address":"9855 Mason Montgomery Rd., Mason, OH 45040","lat":39.29474,"lng":-84.31583,"bar/restaurant or carry-out":"carry-out"},
{"company":"Dixie Foodmart","address":"4825 Dixie Hwy, Fairfield, OH 45014","lat":39.3464,"lng":-84.540803,"bar/restaurant or carry-out":"carry-out"},
{"company":"Mason Drive Thru","address":"117 Reading Rd., Mason, OH 45040","lat":39.360017,"lng":-84.312613,"bar/restaurant or carry-out":"carry-out"},
{"company":"Shell - Mt. Carmel 3 COPIES!!","address":"4261 Mt. Carmel Tobasco Rd., Cincinnati, OH 45244","lat":39.086621,"lng":-84.301211,"bar/restaurant or carry-out":"carry-out"},
{"company":"Shell GoCo - 1205 Kenwood","address":"8051 Montgomery Rd, Cincinnati, OH 45236","lat":39.202634,"lng":-84.37202,"bar/restaurant or carry-out":"carry-out"},
{"company":"Buzzard Bay Pub","address":"7121 Dixie Hwy, Fairfield, OH 45014","lat":39.313394,"lng":-84.489107,"bar/restaurant or carry-out":"bar/restaurant"},
{"company":"Carmichael's","address":"3011 Wayne's Ave, Dayton, OH 45420","lat":39.739019,"lng":-84.15142,"bar/restaurant or carry-out":"carry-out"},
{"company":"Sailor Joes","address":"10055 Avondale Rd., Thornville, OH 43076","lat":39.930196,"lng":-82.424035,"bar/restaurant or carry-out":"bar/restaurant"},
{"company":"The Crafty Pint","address":"2234 W. Dublin Granville Rd, Columbus, OH 43805","lat":40.090328,"lng":-83.050314,"bar/restaurant or carry-out":"bar/restaurant"},
{"company":"Camargo Club","address":"8605 Shawnee Run Rd., Cincinnati, OH 45243","lat":39.181408,"lng":-84.329038,"bar/restaurant or carry-out":"bar/restaurant"},
{"company":"Hooligans Pub - Columbia Twp","address":"3340 Highland Ave., Cincinnati, OH 45213","lat":39.170069,"lng":-84.424854,"bar/restaurant or carry-out":"bar/restaurant"},
{"company":"BP - Beavercreek","address":"2835 N. Fairfield Rd., Beavercreek, OH 45431","lat":39.773534,"lng":-84.051702,"bar/restaurant or carry-out":"carry-out"},
{"company":"Cystic Fibrosis Foundation","address":"500 Tytus Ave., Middletown, OH 45042","lat":39.521577,"lng":-84.3988,"bar/restaurant or carry-out":"carry-out"},
{"company":"Rakes End","address":"2141 Central Ave., Cincinnati, OH 45214","lat":39.120978,"lng":-84.530523,"bar/restaurant or carry-out":"bar/restaurant"},
{"company":"Monty's on Montgomery ","address":"4108 Montgomery Rd., Norwood, OH 45212","lat":39.154006,"lng":-84.460584,"bar/restaurant or carry-out":"bar/restaurant"},
{"company":"Lock 3","address":"200 S Main St, Akron, OH 44308","lat":41.080159,"lng":-81.519988,"bar/restaurant or carry-out":"bar/restaurant"},
{"company":"Fountain Square News","address":"101 E 5th St., Cincinnati, OH 45202","lat":39.101277,"lng":-84.511322,"bar/restaurant or carry-out":"carry-out"},
{"company":"Jag's Restaurant ","address":"5980 West Chester Rd., West Chester, OH 45069","lat":39.328795,"lng":-84.426409,"bar/restaurant or carry-out":"bar/restaurant"},
{"company":"Kwik n Kold - Fairfield","address":"730 Nilles Rd., Fairfield, OH 45014","lat":39.337513,"lng":-84.556488,"bar/restaurant or carry-out":"carry-out"},
{"company":"Primavista Restaurant ","address":"810 Matson Place, Cincinnati, OH 45204","lat":39.10595,"lng":-84.556752,"bar/restaurant or carry-out":"bar/restaurant"},
{"company":"Sitwells Coffeehouse","address":"324 Ludlow Ave., Cincinnati, OH 45220","lat":39.143779,"lng":-84.520399,"bar/restaurant or carry-out":"bar/restaurant"},
{"company":"Western Hills Country Club","address":"5780 Cleves-Warsaw Pike, Cincinnati, OH 45233","lat":39.120315,"lng":-84.638497,"bar/restaurant or carry-out":"bar/restaurant"},
{"company":"Buck's Tavern ","address":"3299 St. Route 22 & 3, Loveland, OH 45140","lat":39.268948,"lng":-84.263826,"bar/restaurant or carry-out":"bar/restaurant"},
{"company":"Buffalo Wild Wings - Colerain","address":"8405 Colerain Ave., Cincinnati, OH 45239","lat":39.223158,"lng":-84.588365,"bar/restaurant or carry-out":"bar/restaurant"},
{"company":"Quaker Steak & Lube - Colerain","address":"3737 Stonecreek Blvd, Cincinnati, OH 45251","lat":39.257891,"lng":-84.393967,"bar/restaurant or carry-out":"bar/restaurant"},
{"company":"Caroline, The","address":"5 S. Market St. (highway 55), Troy, OH 45373","lat":40.028678,"lng":-84.223649,"bar/restaurant or carry-out":"bar/restaurant"},
{"company":"Indian Mound Cafe ","address":"5226 Montgomery Rd., Norwood, OH 45212","lat":39.169643,"lng":-84.45013,"bar/restaurant or carry-out":"bar/restaurant"},
{"company":"Ray's Wine and Spirits Grill","address":"8268 N. Main St., Dayton, OH 45415","lat":39.844618,"lng":-84.263976,"bar/restaurant or carry-out":"bar/restaurant"},
{"company":"BP - Fairborn","address":"1040 Dayton Yellow Springs Rd, Fairborn, OH 45324","lat":39.782234,"lng":-84.001296,"bar/restaurant or carry-out":"carry-out"},
{"company":"Courtyard Marriott - Hamilton","address":"1 Riverfront Plaza, Hamilton, OH 45011","lat":39.401878,"lng":-84.563239,"bar/restaurant or carry-out":"bar/restaurant"},
{"company":"Fairfield Premium Drive Thru","address":"1729 Happy Valley Dr., Fairfield, OH 45014","lat":39.314537,"lng":-84.560756,"bar/restaurant or carry-out":"carry-out"},
{"company":"Gilpins","address":"2504 W Clifton Ave., Cincinnati, OH 45219","lat":39.128065,"lng":-84.518982,"bar/restaurant or carry-out":"bar/restaurant"},
{"company":"Grailville Local Fest","address":"937 O'Brannonville Rd., Loveland, OH 45140-9705","lat":39.265787,"lng":-84.244385,"bar/restaurant or carry-out":"carry-out"},
{"company":"Kroger 390 - Hamilton Ave","address":"7132 Hamilton Ave, Cincinnati, OH 45231","lat":39.224539,"lng":-84.547696,"bar/restaurant or carry-out":"carry-out"},
{"company":"Shell - Washington Square","address":"6001 Far Hills Avenue, Dayton, OH 45459","lat":39.658601,"lng":-84.158112,"bar/restaurant or carry-out":"carry-out"},
{"company":"Unwind ","address":"3435 Michigan Ave., Cincinnati, OH 45208","lat":39.138729,"lng":-84.441795,"bar/restaurant or carry-out":"bar/restaurant"},
{"company":"Vogue, The ","address":"8441 Vine St, Cincinnati, OH 45216","lat":39.217023,"lng":-84.473716,"bar/restaurant or carry-out":"bar/restaurant"},
{"company":"101 Bottles","address":"115 N. Willow St., Kent, OH 44240","lat":41.15438,"lng":-81.352642,"bar/restaurant or carry-out":"bar/restaurant"},
{"company":"Arch & Eddie's Gathering Place","address":"181 W Main St., Jackson, OH 45640","lat":39.057382,"lng":-82.647065,"bar/restaurant or carry-out":"bar/restaurant"},
{"company":"BD's Mongolian Barbeque - Arena District","address":"295 Marconi Blvd., Columbus, OH 43215","lat":39.968125,"lng":-83.005663,"bar/restaurant or carry-out":"bar/restaurant"},
{"company":"Bel Lago","address":"170 N. Sunbury Rd., Westerville, OH 43081","lat":40.129383,"lng":-82.88508,"bar/restaurant or carry-out":"bar/restaurant"},
{"company":"Bodega","address":"1044 N High St, Columbus, OH 43201","lat":39.983693,"lng":-83.00455,"bar/restaurant or carry-out":"bar/restaurant"},
{"company":"Champs-Easton","address":"3993 Morse Crossing, Columbus, OH 43219","lat":40.05194,"lng":-82.920567,"bar/restaurant or carry-out":"bar/restaurant"},
{"company":"Dublin Pub","address":"706 E. 5th St., Dayton, OH 45403","lat":39.757129,"lng":-84.182075,"bar/restaurant or carry-out":"bar/restaurant"},
{"company":"Eastern Hills Tennis Club","address":"669 Wilmer Ave., Cincinnati, OH 45226","lat":39.113224,"lng":-84.419136,"bar/restaurant or carry-out":"bar/restaurant"},
{"company":"Flat Iron Bar & Diner","address":"129 E Nationwide Blvd., Columbus, OH 43215","lat":39.968774,"lng":-82.998113,"bar/restaurant or carry-out":"bar/restaurant"},
{"company":"Frosty's Bar","address":"252 Delaware Ave., Put-in-Bay, OH 43456","lat":41.652901,"lng":-82.817327,"bar/restaurant or carry-out":"bar/restaurant"},
{"company":"Galley, The","address":"203 2nd St, Marietta, OH 45750","lat":39.413529,"lng":-81.453447,"bar/restaurant or carry-out":"bar/restaurant"},
{"company":"Grandview Craft Beer Alliance","address":"1515 W Goodale Blvd, Columbus, OH 43212","lat":39.976762,"lng":-83.044518,"bar/restaurant or carry-out":"carry-out"},
{"company":"Ladder 11","address":"936 Brown St, Dayton, OH 45409","lat":39.745827,"lng":-84.182781,"bar/restaurant or carry-out":"bar/restaurant"},
{"company":"Ledo's Tavern","address":"2608 N. High St., Columbus, OH 43202","lat":40.0155,"lng":-83.011368,"bar/restaurant or carry-out":"bar/restaurant"},
{"company":"Market Street Grille","address":"205 Harrison Ave., Harrison, OH 45030","lat":39.262048,"lng":-84.818335,"bar/restaurant or carry-out":"bar/restaurant"},
{"company":"Max & Erma's - Beavercreek","address":"2739 Fairfield Commons, Beavercreek, OH 45431","lat":39.768666,"lng":-84.053428,"bar/restaurant or carry-out":"bar/restaurant"},
{"company":"Max and Erma's Springboro","address":"710 Gardner Rd, Springboro, OH 45066","lat":39.575617,"lng":-84.231652,"bar/restaurant or carry-out":"bar/restaurant"},
{"company":"Northstar Cafe 2","address":"4241 N. High St., Columbus, OH 43214","lat":40.048477,"lng":-83.020594,"bar/restaurant or carry-out":"bar/restaurant"},
{"company":"Putter's Sports Grill ","address":"6575 Cin-Day Rd., Liberty Township, OH 45044","lat":39.403986,"lng":-84.406761,"bar/restaurant or carry-out":"bar/restaurant"},
{"company":"Roosters - Springboro","address":"257 W Central Ave., Springboro, OH 45066","lat":39.558847,"lng":-84.240546,"bar/restaurant or carry-out":"bar/restaurant"},
{"company":"The Market - Columbus","address":"1022 Summit Ave., Columbus, OH 43201","lat":39.983598,"lng":-83.001175,"bar/restaurant or carry-out":"carry-out"},
{"company":"Townview Sports Pub","address":"1832-34 Sutton Ave., Cincinnati, OH 45230","lat":39.087692,"lng":-84.389786,"bar/restaurant or carry-out":"bar/restaurant"},
{"company":"Yellow Brick Pizza","address":"892 Oak St, Columbus, OH 43205","lat":39.963031,"lng":-82.976477,"bar/restaurant or carry-out":"bar/restaurant"},
{"company":"Coffee Exchange","address":"6105 Montgomery Rd., Cincinnati, OH 45213","lat":39.182519,"lng":-84.426957,"bar/restaurant or carry-out":"bar/restaurant"},
{"company":"Rambling House","address":"310 E Hudson, Columbus, OH 43202","lat":40.015434,"lng":-83.002905,"bar/restaurant or carry-out":"bar/restaurant"},
{"company":"Village Idiot - Columbus","address":"1439 North High St, Columbus, OH 43201","lat":39.991706,"lng":-83.006554,"bar/restaurant or carry-out":"bar/restaurant"},
{"company":"Ameristop - Hamilton","address":"1039 Eaton Avenue, Hamilton, OH 45013","lat":39.42279,"lng":-84.576499,"bar/restaurant or carry-out":"carry-out"},
{"company":"Walgreens 06990 - Fairborn","address":"183 E Dayton Yellow Springs Rd., Fairborn, OH 45324","lat":39.789841,"lng":-84.020172,"bar/restaurant or carry-out":"carry-out"},
{"company":"Beverage Dock - Springfield","address":"209 E Leffel Ln., Springfield, OH 45505","lat":39.894097,"lng":-83.808753,"bar/restaurant or carry-out":"carry-out"},
{"company":"Bobaloos ","address":"12 Mulberry St., Lebanon, OH 45036","lat":39.434607,"lng":-84.208687,"bar/restaurant or carry-out":"bar/restaurant"},
{"company":"Davis Catering","address":"30 Garfield Place, Cincinnati, OH 45202","lat":39.104566,"lng":-84.514931,"bar/restaurant or carry-out":"carry-out"},
{"company":"Fishing Pole Bait Shop","address":"5071 West State Route 350, Clarksville, OH 45113","lat":39.37864,"lng":-83.949806,"bar/restaurant or carry-out":"carry-out"},
{"company":"Heid's Lanes","address":"6341 Cheviot Rd., Cincinnati, OH 45247","lat":39.205995,"lng":-84.600211,"bar/restaurant or carry-out":"bar/restaurant"},
{"company":"Hidden Carry Out","address":"975 W Main St, Wilmington, OH 45177","lat":39.445634,"lng":-83.84543,"bar/restaurant or carry-out":"carry-out"},
{"company":"Kenny's","address":"5870 Cheviot Rd., Cincinnati, OH 45247","lat":39.199955,"lng":-84.600803,"bar/restaurant or carry-out":"bar/restaurant"},
{"company":"Rusconi Pizza","address":"126 W 6th St, Cincinnati, OH 45202","lat":39.102188,"lng":-84.515741,"bar/restaurant or carry-out":"bar/restaurant"},
{"company":"Tom's Express Mart","address":"7529 Fairground Rd., Blanchester, OH 45107","lat":39.280544,"lng":-83.977128,"bar/restaurant or carry-out":"carry-out"},
{"company":"Boca ","address":"114 E. 6th St., Cincinnati, OH 45202","lat":39.103005,"lng":-84.511104,"bar/restaurant or carry-out":"bar/restaurant"},
{"company":"Bridgetown Fine Meats","address":"6135-6139 Bridgetown Rd, Cincinnati, OH 45248","lat":39.157006,"lng":-84.650288,"bar/restaurant or carry-out":"carry-out"},
{"company":"Hall's Carryout - West Chester","address":"8865 Cin-Day Rd., West Chester, OH 45069","lat":39.341965,"lng":-84.406761,"bar/restaurant or carry-out":"carry-out"},
{"company":"Maineville Quick Stop","address":"8144 St. Rt. 48, Maineville, OH 45039","lat":39.315059,"lng":-84.22077,"bar/restaurant or carry-out":"carry-out"},
{"company":"Marathon - Main St.","address":"131 E Main St., Mason, OH 45040","lat":39.360988,"lng":-84.306512,"bar/restaurant or carry-out":"carry-out"},
{"company":"Mulligans Pub","address":"110 W. High Street, Piqua, OH 45358","lat":40.148717,"lng":-84.239716,"bar/restaurant or carry-out":"bar/restaurant"},
{"company":"Oriental Wok ","address":"2444 Madison Rd, Cincinnati, OH 45208","lat":39.14059,"lng":-84.453952,"bar/restaurant or carry-out":"bar/restaurant"},
{"company":"Reading Drive Thru","address":"1415 East. St., Cincinnati, OH 45215","lat":39.226316,"lng":-84.437601,"bar/restaurant or carry-out":"carry-out"},
{"company":"Spring Grove Cemetery & Arboretum","address":"4521 Spring Grove Ave., Cincinnati, OH 45232","lat":39.16462,"lng":-84.52289,"bar/restaurant or carry-out":"carry-out"},
{"company":"Taft Museum of Art","address":"316 Pike St., Cincinnati, OH 45202","lat":39.102197,"lng":-84.502652,"bar/restaurant or carry-out":"carry-out"},
{"company":"Walgreens 06653 - Evendale","address":"3105 Glendale Milford Rd., Evendale, OH 45241","lat":39.253409,"lng":-84.422095,"bar/restaurant or carry-out":"carry-out"},
{"company":"Basils on Market","address":"18 N. Market, Troy, OH 45373","lat":40.040526,"lng":-84.203058,"bar/restaurant or carry-out":"carry-out"},
{"company":"Discount Drug Mart - Polaris","address":"8951 South Old State Rd., Lewis Center, OH 43035","lat":40.151913,"lng":-82.997033,"bar/restaurant or carry-out":"carry-out"},
{"company":"Hale's Ales","address":"3641 Fishinger Blvd, Hilliard, OH 43026","lat":40.029386,"lng":-83.119177,"bar/restaurant or carry-out":"bar/restaurant"},
{"company":"J.R. Hooks Cafe","address":"115 Watt St., Circleville, OH 43113","lat":39.602762,"lng":-82.943754,"bar/restaurant or carry-out":"bar/restaurant"},
{"company":"Marietta Brewing Company","address":"167 Front St, Marietta, OH 45750","lat":39.411723,"lng":-81.453755,"bar/restaurant or carry-out":"bar/restaurant"},
{"company":"Smokey Bones - Reynoldsburg","address":"2200 Baltimore Reynoldsburg Rd, Reynolds, OH 43068","lat":39.951839,"lng":-82.788639,"bar/restaurant or carry-out":"bar/restaurant"},
{"company":"The Thirsty Fox","address":"31 S Paint St., Chilicothe, OH 45601","lat":39.332658,"lng":-82.981969,"bar/restaurant or carry-out":"bar/restaurant"},
{"company":"Wine & Brew Emporium","address":"6154 S. Sunbury Rd., Westerville, OH 43081","lat":40.08491,"lng":-82.895398,"bar/restaurant or carry-out":"carry-out"},
{"company":"Ault Park Advisory Council","address":"3600 Observatory Ave, Cincinnati, OH 45208","lat":39.135677,"lng":-84.415658,"bar/restaurant or carry-out":"carry-out"},
{"company":"Below Zero Lounge ","address":"1120 Walnut St, Cincinnati, OH 45205","lat":39.108247,"lng":-84.513075,"bar/restaurant or carry-out":"bar/restaurant"},
{"company":"BP - Wilmington Pike","address":"6201 Wilmington Pike, Dayton, OH 45459","lat":39.649533,"lng":-84.110714,"bar/restaurant or carry-out":"carry-out"},
{"company":"Campeonis","address":"6691 Western Row Rd., Mason, OH 45040","lat":39.337193,"lng":-84.335222,"bar/restaurant or carry-out":"bar/restaurant"},
{"company":"Carl's Cruise In","address":"929 W Main St., Troy, OH 45373","lat":40.044468,"lng":-84.213387,"bar/restaurant or carry-out":"carry-out"},
{"company":"Cincinnati Art Museum","address":"953 Eden Park, Cincinnati, OH 45202","lat":39.11381,"lng":-84.496809,"bar/restaurant or carry-out":"carry-out"},
{"company":"Corinthian","address":"3253 Jefferson Ave, Cincinnati, OH 45220","lat":39.140027,"lng":-84.513129,"bar/restaurant or carry-out":"bar/restaurant"},
{"company":"Echo","address":"3510 Edwards Rd, Cincinnati, OH 45208","lat":39.140084,"lng":-84.443024,"bar/restaurant or carry-out":"bar/restaurant"},
{"company":"Fireside Pizza","address":"773 E McMillan St., Cincinnati, OH 45206","lat":39.12581,"lng":-84.491836,"bar/restaurant or carry-out":"bar/restaurant"},
{"company":"Funny Bone - Beavercreek","address":"88 Plum Street, Beavercreek, OH 45440","lat":39.693509,"lng":-84.101325,"bar/restaurant or carry-out":"bar/restaurant"},
{"company":"Grapes Wine & Beer - Kettering","address":"5884 Bigger Rd., Kettering, OH 45440","lat":39.659357,"lng":-84.126311,"bar/restaurant or carry-out":"carry-out"},
{"company":"Green Kayak","address":"204 Front St., New Richmond, OH 45157","lat":38.951048,"lng":-84.283731,"bar/restaurant or carry-out":"bar/restaurant"},
{"company":"Jeanette's Delicacies","address":"5595 Beckett Rdige Blvd., West Chester, OH 45069","lat":39.345364,"lng":-84.440893,"bar/restaurant or carry-out":"carry-out"},
{"company":"Johnnie's Carryout","address":"3985 E Patterson Rd., Beavercreek, OH 45430","lat":39.726182,"lng":-84.083651,"bar/restaurant or carry-out":"carry-out"},
{"company":"Kroger 380 - Hillsboro","address":"575 Harry Sauner Rd, Hillsboro, OH 45133","lat":39.224729,"lng":-83.619485,"bar/restaurant or carry-out":"carry-out"},
{"company":"Loveland Quick Stop","address":"111 Loveland Madeira Rd, Loveland, OH 45140","lat":39.26883,"lng":-84.266048,"bar/restaurant or carry-out":"carry-out"},
{"company":"Murphy's Irish Pub ","address":"2329 W Clifton Ave., Cincinnati, OH 45219","lat":39.124628,"lng":-84.520082,"bar/restaurant or carry-out":"bar/restaurant"},
{"company":"Pizza Plus","address":"101 Gale Wood Ave., New Carlisle, OH 45344","lat":39.948955,"lng":-84.062695,"bar/restaurant or carry-out":"bar/restaurant"},
{"company":"The Backyard Bar","address":"10 E Columbia Ave., Reading, OH 45215","lat":39.227312,"lng":-84.437738,"bar/restaurant or carry-out":"bar/restaurant"},
{"company":"Walgreens 7182 - Cheviot","address":"3186 Harrison Ave., Cincinnati, OH 45211","lat":39.153552,"lng":-84.602266,"bar/restaurant or carry-out":"carry-out"},
{"company":"Walnut Grove Country Club","address":"5050 Linden Ave., Dayton, OH 45432","lat":39.737136,"lng":-84.101778,"bar/restaurant or carry-out":"bar/restaurant"},
{"company":"Wild Mike's - Delhi ","address":"5043 Delhi Pike, Delhi Township, OH 45238","lat":null,"lng":null,"bar/restaurant or carry-out":"bar/restaurant"},
{"company":"The Farm Beer Garden","address":"2461 Ross/Millville Rd., Hamilton, OH 45013","lat":39.356108,"lng":-84.642322,"bar/restaurant or carry-out":"bar/restaurant"},
{"company":"American Sign Museum","address":"1330 Monmouth St, Cincinnati, OH 45225","lat":39.14347,"lng":-84.539942,"bar/restaurant or carry-out":"carry-out"},
{"company":"Bella Vino - West Chester ","address":"6064 West Chester Rd., West Chester, OH 45069","lat":39.328135,"lng":-84.423107,"bar/restaurant or carry-out":"bar/restaurant"},
{"company":"Bobby's Burger Palace - Horseshoe Cincinnati ","address":"1000 Broadway, Cincinnati, OH 45202","lat":39.107867,"lng":-84.50732,"bar/restaurant or carry-out":"bar/restaurant"},
{"company":"Cozy's Cooking Cottage","address":"6456 Cincinnati Dayton Rd., Middletown, OH 45044","lat":39.387422,"lng":-84.370818,"bar/restaurant or carry-out":"bar/restaurant"},
{"company":"Izzy's - Anderson","address":"7625 Beechmont Ave., Cincinnati, OH 45255","lat":39.072224,"lng":-84.346154,"bar/restaurant or carry-out":"bar/restaurant"},
{"company":"Larry's Party Shop","address":"113 Muntz St., Hillsboro, OH 45133","lat":39.196704,"lng":-83.612137,"bar/restaurant or carry-out":"carry-out"},
{"company":"Manor Wines","address":"5544 Airway Rd., Dayton, OH 45431","lat":39.771816,"lng":-84.114064,"bar/restaurant or carry-out":"carry-out"},
{"company":"Mantra ","address":"932-34 Hatch St, Cincinnati, OH 45209","lat":39.109498,"lng":-84.49766,"bar/restaurant or carry-out":"bar/restaurant"},
{"company":"Meritage Restaurant ","address":"1140 Congress Ave., Cincinnati, OH 45246","lat":39.276346,"lng":-84.467877,"bar/restaurant or carry-out":"bar/restaurant"},
{"company":"Stonelick Hills Golf Course","address":"3155 Sherilyn Ln., Batavia, OH 45103","lat":39.122416,"lng":-84.172504,"bar/restaurant or carry-out":"bar/restaurant"},
{"company":"The Harem","address":"5825 N Dixie Hwy, Dayton, OH 45414","lat":39.683758,"lng":-84.225843,"bar/restaurant or carry-out":"bar/restaurant"},
{"company":"Walgreens - Harrison","address":"1032 Harrison Ave., Harrison, OH 45030","lat":39.25777,"lng":-84.803764,"bar/restaurant or carry-out":"carry-out"},
{"company":"Walgreens - North Bend","address":"5403 N Bend Rd., Cincinnati, OH 45247","lat":39.188761,"lng":-84.60227,"bar/restaurant or carry-out":"carry-out"},
{"company":"Walgreens 3792 - Fields Ertel","address":"9520 Fields Ertel Rd., Loveland, OH 45140","lat":39.291095,"lng":-84.297544,"bar/restaurant or carry-out":"carry-out"},
{"company":"Walgreens 916 - Hamilton- 9520","address":"5011 Princeton-Glendale Rd., Hamilton, OH 45011","lat":39.427702,"lng":-84.450147,"bar/restaurant or carry-out":"carry-out"},
{"company":"Wind's Wine Cellar","address":"213 Xenia Ave., Yellow Springs, OH 45387","lat":39.805965,"lng":-83.888346,"bar/restaurant or carry-out":"carry-out"},
{"company":"Barnesburg Tavern ","address":"5744 Springdale Rd., Cincinnati, OH 45239","lat":39.231123,"lng":-84.629748,"bar/restaurant or carry-out":"bar/restaurant"},
{"company":"Boulevard Carryout","address":"1288 W. 3rd Ave., Columbus, OH 43212","lat":39.98492,"lng":-83.039779,"bar/restaurant or carry-out":"carry-out"},
{"company":"Buckeye Sports Lodge","address":"126 W. High St., Springfield, OH 45502","lat":39.923992,"lng":-83.813386,"bar/restaurant or carry-out":"bar/restaurant"},
{"company":"Giant Eagle 6515 - Kingsdale","address":"3070 Kingsdale Center, Columbus, OH 43221","lat":40.020321,"lng":-83.060047,"bar/restaurant or carry-out":"carry-out"},
{"company":"Harvest Moon","address":"7 N High St., Canal Winchester, OH 43110","lat":39.842945,"lng":-82.805432,"bar/restaurant or carry-out":"bar/restaurant"},
{"company":"Hawk's Nest-Alexandria Service center","address":"261 W. Main st., Alexandria, OH 43001","lat":40.092131,"lng":-82.617982,"bar/restaurant or carry-out":"carry-out"},
{"company":"Hoppin Frog Tasting Room","address":"1680-F E. Waterloo Rd., Akron, OH 44306","lat":41.024593,"lng":-81.467711,"bar/restaurant or carry-out":"bar/restaurant"},
{"company":"J. Gumbo's - Baltimore","address":"108 N. Main St., Baltimore, OH 43105","lat":39.845704,"lng":-82.601376,"bar/restaurant or carry-out":"bar/restaurant"},
{"company":"Keller's Cheviot Café ","address":"3737 Glenmore Ave., Cincinnati, OH 45211","lat":39.15594,"lng":-84.61146,"bar/restaurant or carry-out":"bar/restaurant"},
{"company":"Luke Schumacher","address":"4650 Lake Forest Drive, Blue Ash, OH 45242","lat":39.255386,"lng":-84.377542,"bar/restaurant or carry-out":"carry-out"},
{"company":"New Kids on the Block","address":"132 W State St., Athens, OH 45701","lat":39.332193,"lng":-82.106487,"bar/restaurant or carry-out":"carry-out"},
{"company":"Pace High Carryout","address":"3179 N. High St, Columbus, OH 43202","lat":40.027043,"lng":-83.014927,"bar/restaurant or carry-out":"carry-out"},
{"company":"Party Connection","address":"2034 11th St., Portsmouth, OH 45662","lat":38.7385,"lng":-82.9744,"bar/restaurant or carry-out":"carry-out"},
{"company":"Seventh Sons","address":"1101 N. 4th St., Columbus, OH 43201","lat":39.985374,"lng":-82.999676,"bar/restaurant or carry-out":"bar/restaurant"},
{"company":"Signatures Deli","address":"94 Mill St, Gahanna, OH 43230","lat":40.020052,"lng":-82.879412,"bar/restaurant or carry-out":"bar/restaurant"},
{"company":"Song Long ","address":"1737 Section Rd, Cincinnati, OH 45237","lat":39.197306,"lng":-84.457978,"bar/restaurant or carry-out":"bar/restaurant"},
{"company":"Ten Pin Alley","address":"5499 Constitution Blvd., Hilliard, OH 43026","lat":40.023518,"lng":-83.161995,"bar/restaurant or carry-out":"bar/restaurant"},
{"company":"The Lodge - Lancaster","address":"129 E Main St., Lancaster, OH 43130","lat":39.713893,"lng":-82.600673,"bar/restaurant or carry-out":"bar/restaurant"},
{"company":"Tutto Vino","address":"7154 Muirfield Dr, Dublin, OH 43107","lat":40.114431,"lng":-83.15292,"bar/restaurant or carry-out":"bar/restaurant"},
{"company":"Wind's Cafe","address":"215 Xenia Ave., Yellow Springs, OH 45387","lat":39.806035,"lng":-83.888646,"bar/restaurant or carry-out":"bar/restaurant"},
{"company":"Yabos Tacos - Upper Arlington","address":"3051 Northwest Blvd, Upper Arlington, OH 43221","lat":40.019383,"lng":-83.057804,"bar/restaurant or carry-out":"bar/restaurant"},
{"company":"Bamboo Kitchen","address":"7340 Kenwood Rd., Cincinnati, OH 45236","lat":39.196944,"lng":-84.37998,"bar/restaurant or carry-out":"bar/restaurant"},
{"company":"C&J Party Supply","address":"26 Emerick Rd., West Milton, OH 45383","lat":39.945985,"lng":-84.322218,"bar/restaurant or carry-out":"carry-out"},
{"company":"Cindy's Friendly Tavern","address":"125 Karl Brown Way, Loveland, OH 45140","lat":39.266934,"lng":-84.259697,"bar/restaurant or carry-out":"bar/restaurant"},
{"company":"Cork n Barrel Drive Thru","address":"7950 Cincinnati Dayton Rd, West Chester, OH 45069","lat":39.354205,"lng":-84.394841,"bar/restaurant or carry-out":"carry-out"},
{"company":"Crossroads - Cheviot ","address":"5790 Cheviot Rd., Cincinnati, OH 45247","lat":39.198381,"lng":-84.600666,"bar/restaurant or carry-out":"bar/restaurant"},
{"company":"Fairway Inn Restaurant","address":"3353 Chuck Wagner Lane, Dayton, OH 45414","lat":39.807976,"lng":-84.170936,"bar/restaurant or carry-out":"bar/restaurant"},
{"company":"Fresh Beer","address":"834 Ohio Pike, Cincinnati, OH 45245","lat":39.065076,"lng":-84.278916,"bar/restaurant or carry-out":"carry-out"},
{"company":"German Town Ice","address":"208 East Jefferson St., German Town, OH 45237","lat":39.623247,"lng":-84.367393,"bar/restaurant or carry-out":"carry-out"},
{"company":"Hunter IGA Express","address":"4077 W State Route 122, Franklin, OH 45005","lat":39.492623,"lng":-84.280672,"bar/restaurant or carry-out":"carry-out"},
{"company":"Kroger 729 - Dayton","address":"700 Spinning Road, Dayton, OH 45431","lat":39.756525,"lng":-84.109448,"bar/restaurant or carry-out":"carry-out"},
{"company":"Lily's Bistro","address":"329 E. 5th St., Dayton, OH 45402","lat":39.757526,"lng":-84.185743,"bar/restaurant or carry-out":"bar/restaurant"},
{"company":"Little York Drive Thru","address":"3811 Little York Rd., Dayton, OH 45414","lat":39.859128,"lng":-84.198293,"bar/restaurant or carry-out":"carry-out"},
{"company":"Mac & Joe's ","address":"21 1/2 E. High St., Oxford, OH 45056","lat":39.510243,"lng":-84.74168,"bar/restaurant or carry-out":"bar/restaurant"},
{"company":"Madison Bowl","address":"4761 Madison Rd., Cincinnati, OH 45227","lat":39.160838,"lng":-84.413933,"bar/restaurant or carry-out":"bar/restaurant"},
{"company":"Marathon - Miamitown","address":"6383 Hamilton Cleves HWY, Miamitown, OH 45041","lat":39.210063,"lng":-84.706036,"bar/restaurant or carry-out":"carry-out"},
{"company":"Max & Erma's - Hamilton","address":"3411 Princeton Rd., Hamilton, OH 45011","lat":39.389612,"lng":-84.501324,"bar/restaurant or carry-out":"bar/restaurant"},
{"company":"Red Ox ","address":"95 E. Chestnut St., Oxford, OH 45056","lat":39.500115,"lng":-84.741395,"bar/restaurant or carry-out":"bar/restaurant"},
{"company":"Ruby Tuesday - Miller Ln.","address":"6425 Miller Ln, Dayton, OH 45414","lat":39.840625,"lng":-84.192187,"bar/restaurant or carry-out":"bar/restaurant"},
{"company":"Seeger's","address":"1001 W Main St, Lebanon, OH 45036","lat":39.434446,"lng":-84.225855,"bar/restaurant or carry-out":"carry-out"},
{"company":"Shell - Clifton","address":"3337 Clifton Ave., Cincinnati, OH 45220","lat":39.14271,"lng":-84.519295,"bar/restaurant or carry-out":"carry-out"},
{"company":"Shell GoCo - 1213 Eastgate","address":"4382 Elick Ln, Batavia, OH 45103","lat":39.090847,"lng":-84.246808,"bar/restaurant or carry-out":"carry-out"},
{"company":"Silverton Cafe","address":"7201-03 Montgomery Rd, Cincinnati, OH 45236","lat":39.193185,"lng":-84.401849,"bar/restaurant or carry-out":"bar/restaurant"},
{"company":"Taste Of Wine","address":"90 S Main St., Miamisburg, OH 45342","lat":39.640206,"lng":-84.289558,"bar/restaurant or carry-out":"bar/restaurant"},
{"company":"The Loft","address":"64 W Main St., Wilmington, OH 45177","lat":39.445145,"lng":-83.829828,"bar/restaurant or carry-out":"bar/restaurant"},
{"company":"The Smokin Ox","address":"12 E Park Place, Oxford, OH 45056","lat":39.511086,"lng":-84.741455,"bar/restaurant or carry-out":"bar/restaurant"},
{"company":"Valero - Englewood","address":"709 S. Main Street, Englewood, OH 45322","lat":39.86762,"lng":-84.291671,"bar/restaurant or carry-out":"carry-out"},
{"company":"Wise Owl ","address":"6206 Muhlhauser Rd., West Chester, OH 45069","lat":39.326002,"lng":-84.427574,"bar/restaurant or carry-out":"bar/restaurant"},
{"company":"20 Brix ","address":"101 Main St., Milford, OH 45150","lat":39.173006,"lng":-84.296392,"bar/restaurant or carry-out":"bar/restaurant"},
{"company":"Action Corner Drive Thru","address":"1601 Germantown Rd., Middletown, OH 45042","lat":39.530054,"lng":-84.383372,"bar/restaurant or carry-out":"carry-out"},
{"company":"Beaver Beverage","address":"3981 Dayton Xenia Rd., Beavercreek, OH 45432","lat":39.736829,"lng":-84.082859,"bar/restaurant or carry-out":"carry-out"},
{"company":"Beverage Dock - Fairborn","address":"868 Kauffman Ave., Fairborn, OH 45324","lat":39.81215,"lng":-84.023361,"bar/restaurant or carry-out":"carry-out"},
{"company":"Beverage Express","address":"3850 Kemp Rd, Beaver Creek, OH 45431","lat":39.756654,"lng":-84.076723,"bar/restaurant or carry-out":"carry-out"},
{"company":"Big Mama's","address":"10 S. Court St., Athens, OH 45701","lat":39.328792,"lng":-82.100891,"bar/restaurant or carry-out":"bar/restaurant"},
{"company":"Canal House","address":"14 S Broad St., Middletown, OH 45042","lat":39.519863,"lng":-84.400347,"bar/restaurant or carry-out":"bar/restaurant"},
{"company":"Double Doors Drive Thru","address":"4601 Linden Ave., Dayton, OH 45432","lat":39.742503,"lng":-84.111078,"bar/restaurant or carry-out":"carry-out"},
{"company":"Grain and Grape","address":"2780 E. Main St., Columbus, OH 43209","lat":39.95717,"lng":-82.924239,"bar/restaurant or carry-out":"carry-out"},
{"company":"Hyde Park Meats","address":"3645 Paxton Ave., Cincinnati, OH 45208","lat":39.142735,"lng":-84.433813,"bar/restaurant or carry-out":"carry-out"},
{"company":"Logan's Road House - Miamisburg","address":"2148 Miamisburg Centerville Rd., Dayton, OH 45459","lat":39.633887,"lng":-84.209947,"bar/restaurant or carry-out":"bar/restaurant"},
{"company":"Maders Market","address":"1730 Troy Rd., Springfield, OH 45504","lat":39.953618,"lng":-83.86417,"bar/restaurant or carry-out":"carry-out"},
{"company":"New Richmond Food Mart","address":"527 Sycamore St., New Richmond, OH 45157","lat":38.955657,"lng":-84.280508,"bar/restaurant or carry-out":"carry-out"},
{"company":"Quarter Bistro ","address":"6904 Wooster Pike, Cincinnati, OH 45227","lat":39.14517,"lng":-84.373097,"bar/restaurant or carry-out":"bar/restaurant"},
{"company":"Shell Woodman","address":"1650 Woodman Dr., Dayton, OH 45432","lat":39.732573,"lng":-84.121495,"bar/restaurant or carry-out":"carry-out"},
{"company":"Sneaky Pete's - Fairfield","address":"3152 Lighthouse Dr., Fairfield, OH 45014","lat":39.325466,"lng":-84.511093,"bar/restaurant or carry-out":"bar/restaurant"},
{"company":"Your Mama's Drive Thru","address":"535 Andover Ave., Hamilton, OH 45311","lat":39.355628,"lng":-84.559407,"bar/restaurant or carry-out":"carry-out"},
{"company":"Jasen Roellig","address":"4650 Lake Forest Drive, Blue Ash, OH 45242","lat":39.255386,"lng":-84.377542,"bar/restaurant or carry-out":"carry-out"},
{"company":"UDF 105 - Clifton","address":"3325 Clifton Ave., Cincinnati, OH 45220","lat":39.142353,"lng":-84.519665,"bar/restaurant or carry-out":"carry-out"},
{"company":"BP - West Chester","address":"9171 Union Center Blvd., West Chester, OH 45069","lat":39.324946,"lng":-84.435062,"bar/restaurant or carry-out":"carry-out"},
{"company":"WOB Beer Fest","address":"3934 Townsfair Way, Columbus, OH 43219","lat":40.049312,"lng":-82.917031,"bar/restaurant or carry-out":"carry-out"},
{"company":"BARLEYCORNS (DIXIE)","address":"8544 US HIGHWAY 42, FLORENCE, KY 41042","lat":38.974105,"lng":-84.662149,"bar/restaurant or carry-out":"bar/restaurant"},
{"company":"BUFFALO WINGS AND RINGS","address":"2809 DIXIE HIGHWAY, CRESTVIEW HILLS, KY 41017","lat":39.02786,"lng":-84.578798,"bar/restaurant or carry-out":"bar/restaurant"},
{"company":"KROGER #466 (G) FLORENCE","address":"7695 MALL RD, FLORENCE, KY 41042","lat":38.998798,"lng":-84.653623,"bar/restaurant or carry-out":"carry-out"},
{"company":"EI8HT BALL BREWING","address":"95 RIVIERA DR, BELLEVUE, KY 41073","lat":39.100226,"lng":-84.4877,"bar/restaurant or carry-out":"bar/restaurant"},
{"company":"ELI'S SPORTS BAR AND GRIL","address":"2440 HIGH STREET, CRESCENT SPRINGS, KY 41017","lat":39.050409,"lng":-84.577662,"bar/restaurant or carry-out":"bar/restaurant"},
{"company":"FAIRWAY WINE & SPIRITS","address":"11059 CLAY DR, WALTON, KY 41094","lat":38.915806,"lng":-84.633459,"bar/restaurant or carry-out":"carry-out"},
{"company":"END OF LINE","address":"1842 ASHWOOD CIRCLE, FORT WRIGHT, KY 41011","lat":39.060265,"lng":-84.541062,"bar/restaurant or carry-out":"bar/restaurant"},
{"company":"WALT'S HITCHING POST","address":"3300 MADISON PIKE, FORT WRIGHT, KY 41017","lat":39.042018,"lng":-84.526498,"bar/restaurant or carry-out":"bar/restaurant"},
{"company":"ROSIE'S TAVERN","address":"643 BAKEWELL ST, COVINGTON, KY 41011","lat":39.082718,"lng":-84.519002,"bar/restaurant or carry-out":"bar/restaurant"},
{"company":"PACKHOUSE","address":"1004 MONMOUTH, NEWPORT, KY 41071","lat":39.086947,"lng":-84.488865,"bar/restaurant or carry-out":"bar/restaurant"},
{"company":"AXIS ALLEY(STAR LANES)","address":"1 LEVEE WAY SUITE 1112, NEWPORT, KY 41071","lat":39.094936,"lng":-84.496022,"bar/restaurant or carry-out":"bar/restaurant"},
{"company":"AMERISTOP FOOD MART 29123","address":"501 LICKING PIKE, WILDER, KY 41071","lat":39.055624,"lng":-84.486136,"bar/restaurant or carry-out":"carry-out"},
{"company":"THE DIXIE CLUB","address":"3424 DIXIE HWY, ERLANGER, KY 41018","lat":39.016943,"lng":-84.600395,"bar/restaurant or carry-out":"bar/restaurant"},
{"company":"WALGREENS MONMOUTH ST","address":"1601 MONMOUTH ST, NEWPORT, KY 41071","lat":39.083865,"lng":-84.482849,"bar/restaurant or carry-out":"carry-out"},
{"company":"ORIENTAL WOK(FT MITCHELL)","address":"317 BUTTERMILK PIKE, FORT MITCHELL, KY 41017","lat":39.042834,"lng":-84.572101,"bar/restaurant or carry-out":"bar/restaurant"},
{"company":"KROGER #366 (G) FLORENCE","address":"7747 MALL RD, FLORENCE, KY  41042","lat":38.996239,"lng":-84.653801,"bar/restaurant or carry-out":"carry-out"},
{"company":"UDF LIMABURG RD BURLINGTO","address":"6066 LIMABURG RD, BURLINGTON, KY 41005","lat":39.01782,"lng":-84.687768,"bar/restaurant or carry-out":"carry-out"},
{"company":"UDF CENTENNIAL BLVD INDEP","address":"2055 CENTENNIAL BLVD, INDEPENDENCE, KY 41051","lat":38.929805,"lng":-84.54138,"bar/restaurant or carry-out":"carry-out"},
{"company":"UDF ALEXANDRIA PIKE","address":"9242 ALEXANDRIA PIKE, ALEXANDRIA, KY 41001","lat":38.940761,"lng":-84.395469,"bar/restaurant or carry-out":"carry-out"},
{"company":"NUVO AT GREENUP","address":"308 GREENUP ST, COVINGTON, KY 41011","lat":39.088542,"lng":-84.507719,"bar/restaurant or carry-out":"bar/restaurant"},
{"company":"BEEF O BRADY'S","address":"1597 CALVARY DR, UNION, KY 41091","lat":38.96604,"lng":-84.671473,"bar/restaurant or carry-out":"bar/restaurant"},
{"company":"METROPOLIAN CLUB","address":"50 E RIVERCENTER BLVD, COVINGTON, KY 41011","lat":39.090342,"lng":-84.510194,"bar/restaurant or carry-out":"bar/restaurant"},
{"company":"ALEXANDRIA PARKVIEW","address":"7901 ALEXANDRIA PIKE, ALEXANDRIA, KY 41001","lat":38.969916,"lng":-84.393048,"bar/restaurant or carry-out":"carry-out"},
{"company":"CHURCHILL LIQUOR STORE","address":"1401-B GRAND AVE, NEWPORT, KY 41071","lat":39.08036,"lng":-84.466719,"bar/restaurant or carry-out":"carry-out"},
{"company":"TOM'S PAPA DINO'S","address":"288 MAIN ST, FLORENCE, KY 41042","lat":39.000159,"lng":-84.627087,"bar/restaurant or carry-out":"bar/restaurant"},
{"company":"1808 American Bistro","address":"29 E Winter St, Delaware, OH 43016","lat":40.300126,"lng":-83.066405,"bar/restaurant or carry-out":"bar/restaurant"},
{"company":"Amato's Pizza","address":"6 S. Sandusky St., Delaware, OH 43015","lat":40.298512,"lng":-83.068152,"bar/restaurant or carry-out":"bar/restaurant"},
{"company":"Local Roots","address":"15 E Olentangy St, Powell, OH 43065","lat":40.157817,"lng":-83.074682,"bar/restaurant or carry-out":"bar/restaurant"},
{"company":"Liberty Tavern","address":"50 S. Liberty St. Ste. 104, Powell, OH 43065","lat":40.156904,"lng":-83.074372,"bar/restaurant or carry-out":"bar/restaurant"},
{"company":"311 Drafthouse","address":"311 N Main St., Piqua, OH 45356","lat":40.149866,"lng":-84.239626,"bar/restaurant or carry-out":"bar/restaurant"},
{"company":"Yabos Tacos - Westerville","address":"7097 State Rt 3, Westerville, OH 43082","lat":40.149649,"lng":-82.922128,"bar/restaurant or carry-out":"bar/restaurant"},
{"company":"Piqua Beverage Center","address":"633 W High ST, Piqua, OH 45356","lat":40.148223,"lng":-84.248179,"bar/restaurant or carry-out":"carry-out"},
{"company":"101 Beer Kitchen","address":"7509 Sawmill Road, Dublin, OH 43016","lat":40.118057,"lng":-83.090417,"bar/restaurant or carry-out":"bar/restaurant"},
{"company":"Pies & Pints","address":"7227 N. High St. Suite 84, Worthington, OH 43085","lat":40.106437,"lng":-83.016977,"bar/restaurant or carry-out":"bar/restaurant"},
{"company":"The Pint Room","address":"4414 W. Dublin-Granville Rd., Dublin, OH 43017","lat":40.099588,"lng":-83.107885,"bar/restaurant or carry-out":"bar/restaurant"},
{"company":"Whole Foods - Columbus","address":"3670 W Dublin Granville Rd, Columbus, OH 43235","lat":40.094918,"lng":-83.087497,"bar/restaurant or carry-out":"carry-out"},
{"company":"My Bar","address":"3534 W. Dublin-Granville Rd., Columbus, OH 43235","lat":40.093301,"lng":-83.084634,"bar/restaurant or carry-out":"bar/restaurant"},
{"company":"House Wine - Worthington","address":"644 High St., Columbus, OH 43085","lat":40.087043,"lng":-83.017486,"bar/restaurant or carry-out":"bar/restaurant"},
{"company":"Natalie's Coal Fired Pizza","address":"5593 N. High St., Worthington, OH 43085","lat":40.077001,"lng":-83.01875,"bar/restaurant or carry-out":"bar/restaurant"},
{"company":"Moe's BBQ","address":"128 Broadway East, Granville, OH 43023","lat":40.067916,"lng":-82.519177,"bar/restaurant or carry-out":"bar/restaurant"},
{"company":"Bob's Bar","address":"4961 N High st, Columbus, OH 43214","lat":40.065097,"lng":-83.019367,"bar/restaurant or carry-out":"bar/restaurant"},
{"company":"West Side Drive Through","address":"2495 W Main St, Troy, OH 45373","lat":40.059802,"lng":-84.248623,"bar/restaurant or carry-out":"carry-out"},
{"company":"Snap Shots","address":"925 River Rd, Granville, OH 43023","lat":40.059549,"lng":-82.518675,"bar/restaurant or carry-out":"bar/restaurant"},
{"company":"Buffalo Wild Wings - Troy","address":"2313 W. Main St., Troy, OH 45373","lat":40.058537,"lng":-84.246724,"bar/restaurant or carry-out":"bar/restaurant"},
{"company":"Hahana Beach ","address":"7605 Wooster Pk, Cincinnati, OH 45244","lat":40.054307,"lng":-82.940775,"bar/restaurant or carry-out":"bar/restaurant"},
{"company":"World of Beer - Easton","address":"3934 Townsfair Way, Columbus, OH 43219","lat":40.049102,"lng":-82.916871,"bar/restaurant or carry-out":"bar/restaurant"},
{"company":"Northstar Cafe- Easton","address":"4015 Townsfair Way, Columbus, OH 43219","lat":40.048994,"lng":-82.914005,"bar/restaurant or carry-out":"bar/restaurant"},
{"company":"Action GBW (Sunoco)","address":"201 Staunton Rd, Troy, OH 45373","lat":40.043281,"lng":-84.196218,"bar/restaurant or carry-out":"carry-out"},
{"company":"Submarine House - Troy","address":"14 N. Market St., Troy, OH 45373","lat":40.04043,"lng":-84.203126,"bar/restaurant or carry-out":"bar/restaurant"},
{"company":"Leaf and Vine","address":"108 W Main St, Troy, OH 45373","lat":40.040169,"lng":-84.204615,"bar/restaurant or carry-out":"bar/restaurant"},
{"company":"Bottle No. 121","address":"121 Public Square NE, Troy, OH 45373","lat":40.039939,"lng":-84.202512,"bar/restaurant or carry-out":"carry-out"},
{"company":"Weilands Market","address":"3600 Indianola Ave., Columbus, OH 43214","lat":40.037374,"lng":-82.999949,"bar/restaurant or carry-out":"carry-out"},
{"company":"One Stop Drive Thru","address":"211 S Market St., Troy, OH 45373","lat":40.03712,"lng":-84.204709,"bar/restaurant or carry-out":"carry-out"},
{"company":"Kroger 914 - Troy","address":"751 West Market Street, Troy, OH 45373","lat":40.030714,"lng":-84.22243,"bar/restaurant or carry-out":"carry-out"},
{"company":"The Daily Growler","address":"2812 Fishinger Road, Upper Arlington, OH 43221","lat":40.030122,"lng":-83.091091,"bar/restaurant or carry-out":"carry-out"},
{"company":"Savor Growl","address":"2991 Indianola Ave, Columbus, OH 43214","lat":40.024733,"lng":-83.001889,"bar/restaurant or carry-out":"carry-out"},
{"company":"Crest Tavern","address":"397 Crestview Rd., Columbus, OH 43202","lat":40.021916,"lng":-83.002212,"bar/restaurant or carry-out":"bar/restaurant"},
{"company":"Kobo","address":"2590 N High Street, Columbus, OH 43202","lat":40.015173,"lng":-83.011108,"bar/restaurant or carry-out":"bar/restaurant"},
{"company":"Scarlet and Grey Cafe","address":"2203 N. High St., Columbus, OH 43201","lat":40.007191,"lng":-83.009582,"bar/restaurant or carry-out":"bar/restaurant"},
{"company":"Whole Foods - Arlington","address":"1555 W. Lane Ave., Upper Arlington, OH 43221","lat":40.007078,"lng":-83.052272,"bar/restaurant or carry-out":"carry-out"},
{"company":"Hang Over Easy","address":"1646 Neil Ave., Columbus, OH 43201","lat":39.99512,"lng":-83.01419,"bar/restaurant or carry-out":"bar/restaurant"},
{"company":"Matt the Miller's - Grandview","address":"1400 Grandview Ave, Columbus, OH 43212","lat":39.985568,"lng":-83.044783,"bar/restaurant or carry-out":"bar/restaurant"},
{"company":"Ohio Tap Room","address":"1291 W Third Ave., Columbus, OH 43212","lat":39.984677,"lng":-83.040096,"bar/restaurant or carry-out":"bar/restaurant"},
{"company":"St. James Tavern","address":"1057 N. 4th St., Columbus, OH 43201","lat":39.984635,"lng":-82.999494,"bar/restaurant or carry-out":"bar/restaurant"},
{"company":"Blacklick Wine","address":"7199 E Broad St, Blacklick, OH 43004","lat":39.983161,"lng":-82.809551,"bar/restaurant or carry-out":"carry-out"},
{"company":"Short North Pint House","address":"780 N. High St., Columbus, OH 43215","lat":39.978303,"lng":-83.00332,"bar/restaurant or carry-out":"bar/restaurant"},
{"company":"Bakersfield - Short North","address":"731-733 N High St., Columbus, OH 43215","lat":39.977356,"lng":-83.003708,"bar/restaurant or carry-out":"bar/restaurant"},
{"company":"Deepwood","address":"511 N High St., Columbus, OH 43215","lat":39.973351,"lng":-83.002808,"bar/restaurant or carry-out":"bar/restaurant"},
{"company":"Park Street Tavern","address":"501 Park St., Columbus, OH 43215","lat":39.97237,"lng":-83.004948,"bar/restaurant or carry-out":"bar/restaurant"},
{"company":"The Barrel and Bottle LLC","address":"59 Spruce St., Columbus, OH 43215","lat":39.972146,"lng":-83.004301,"bar/restaurant or carry-out":"carry-out"},
{"company":"Tip Top","address":"73 E Gay St, Columbus, OH 43215","lat":39.963722,"lng":-82.998774,"bar/restaurant or carry-out":"bar/restaurant"},
{"company":"Corner Stone Craft Beer & Wine","address":"61 Parsons Ave., Columbus, OH 43215","lat":39.962899,"lng":-82.981987,"bar/restaurant or carry-out":"carry-out"},
{"company":"Miami Valley Wine","address":"943 W. Main, Tipp City, OH 45371","lat":39.960886,"lng":-84.184463,"bar/restaurant or carry-out":"carry-out"},
{"company":"16-Bit Bar","address":"254 S 4th St., Columbus, OH 43215","lat":39.957417,"lng":-82.994969,"bar/restaurant or carry-out":"bar/restaurant"},
{"company":"Strongwater","address":"401 W Town St., Columbus, OH 43215","lat":39.957165,"lng":-83.010786,"bar/restaurant or carry-out":"bar/restaurant"},
{"company":"Dirty Frank's - Westgate","address":"2836 W Broad St., Columbus, OH 43204","lat":39.955166,"lng":-83.07613,"bar/restaurant or carry-out":"bar/restaurant"},
{"company":"Jury Room","address":"22 E Mound St, Columbus, OH 43215","lat":39.955023,"lng":-82.998456,"bar/restaurant or carry-out":"bar/restaurant"},
{"company":"World of Beer - Brewery District","address":"503 South Front Street, Columbus, OH 43215","lat":39.951417,"lng":-83.001039,"bar/restaurant or carry-out":"bar/restaurant"},
{"company":"Columbus Brewing Co.","address":"525 Short St., Columbus, OH 43215","lat":39.950766,"lng":-83.003714,"bar/restaurant or carry-out":"bar/restaurant"},
{"company":"West Milton IGA","address":"1177 S. Miami St, West Milton, OH 45383","lat":39.943647,"lng":-84.320657,"bar/restaurant or carry-out":"carry-out"},
{"company":"Red Brick Tavern - Columbus","address":"292 E. Gates, Columbus, OH 43206","lat":39.937661,"lng":-82.987782,"bar/restaurant or carry-out":"bar/restaurant"},
{"company":"Wine Works","address":"1550 Commerce Road, Springfield, OH 45504","lat":39.936427,"lng":-83.835833,"bar/restaurant or carry-out":"carry-out"},
{"company":"Tom's Deli","address":"12389 Milton Carlislie Rd., New Carlislie, OH 45344","lat":39.935258,"lng":-84.043406,"bar/restaurant or carry-out":"bar/restaurant"},
{"company":"Station 1","address":"325 N. Fountain Ave, Springfield, OH 45504","lat":39.928838,"lng":-83.810189,"bar/restaurant or carry-out":"carry-out"},
{"company":"Bunkers","address":"893 E National Rd, Vandalia, OH 45377","lat":39.892453,"lng":-84.180887,"bar/restaurant or carry-out":"bar/restaurant"},
{"company":"Vandalia Carryout","address":"351 E. National Rd., Vandalia, OH 45377","lat":39.89127,"lng":-84.19331,"bar/restaurant or carry-out":"carry-out"},
{"company":"202 Drive Thru","address":"9997 Troy Pike, Huber Heights, OH 45371","lat":39.884712,"lng":-84.136131,"bar/restaurant or carry-out":"carry-out"},
{"company":"TJ Chumps - Englewood","address":"559 S Main St., Englewood, OH 45322","lat":39.869827,"lng":-84.29492,"bar/restaurant or carry-out":"bar/restaurant"},
{"company":"Kroger 938 - Englewood","address":"885 Union Rd, Englewood, OH 45322","lat":39.863625,"lng":-84.313889,"bar/restaurant or carry-out":"carry-out"},
{"company":"Little Store","address":"7325 Peters Pike, Dayton, OH 45414","lat":39.854107,"lng":-84.227525,"bar/restaurant or carry-out":"bar/restaurant"},
{"company":"Village Wine - Canal","address":"10 S High St., Canal Winchester, OH 43110","lat":39.853533,"lng":-82.818773,"bar/restaurant or carry-out":"bar/restaurant"},
{"company":"Miami Valley Wine-Brandt Pike","address":"6565 Brandt Pike, Huber Heights, OH 45424","lat":39.848159,"lng":-84.113306,"bar/restaurant or carry-out":"carry-out"},
{"company":"Liquor & Wine Warehouse","address":"3440 York Commons Blvd., Dayton, OH 45414","lat":39.844633,"lng":-84.196797,"bar/restaurant or carry-out":"carry-out"},
{"company":"Marion Lanes","address":"6170 Brandt Pike, Huber Heights, OH 45434","lat":39.842424,"lng":-84.114098,"bar/restaurant or carry-out":"bar/restaurant"},
{"company":"Scene 75","address":"6196 Poe Ave., Vandalia, OH 45414","lat":39.837343,"lng":-84.187066,"bar/restaurant or carry-out":"bar/restaurant"},
{"company":"Boston's Bistro 2","address":"7500 N Main St., Dayton, OH 45415","lat":39.832997,"lng":-84.25248,"bar/restaurant or carry-out":"bar/restaurant"},
{"company":"Walgreens - Huber Heights","address":"5000 Brandt Pike, Huber Heights, OH 45424","lat":39.825885,"lng":-84.12174,"bar/restaurant or carry-out":"carry-out"},
{"company":"Shakti Petroleum","address":"2 E Dayton St., Fairborn, OH 45324","lat":39.819013,"lng":-84.02104,"bar/restaurant or carry-out":"carry-out"},
{"company":"Peaches Grill","address":"104 Xenia Ave., Yellow Springs, OH 45387","lat":39.807148,"lng":-83.888101,"bar/restaurant or carry-out":"bar/restaurant"},
{"company":"BP - Yellow Springs","address":"4 Xenia Ave, Yellow Springs, OH 45387","lat":39.806381,"lng":-83.888747,"bar/restaurant or carry-out":"carry-out"},
{"company":"Emporium","address":"233 Xenia Ave., Yellow Springs, OH 45387-1832","lat":39.805551,"lng":-83.888996,"bar/restaurant or carry-out":"carry-out"},
{"company":"Main Drive Through","address":"3401 N Main St, Dayton, OH 45405","lat":39.796912,"lng":-84.217507,"bar/restaurant or carry-out":"carry-out"},
{"company":"Air City Beer and Wine","address":"3114 N. Dixie, Dayton, OH 45414","lat":39.793895,"lng":-84.1909,"bar/restaurant or carry-out":"carry-out"},
{"company":"TJ Chumps - Fairborn","address":"1100 E Dayton Yellow-Springs Rd., Fairborn, OH 45324","lat":39.782521,"lng":-83.99923,"bar/restaurant or carry-out":"bar/restaurant"},
{"company":"One Eyed Jack-DAYTON","address":"2638 Colonel Glenn Hwy, Fairborn, OH 45324","lat":39.777971,"lng":-84.054578,"bar/restaurant or carry-out":"bar/restaurant"},
{"company":"Charlie's Import Food & Beer","address":"429 Troy St, Dayton, OH 45404","lat":39.775406,"lng":-84.174971,"bar/restaurant or carry-out":"carry-out"},
{"company":"Cadillac Jack's - Beavercreek","address":"2760 Towne Dr., Beavercreek, OH 45431","lat":39.768605,"lng":-84.050245,"bar/restaurant or carry-out":"bar/restaurant"},
{"company":"Fox & Hound - Beavercreek","address":"2661 Fairfield Commons Blvd., Beavercreek, OH 45431","lat":39.768173,"lng":-84.058959,"bar/restaurant or carry-out":"bar/restaurant"},
{"company":"Spinoza's","address":"2727 Fairfield Commons Blvd, Beavercreek, OH 45431","lat":39.767377,"lng":-84.056717,"bar/restaurant or carry-out":"bar/restaurant"},
{"company":"Smithville Market","address":"5 S Smithville Rd., Dayton, OH 45431","lat":39.765034,"lng":-84.138095,"bar/restaurant or carry-out":"carry-out"},
{"company":"Southern Belle","address":"134 N Patterson Blvd, Dayton, OH 45402","lat":39.763009,"lng":-84.186681,"bar/restaurant or carry-out":"bar/restaurant"},
{"company":"Victoria Theatre Association","address":"138 N Main St., Dayton, OH 45402","lat":39.762146,"lng":-84.191932,"bar/restaurant or carry-out":"bar/restaurant"},
{"company":"Brunings Clock Shop","address":"2476 Commons Blvd, Beaver Creek, OH 45431","lat":39.761398,"lng":-84.055029,"bar/restaurant or carry-out":"carry-out"},
{"company":"MJ's Cafe","address":"119 E Third St., Dayton, OH 45402","lat":39.759972,"lng":-84.189138,"bar/restaurant or carry-out":"bar/restaurant"},
{"company":"Century Bar","address":"10 S Jefferson St, Dayton, OH 45402","lat":39.759556,"lng":-84.189937,"bar/restaurant or carry-out":"bar/restaurant"},
{"company":"5th Street Brew Pub","address":"1600 E 5th St., Dayton, OH 45403","lat":39.758535,"lng":-84.171968,"bar/restaurant or carry-out":"bar/restaurant"},
{"company":"King's Table","address":"2348 Grange Hall Rd, Beavercreek, OH 45431","lat":39.75821,"lng":-84.075215,"bar/restaurant or carry-out":"bar/restaurant"},
{"company":"Blind Bobs","address":"430 E Fifth Street, Dayton, OH 45402","lat":39.75691,"lng":-84.184699,"bar/restaurant or carry-out":"bar/restaurant"},
{"company":"Trolley Stop","address":"530 E 5th St., Dayton, OH 45402","lat":39.756899,"lng":-84.18275,"bar/restaurant or carry-out":"bar/restaurant"},
{"company":"Thai 9","address":"11 Brown St., Dayton, OH 45402","lat":39.75689,"lng":-84.18595,"bar/restaurant or carry-out":"bar/restaurant"},
{"company":"5th St. Wine & Deli","address":"416 E 5th St., Dayton, OH 45402","lat":39.756885,"lng":-84.185155,"bar/restaurant or carry-out":"bar/restaurant"},
{"company":"Lucky's Taproom","address":"520 E. Fifth St., Dayton, OH 45402","lat":39.756814,"lng":-84.182959,"bar/restaurant or carry-out":"bar/restaurant"},
{"company":"Halls Corner Carryout","address":"3851 Kemp Rd, Beavercreek, OH 45431","lat":39.756573,"lng":-84.075863,"bar/restaurant or carry-out":"carry-out"},
{"company":"Milano's - Beavercreek","address":"2260 N. Fairfield Rd., Beavercreek, OH 45431","lat":39.755645,"lng":-84.053285,"bar/restaurant or carry-out":"bar/restaurant"},
{"company":"Cocoa's Bistro","address":"250 Warren Street, Dayton, OH 45402","lat":39.750406,"lng":-84.186697,"bar/restaurant or carry-out":"bar/restaurant"},
{"company":"South Park Tavern","address":"1301 Wayne Ave, Dayton, OH 45410","lat":39.749178,"lng":-84.174352,"bar/restaurant or carry-out":"bar/restaurant"},
{"company":"Taffy's ","address":"123 E Main St, Eaton, OH 45320","lat":39.743526,"lng":-84.635149,"bar/restaurant or carry-out":"bar/restaurant"},
{"company":"Dewey's Pizza - Dayton","address":"131 Jasper St, Dayton, OH 45409","lat":39.741878,"lng":-84.183215,"bar/restaurant or carry-out":"bar/restaurant"},
{"company":"Milano's - UD","address":"1820 Brown St., Dayton, OH 45409","lat":39.734743,"lng":-84.180332,"bar/restaurant or carry-out":"bar/restaurant"},
{"company":"Sunoco U.D.","address":"1927 Brown St, Dayton, OH 45409","lat":39.733763,"lng":-84.180779,"bar/restaurant or carry-out":"carry-out"},
{"company":"Woodman Drive Thru","address":"1624 Woodman Dr., Dayton, OH 45432","lat":39.733482,"lng":-84.121346,"bar/restaurant or carry-out":"carry-out"},
{"company":"Beer Depot","address":"712 Watervielet Avenue, Dayton, OH 45420","lat":39.73153,"lng":-84.141916,"bar/restaurant or carry-out":"bar/restaurant"},
{"company":"Slyders Tavern","address":"836 Watervliet Ave, Dayton, OH 45420","lat":39.730021,"lng":-84.139879,"bar/restaurant or carry-out":"bar/restaurant"},
{"company":"Belmont Party Supply","address":"2621 S.Smithville Rd., Dayton, OH 45420","lat":39.72894,"lng":-84.141302,"bar/restaurant or carry-out":"carry-out"},
{"company":"Kroger 811 - Beavercreek","address":"3195 Dayton-Xenia Rd #500, Beavercreek, OH 45434","lat":39.725853,"lng":-84.054742,"bar/restaurant or carry-out":"carry-out"},
{"company":"Zip Thru Beer & Wine","address":"1404 Patterson Rd., Dayton, OH 45420","lat":39.723277,"lng":-84.141598,"bar/restaurant or carry-out":"carry-out"},
{"company":"Beef O'Brady's - Beavercreek","address":"3347 SeaJay Dr., Beavercreek, OH 45430","lat":39.72058,"lng":-84.064208,"bar/restaurant or carry-out":"bar/restaurant"},
{"company":"Dorothy Lane - Oakwood","address":"2710 Far Hills Ave., Dayton, OH 45419","lat":39.706466,"lng":-84.17059,"bar/restaurant or carry-out":"carry-out"},
{"company":"Arrow - Oakwood","address":"2950 Far Hills Ave., Dayton, OH 45419","lat":39.704977,"lng":-84.170057,"bar/restaurant or carry-out":"carry-out"},
{"company":"Handy One","address":"3105 E. Dorothy Lane, Kettering, OH 45420","lat":39.69766,"lng":-84.107254,"bar/restaurant or carry-out":"carry-out"},
{"company":"Pub, The - Dayton","address":"39 Greene Blvd., Beavercreek, OH 45440","lat":39.695083,"lng":-84.102795,"bar/restaurant or carry-out":"bar/restaurant"},
{"company":"Beer Barn","address":"4017 Indian Ripple Rd., Dayton, OH 45440","lat":39.694885,"lng":-84.085596,"bar/restaurant or carry-out":"carry-out"},
{"company":"Crazy Mango","address":"81 Magnolia Lane, Beavercreek, OH 45440","lat":39.693657,"lng":-84.100252,"bar/restaurant or carry-out":"bar/restaurant"},
{"company":"Shell - Shroyer Rd.","address":"3960 Far Hills Ave., Kettering, OH 45429","lat":39.690017,"lng":-84.168326,"bar/restaurant or carry-out":"carry-out"},
{"company":"Kroger 826 - Kettering","address":"530 E Stroop Rd, Dayton, OH 45429","lat":39.689339,"lng":-84.162393,"bar/restaurant or carry-out":"carry-out"},
{"company":"Marathon - Stroop","address":"1890 E. Stroop Rd., Kettering, OH 45429","lat":39.688461,"lng":-84.130891,"bar/restaurant or carry-out":"carry-out"},
{"company":"Trader Joe's-673-Dayton","address":"328 E. Stroop Rd., Kettering, OH 45429","lat":39.688436,"lng":-84.166278,"bar/restaurant or carry-out":"carry-out"},
{"company":"Honk-N-Hollar","address":"649 N. Detroit St. Hwy 68, Xenia, OH 45385","lat":39.684782,"lng":-83.929653,"bar/restaurant or carry-out":"carry-out"},
{"company":"Xenia Liquors","address":"623 W 2nd St., Xenia, OH 45385","lat":39.682788,"lng":-83.939764,"bar/restaurant or carry-out":"carry-out"},
{"company":"Market, The","address":"4726 Wilmington Pike, Dayton, OH 45440","lat":39.674711,"lng":-84.116191,"bar/restaurant or carry-out":"carry-out"},
{"company":"Grapes Wine & Beer - Moraine","address":"2653 West Alex-Bell Rd., Moraine, OH 45459","lat":39.673011,"lng":-84.21533,"bar/restaurant or carry-out":"carry-out"},
{"company":"Chappy's Tap Room","address":"2733 W. Alex-Bell Rd., Dayton, OH 45449","lat":39.672723,"lng":-84.217215,"bar/restaurant or carry-out":"bar/restaurant"},
{"company":"South Side Drive Thru","address":"337 W Central Ave, West Carrolton, OH 45442","lat":39.66968,"lng":-84.257722,"bar/restaurant or carry-out":"carry-out"},
{"company":"SpeedZone","address":"1983 Bellbrook Ave, Xenia, OH 45385","lat":39.665858,"lng":-83.961292,"bar/restaurant or carry-out":"carry-out"},
{"company":"Bee Gee's","address":"5995 Bigger Rd., Kettering, OH 45440","lat":39.658326,"lng":-84.127424,"bar/restaurant or carry-out":"bar/restaurant"},
{"company":"Dorothy Lane - Washington Sq.","address":"6177 Far Hills Ave., Dayton, OH 45459","lat":39.655748,"lng":-84.157286,"bar/restaurant or carry-out":"carry-out"},
{"company":"Fine Wine & True Spirits","address":"6080 Wilmington Pike, Dayton, OH 45459","lat":39.652492,"lng":-84.109881,"bar/restaurant or carry-out":"carry-out"},
{"company":"Ameristop - West Carrollton","address":"1903 S Alex Rd., West Carrollton, OH 45449","lat":39.647897,"lng":-84.242972,"bar/restaurant or carry-out":"carry-out"},
{"company":"Cadillac Jacks of Centerville Inc","address":"9400 Springboro Pike, Centerville, OH 45449","lat":39.645218,"lng":-84.224515,"bar/restaurant or carry-out":"carry-out"},
{"company":"Double Days - Centerville","address":"199 E Alex Bell Rd., Centerville, OH 45459","lat":39.644202,"lng":-84.150893,"bar/restaurant or carry-out":"bar/restaurant"},
{"company":"Bullwinkle's","address":"19 N Main st, Miamisburg, OH 45342","lat":39.642449,"lng":-84.28932,"bar/restaurant or carry-out":"bar/restaurant"},
{"company":"Marathon - Kremer","address":"3579 Miamisburg Centerville Rd., West Carrollton, OH 45449","lat":39.641175,"lng":-84.235703,"bar/restaurant or carry-out":"carry-out"},
{"company":"Charlie's Good Time","address":"61 S Main St., Miamisburg, OH 45342","lat":39.640592,"lng":-84.289992,"bar/restaurant or carry-out":"bar/restaurant"},
{"company":"Oddhouse","address":"1268 E. Central Ave., Miamisburg, OH 45342","lat":39.640311,"lng":-84.265648,"bar/restaurant or carry-out":"carry-out"},
{"company":"TJ Chumps - Miamisburg","address":"12 E Linden Ave., Miamisburg, OH 45342","lat":39.63989,"lng":-84.289255,"bar/restaurant or carry-out":"bar/restaurant"},
{"company":"Roosters - Miamisburg","address":"103 N. Springboro Pk., Miamisburg, OH 45449","lat":39.639657,"lng":-84.22562,"bar/restaurant or carry-out":"bar/restaurant"},
{"company":"Marathon - Bellbrook","address":"4491 State Route 725, Bellbrook, OH 45305","lat":39.63795,"lng":-84.110935,"bar/restaurant or carry-out":"carry-out"},
{"company":"Dot's Market--3 COPIES","address":"118 W. Franklin St, Bellbrook, OH 45305","lat":39.637908,"lng":-84.074658,"bar/restaurant or carry-out":"carry-out"},
{"company":"Rusty Bucket - Miami Twp","address":"2812 Miamisburg Centerville Rd., Dayton, OH 45459","lat":39.637245,"lng":-84.22205,"bar/restaurant or carry-out":"bar/restaurant"},
{"company":"Buffalo Wings and Rings Centerville","address":"94 S. MAIN STREET, Centerville, OH 45459","lat":39.630856,"lng":-84.158311,"bar/restaurant or carry-out":"bar/restaurant"},
{"company":"Arrow - 725","address":"615 Lyons Rd., Dayton, OH 45459","lat":39.63076,"lng":-84.188835,"bar/restaurant or carry-out":"carry-out"},
{"company":"Beverage Palace","address":"8980 Kingsridge Dr., Dayton, OH 45458","lat":39.629852,"lng":-84.224124,"bar/restaurant or carry-out":"carry-out"},
{"company":"Rue Dumaine","address":"1061 Miamisburg Centerville Rd, Dayton, OH 45459","lat":39.628809,"lng":-84.189493,"bar/restaurant or carry-out":"bar/restaurant"},
{"company":"Centerville Carryout","address":"34 W. Franklin St., Centerville, OH 45459","lat":39.628354,"lng":-84.160217,"bar/restaurant or carry-out":"carry-out"},
{"company":"Pour House- Centerville","address":"536 Centerville Miamisburg Rd, Centerville, OH 45459","lat":39.627825,"lng":-84.17344,"bar/restaurant or carry-out":"bar/restaurant"},
{"company":"Shell - Centerville","address":"899 S Main St., Centerville, OH 45458","lat":39.613584,"lng":-84.16029,"bar/restaurant or carry-out":"carry-out"},
{"company":"Milano's - Miamisburg","address":"9572 Springboro Pike, Miamisburg, OH 45342","lat":39.611373,"lng":-84.227094,"bar/restaurant or carry-out":"bar/restaurant"},
{"company":"Beef O'Brady's - Centerville","address":"953 S. Main St, Centerville, OH 45458","lat":39.610655,"lng":-84.163302,"bar/restaurant or carry-out":"bar/restaurant"},
{"company":"Kroger 923 - Centerville","address":"1095 S. Main St., Centerville, OH 45458","lat":39.608796,"lng":-84.161185,"bar/restaurant or carry-out":"carry-out"},
{"company":"Archers Tavern","address":"9496 Dayton-Lebanon Pike, Centerville, OH 45458","lat":39.606483,"lng":-84.160171,"bar/restaurant or carry-out":"bar/restaurant"},
{"company":"BJ's - Dayton","address":"10563 Innovation Dr., Miamisburg, OH 45342","lat":39.602958,"lng":-84.231835,"bar/restaurant or carry-out":"bar/restaurant"},
{"company":"Kroger 722 - Austin Landing","address":"10101 Landing Way, Miamisburg, OH 45342","lat":39.600829,"lng":-84.231405,"bar/restaurant or carry-out":"carry-out"},
{"company":"Zip in","address":"9216 Dayton-Oxford Rd., Carlisle, OH 45005","lat":39.588088,"lng":-84.295796,"bar/restaurant or carry-out":"carry-out"},
{"company":"Carlisle Food Mart","address":"801 Central Avenue, Carlisle, OH 45005","lat":39.584328,"lng":-84.32606,"bar/restaurant or carry-out":"carry-out"},
{"company":"Dorothy Lane - Springboro","address":"740 N. Main St., Springboro, OH 45066","lat":39.577003,"lng":-84.230861,"bar/restaurant or carry-out":"carry-out"},
{"company":"Springboro Wine and Spirits","address":"281 W Central Ave, Springboro, OH 45066","lat":39.559005,"lng":-84.241128,"bar/restaurant or carry-out":"carry-out"},
{"company":"TRIPLE CROWN COUNTRY CLUB","address":"1 Triple Crown Cir, Springboro, OH 45066","lat":39.555859,"lng":-84.222501,"bar/restaurant or carry-out":"bar/restaurant"},
{"company":"Heathers","address":"505 South Main Street, Springboro, OH 45066","lat":39.551098,"lng":-84.23399,"bar/restaurant or carry-out":"bar/restaurant"},
{"company":"B & B Carryout","address":"2028 E State Route 73, Waynesville, OH 45068","lat":39.546916,"lng":-84.156125,"bar/restaurant or carry-out":"carry-out"},
{"company":"Gameday Grill and Patio","address":"7576 n. state rt. 48, Waynesville, OH 45068","lat":39.546436,"lng":-84.165935,"bar/restaurant or carry-out":"bar/restaurant"},
{"company":"Stone House Tavern","address":"258 S. Main Street, Waynesville, OH 45068","lat":39.527661,"lng":-84.087628,"bar/restaurant or carry-out":"bar/restaurant"},
{"company":"Marion's Grand Slam Drive Thru","address":"249 Middletown Eaton Rd., Middletown, OH 45042","lat":39.522325,"lng":-84.416057,"bar/restaurant or carry-out":"carry-out"},
{"company":"Little Chicago ","address":"402 Clark St., Middletown, OH 45044","lat":39.519229,"lng":-84.396979,"bar/restaurant or carry-out":"bar/restaurant"},
{"company":"At The Square ","address":"1045 Central Ave., Middletown, OH 45042","lat":39.51662,"lng":-84.403821,"bar/restaurant or carry-out":"bar/restaurant"},
{"company":"Murphey's Landing ","address":"1054 Central Ave., Middletown, OH 45044","lat":39.516206,"lng":-84.403826,"bar/restaurant or carry-out":"bar/restaurant"},
{"company":"Johnny's Campus Deli ","address":"209 E. Sycamore St, Oxford, OH 45056","lat":39.515061,"lng":-84.738891,"bar/restaurant or carry-out":"carry-out"},
{"company":"Ameristop-Liberty Twp","address":"6583 Cin-Day Rd., Middletown, OH 45044","lat":39.515058,"lng":-84.398276,"bar/restaurant or carry-out":"carry-out"},
{"company":"Four Bridges Country Club","address":"8300 Four Bridges Clubhouse, Middletown, OH 45044","lat":39.515058,"lng":-84.398276,"bar/restaurant or carry-out":"bar/restaurant"},
{"company":"Quarter Barrel ","address":"107 E. Church St., Oxford, OH 45056","lat":39.511311,"lng":-84.740336,"bar/restaurant or carry-out":"bar/restaurant"},
{"company":"O Pub ","address":"10 W. Park Pl., Oxford, OH 45056","lat":39.510917,"lng":-84.743365,"bar/restaurant or carry-out":"bar/restaurant"},
{"company":"Shaddocks Market","address":"4713 Central Ave., Middletown, OH 45042","lat":39.5105,"lng":-84.344706,"bar/restaurant or carry-out":"carry-out"},
{"company":"U-Shop","address":"21 E .High St., Oxford, OH 45056","lat":39.510249,"lng":-84.741718,"bar/restaurant or carry-out":"carry-out"},
{"company":"Stella 12 ","address":"12 S Beech St, Oxford, OH 45056","lat":39.510056,"lng":-84.744295,"bar/restaurant or carry-out":"bar/restaurant"},
{"company":"Main St. Gourmet ","address":"9 S. Main St., Oxford, OH 45056","lat":39.510054,"lng":-84.742143,"bar/restaurant or carry-out":"bar/restaurant"},
{"company":"Oxford Spirits","address":"21 Lynn Ave., Oxford, OH 45056","lat":39.509831,"lng":-84.749949,"bar/restaurant or carry-out":"carry-out"},
{"company":"Moon Market","address":"512-516 S. Locust St., Oxford, OH 45056","lat":39.505103,"lng":-84.749434,"bar/restaurant or carry-out":"carry-out"},
{"company":"Middletown Fine Wine and Spirits","address":"721 Breiel Blvd., Middletown, OH 45044","lat":39.502725,"lng":-84.354741,"bar/restaurant or carry-out":"carry-out"},
{"company":"Kroger 441 - Towne Blvd","address":"3420 Towne Blvd, Middletown, OH 45005","lat":39.495227,"lng":-84.327808,"bar/restaurant or carry-out":"carry-out"},
{"company":"Sunoco - Middletown","address":"2401 Cincinnati-Dayton Rd., Middletown, OH 45044","lat":39.488409,"lng":-84.338884,"bar/restaurant or carry-out":"carry-out"},
{"company":"Todd's IGA Express","address":"313 W. State St., Trenton, OH 45067","lat":39.480946,"lng":-84.46248,"bar/restaurant or carry-out":"carry-out"},
{"company":"Kroger 447 - Lebanon","address":"1425 Columbus Ave, Lebanon, OH 45036","lat":39.454066,"lng":-84.181759,"bar/restaurant or carry-out":"carry-out"},
{"company":"Kroger 336 - Monroe","address":"3033 Heritage Green Dr, Monroe, OH 45050","lat":39.442801,"lng":-84.37775,"bar/restaurant or carry-out":"carry-out"},
{"company":"Village Wine Cellars ","address":"42 E Mulberry St, Lebanon, OH 45036","lat":39.434475,"lng":-84.207238,"bar/restaurant or carry-out":"bar/restaurant"},
{"company":"Golden Lamb ","address":"27-31 S Broadway St, Lebanon, OH 45036","lat":39.433807,"lng":-84.208809,"bar/restaurant or carry-out":"bar/restaurant"},
{"company":"Ameristop - Lebanon","address":"304 E Main St., Lebanon, OH 45036","lat":39.433257,"lng":-84.203716,"bar/restaurant or carry-out":"carry-out"},
{"company":"Ole Friends","address":"549 E Main St., Lebanon, OH 45036","lat":39.432195,"lng":-84.195533,"bar/restaurant or carry-out":"bar/restaurant"},
{"company":"Noonan's Party Supply","address":"1350 Main Street, Hamilton, OH 45013","lat":39.421409,"lng":-84.590581,"bar/restaurant or carry-out":"carry-out"},
{"company":"Wine Guys - Bridgewater ","address":"3371 Princeton Rd., Hamilton, OH 45011","lat":39.390572,"lng":-84.503671,"bar/restaurant or carry-out":"bar/restaurant"},
{"company":"Kroger 934 - Erie Blvd","address":"1450 S Erie Blvd, Hamilton, OH 45011","lat":39.381235,"lng":-84.54968,"bar/restaurant or carry-out":"carry-out"},
{"company":"Kroger 383 - Middletown","address":"7300 Yankee Rd, Middletown, OH 45044","lat":39.376862,"lng":-84.376381,"bar/restaurant or carry-out":"carry-out"},
{"company":"Minnick's Drive Thru","address":"2537 Pleasant Ave., Hamilton, OH 45015","lat":39.371051,"lng":-84.557757,"bar/restaurant or carry-out":"carry-out"},
{"company":"Kisers BBQ","address":"11309 Jackson Dr., The Plains, OH 45780","lat":39.364208,"lng":-82.117717,"bar/restaurant or carry-out":"bar/restaurant"},
{"company":"Wildflower Café ","address":"207 East Main St, Mason, OH 45040","lat":39.361364,"lng":-84.305635,"bar/restaurant or carry-out":"bar/restaurant"},
{"company":"Straights of Malacca","address":"202 W Main St., Mason, OH 45040","lat":39.360579,"lng":-84.310747,"bar/restaurant or carry-out":"bar/restaurant"},
{"company":"Kroger 448 - Mason","address":"5100 Terra Firma Dr Store#448, Mason, OH 45040","lat":39.360059,"lng":-84.309939,"bar/restaurant or carry-out":"carry-out"},
{"company":"Lou's Beverage","address":"740 Reading Rd. (Rt. 42), Mason, OH 45040","lat":39.360059,"lng":-84.309939,"bar/restaurant or carry-out":"carry-out"},
{"company":"Banana Leaf Modern Thai ","address":"101 E Main St., Mason, OH 45040","lat":39.359632,"lng":-84.308732,"bar/restaurant or carry-out":"bar/restaurant"},
{"company":"Kroger 426 - ST RT 741","address":"5210 State Route 741, Mason, OH 45040","lat":39.358538,"lng":-84.278144,"bar/restaurant or carry-out":"carry-out"},
{"company":"Ameristop Kings Mills","address":"5542 State Route 741, Mason, OH 45040","lat":39.357905,"lng":-84.268198,"bar/restaurant or carry-out":"carry-out"},
{"company":"Old Bag of Nails Pub - Mason ","address":"5234 Kings Mills Rd., Mason, OH 45040","lat":39.356619,"lng":-84.280387,"bar/restaurant or carry-out":"bar/restaurant"},
{"company":"Thirsty's Oasis ","address":"5589 S SR 741, Mason, OH 45040","lat":39.356115,"lng":-84.267216,"bar/restaurant or carry-out":"bar/restaurant"},
{"company":"Dewey's Pizza - West Chester ","address":"7663 Cox Lane, West Chester, OH 45069","lat":39.355009,"lng":-84.365888,"bar/restaurant or carry-out":"bar/restaurant"},
{"company":"TGI Friday's - Cox Ln. ","address":"7656 Cox Lane, West Chester, OH 45069","lat":39.355009,"lng":-84.365888,"bar/restaurant or carry-out":"bar/restaurant"},
{"company":"Uncorked at the Spicy Olive ","address":"7671 Cox Ln. Unit A, West Chester, OH 45069","lat":39.355009,"lng":-84.365888,"bar/restaurant or carry-out":"bar/restaurant"},
{"company":"Milano's - West Chester ","address":"7701 Voice of America Centre Dr., West Chester, OH 45069","lat":39.353307,"lng":-84.361798,"bar/restaurant or carry-out":"bar/restaurant"},
{"company":"Nonu, Inc. - The Wine List","address":"7753 Tylersville Rd., West Chester, OH 45069","lat":39.353111,"lng":-84.36666,"bar/restaurant or carry-out":"carry-out"},
{"company":"Beckett Wine and Liquor","address":"8212 Princeton-Glendale Rd., West Chester, OH 45069","lat":39.353092,"lng":-84.461179,"bar/restaurant or carry-out":"carry-out"},
{"company":"Kroger 945 - West Chester","address":"7855 Tylersville Rd, West Chester, OH 45069","lat":39.352635,"lng":-84.362968,"bar/restaurant or carry-out":"carry-out"},
{"company":"West Chester Food Mart - Marathon","address":"7363 Kingsgate Way, West Chester, OH 45069","lat":39.352436,"lng":-84.370381,"bar/restaurant or carry-out":"carry-out"},
{"company":"Brazenhead - Tylersville ","address":"5650 Tylersville Rd, Mason, OH 45040","lat":39.352126,"lng":-84.32263,"bar/restaurant or carry-out":"bar/restaurant"},
{"company":"Riversbend Wine & Spirits","address":"6052 S. State Route 48, Maineville, OH 45039","lat":39.35158,"lng":-84.219068,"bar/restaurant or carry-out":"carry-out"},
{"company":"Lucky Dog Grille ","address":"729 Reading Rd., Mason, OH 45040","lat":39.351473,"lng":-84.322536,"bar/restaurant or carry-out":"bar/restaurant"},
{"company":"Troy's Cafe & Catering ","address":"4877 Smith Rd, West Chester, OH 45069","lat":39.35102,"lng":-84.453735,"bar/restaurant or carry-out":"bar/restaurant"},
{"company":"Champps Restaurant - West Chester ","address":"9424 Civic Centre Blvd., West Chester, OH 45069","lat":39.350886,"lng":-84.419067,"bar/restaurant or carry-out":"bar/restaurant"},
{"company":"Red Robin - West Chester ","address":"9434 Civic Center Blvd., West Chester, OH 45069","lat":39.350886,"lng":-84.419067,"bar/restaurant or carry-out":"bar/restaurant"},
{"company":"Great Wolf Lodge","address":"2501 Great Wolf Dr., Mason, OH 45040","lat":39.350639,"lng":-84.263884,"bar/restaurant or carry-out":"bar/restaurant"},
{"company":"Marathon - Mason","address":"6391 Reading Rd., Mason, OH 45040","lat":39.346827,"lng":-84.329933,"bar/restaurant or carry-out":"carry-out"},
{"company":"Maineville Shell","address":"34 Grandin Rd., Maineville, OH 45039","lat":39.346247,"lng":-84.219531,"bar/restaurant or carry-out":"carry-out"},
{"company":"Marathon - West Chester","address":"7809 Cin-Day Rd, West Chester, OH 45069","lat":39.341965,"lng":-84.406761,"bar/restaurant or carry-out":"carry-out"},
{"company":"Jungle Jim's Fairfield","address":"5440 Dixie Hwy., Fairfield, OH 45014","lat":39.335751,"lng":-84.524303,"bar/restaurant or carry-out":"carry-out"},
{"company":"Buffalo Wings and Rings - Fairfield ","address":"5486 Dixie HWY, Fairfield, OH 45014","lat":39.334236,"lng":-84.52472,"bar/restaurant or carry-out":"bar/restaurant"},
{"company":"The Junction","address":"41 N. Court St., Athens, OH 44256","lat":39.330528,"lng":-82.101085,"bar/restaurant or carry-out":"carry-out"},
{"company":"Dingle House ","address":"9102 Union Center Blvd, West Chester, OH 45069","lat":39.327803,"lng":-84.435271,"bar/restaurant or carry-out":"bar/restaurant"},
{"company":"Jackie O's","address":"24 W Union St, Athens, OH 45701","lat":39.327617,"lng":-82.102377,"bar/restaurant or carry-out":"bar/restaurant"},
{"company":"Stone Creek Dining - West Chester ","address":"6200 Muhlhauser Rd, West Chester, OH 45069","lat":39.325654,"lng":-84.427367,"bar/restaurant or carry-out":"bar/restaurant"},
{"company":"Buffalo Wild Wings - West Chester ","address":"9243 Schulze Dr., West Chester, OH 45069","lat":39.322514,"lng":-84.427959,"bar/restaurant or carry-out":"bar/restaurant"},
{"company":"Larry's Food Mart - Stephenson Oil Company","address":"3920 Wade Mill Rd., Hamilton, OH 45014","lat":39.320789,"lng":-84.639634,"bar/restaurant or carry-out":"carry-out"},
{"company":"Cincinnati Marriott North","address":"6189 Mulhauser Rd., West Chester, OH 45069","lat":39.320615,"lng":-84.43034,"bar/restaurant or carry-out":"bar/restaurant"},
{"company":"Louie's Tap House & Grill ","address":"8267 Arbor Square Dr, Mason, OH 45040","lat":39.318677,"lng":-84.314101,"bar/restaurant or carry-out":"bar/restaurant"},