[{"company":"Belterra Park","address":"6301 Kellogg Ave., Cincinnati, OH 45230","lat":39.051779,"lng":-84.412849,"bar/restaurant or carry-out":"bar/restaurant"},
{"company":"Aronoff Center","address":"650 Walnut St., Cincinnati, OH 45202","lat":39.103546,"lng":-84.511721,"bar/restaurant or carry-out":"bar/restaurant"},
{"company":"Fresh Market 075 - Kenwood","address":"7888 Montgomery Rd., Cincinnati, OH 45236","lat":39.199674,"lng":-84.37708,"bar/restaurant or carry-out":"carry-out"},
{"company":"A Tavola - Madeira","address":"7022 Miami Ave., Cincinnati, OH 45243","lat":39.188992,"lng":-84.362865,"bar/restaurant or carry-out":"bar/restaurant"},
{"company":"HalfCut","address":"1128 Walnut St., Cincinnati, OH 45202","lat":39.108335,"lng":-84.513099,"bar/restaurant or carry-out":"bar/restaurant"},
{"company":"Fresh Market 079 - Oakley","address":"3088 Madison Rd., Cincinnati, OH 45209","lat":39.152773,"lng":-84.430718,"bar/restaurant or carry-out":"carry-out"},
{"company":"Crave - Cincinnati","address":"175 Joe Nuxhall Way, Cincinnati, OH 45202","lat":39.09819,"lng":-84.508897,"bar/restaurant or carry-out":"bar/restaurant"},
{"company":"Listermann Oktoberfest","address":"1621 Dana Ave., Cincinnati, OH 45207","lat":39.145628,"lng":-84.47405,"bar/restaurant or carry-out":"carry-out"},
{"company":"Brews Cafe","address":"116 E. Broadway St., Granville, OH 43023","lat":40.069691,"lng":-82.541568,"bar/restaurant or carry-out":"bar/restaurant"},
{"company":"Brewery District Community Urban Redevelopment Cor","address":"1619 Moore St., Cincinnati, OH 45202","lat":39.113341,"lng":-84.515148,"bar/restaurant or carry-out":"carry-out"},
{"company":"Indian Hill Winter Club","address":"10005 Fletcher Rd., Camp Dennison, OH 45111","lat":39.210547,"lng":-84.291286,"bar/restaurant or carry-out":"bar/restaurant"},
{"company":"Liberty Tavern","address":"50 S. Liberty St. Ste. 104, Powell, OH 43065","lat":40.156904,"lng":-83.074372,"bar/restaurant or carry-out":"bar/restaurant"},
{"company":"Local Bar","address":"913 N. High St., Columbus, OH 43201","lat":39.981202,"lng":-83.004992,"bar/restaurant or carry-out":"bar/restaurant"},
{"company":"BJ's - Polaris","address":"1414 Polaris Parkway, Columbus, OH 43240","lat":40.141421,"lng":-82.98022,"bar/restaurant or carry-out":"bar/restaurant"},
{"company":"16-Bit Bar","address":"254 S 4th St., Columbus, OH 43215","lat":39.957417,"lng":-82.994969,"bar/restaurant or carry-out":"bar/restaurant"},
{"company":"1808 American Bistro","address":"29 E Winter St, Delaware, OH 43016","lat":40.300126,"lng":-83.066405,"bar/restaurant or carry-out":"bar/restaurant"},
{"company":"3 Legged Mare","address":"401 N. Front Suite 150, Columbus, OH 43215","lat":39.969785,"lng":-83.004396,"bar/restaurant or carry-out":"bar/restaurant"},
{"company":"Bakersfield - Short North","address":"731-733 N High St., Columbus, OH 43215","lat":39.977356,"lng":-83.003708,"bar/restaurant or carry-out":"bar/restaurant"},
{"company":"Brazenhead - Dublin","address":"56 N.High St., Dublin, OH 43017","lat":40.100685,"lng":-83.1136,"bar/restaurant or carry-out":"bar/restaurant"},
{"company":"Butterbee's - Beechmont","address":"4022 Mt. Carmel Tobasco Rd., Cincinnati, OH 45255","lat":39.070433,"lng":-84.301885,"bar/restaurant or carry-out":"bar/restaurant"},
{"company":"Dirty Frank's - Westgate","address":"2836 W Broad St., Columbus, OH 43204","lat":39.955166,"lng":-83.07613,"bar/restaurant or carry-out":"bar/restaurant"},
{"company":"Ethyl & Tank","address":"19 E 13th Ave, Columbus, OH 43201","lat":39.997827,"lng":-83.00694,"bar/restaurant or carry-out":"bar/restaurant"},
{"company":"Hyde Park Country Club","address":"3740 Erie Ave., Cincinnati, OH 45208","lat":39.145175,"lng":-84.414215,"bar/restaurant or carry-out":"bar/restaurant"},
{"company":"Local Roots","address":"15 E Olentangy St, Powell, OH 43065","lat":40.157817,"lng":-83.074682,"bar/restaurant or carry-out":"bar/restaurant"},
{"company":"Matt the Millers - Dublin","address":"6725 Avery-Muirfield Dr, Dublin, OH 43017","lat":40.110139,"lng":-83.158777,"bar/restaurant or carry-out":"bar/restaurant"},
{"company":"Pub, The - Dayton","address":"39 Greene Blvd., Beavercreek, OH 45440","lat":39.695083,"lng":-84.102795,"bar/restaurant or carry-out":"bar/restaurant"},
{"company":"TGI Friday's - Cox Ln. ","address":"7656 Cox Lane, West Chester, OH 45069","lat":39.355009,"lng":-84.365888,"bar/restaurant or carry-out":"bar/restaurant"},
{"company":"The Pint Room","address":"4414 W. Dublin-Granville Rd., Dublin, OH 43017","lat":40.099588,"lng":-83.107885,"bar/restaurant or carry-out":"bar/restaurant"},
{"company":"Tip Top","address":"73 E Gay St, Columbus, OH 43215","lat":39.963722,"lng":-82.998774,"bar/restaurant or carry-out":"bar/restaurant"},
{"company":"Short North Pint House","address":"780 N. High St., Columbus, OH 43215","lat":39.978303,"lng":-83.00332,"bar/restaurant or carry-out":"bar/restaurant"},
{"company":"Remke - Harrison","address":"10501 New Haven Rd., Harrison, OH 45030","lat":39.258782,"lng":-84.794182,"bar/restaurant or carry-out":"carry-out"},
{"company":"Helping Hands Center for Special Needs","address":"250 Medary Ave., Columbus, OH 43202","lat":40.016523,"lng":-83.005602,"bar/restaurant or carry-out":"carry-out"},
{"company":"House Beer","address":"843 N. High St., Columbus, OH 43215","lat":39.979572,"lng":-83.004187,"bar/restaurant or carry-out":"carry-out"},
{"company":"Roosters - Miamisburg","address":"103 N. Springboro Pk., Miamisburg, OH 45449","lat":39.639657,"lng":-84.22562,"bar/restaurant or carry-out":"bar/restaurant"},
{"company":"Whole Foods - Arlington","address":"1555 W. Lane Ave., Upper Arlington, OH 43221","lat":40.007078,"lng":-83.052272,"bar/restaurant or carry-out":"carry-out"},
{"company":"Cincinnatian ","address":"601 Vine St., Cincinnati, OH 45202","lat":39.102654,"lng":-84.513887,"bar/restaurant or carry-out":"bar/restaurant"},
{"company":"Gallo's Tap Room","address":"5019 Olentangy-River Rd, Columbus, OH 43214","lat":40.062792,"lng":-83.037369,"bar/restaurant or carry-out":"bar/restaurant"},
{"company":"The Draft Bar and Grille ","address":"7029 Yankee Rd., Liberty Township, OH 45044","lat":39.37689,"lng":-84.381402,"bar/restaurant or carry-out":"bar/restaurant"},
{"company":"Presidents Room","address":"812 Race St., Cincinnati, OH 45202","lat":39.105042,"lng":-84.515366,"bar/restaurant or carry-out":"bar/restaurant"},
{"company":"Duebbers Marathon","address":"6095 Cleves Warsaw Pike, Delhi, OH 45233","lat":39.118948,"lng":-84.651987,"bar/restaurant or carry-out":"carry-out"},
{"company":"AleHouse","address":"1671 N 21st St., Newark, OH 43055","lat":40.09365,"lng":-82.427425,"bar/restaurant or carry-out":"bar/restaurant"},
{"company":"Barley Hopster's","address":"1 N. Sandusky St., Delaware, OH 43015","lat":40.298983,"lng":-83.06811,"bar/restaurant or carry-out":"bar/restaurant"},
{"company":"Boswells ","address":"1686 Blue Rock St., Cincinnati, OH 45233","lat":39.160784,"lng":-84.543425,"bar/restaurant or carry-out":"bar/restaurant"},
{"company":"Cincinnati Country Club ","address":"2348 Grandin Rd, Cincinnati, OH 45208","lat":39.131603,"lng":-84.450253,"bar/restaurant or carry-out":"bar/restaurant"},
{"company":"Joe's Original - Lewis Center","address":"6477 Pullman Drive, Lewis Center, OH 43035","lat":40.201734,"lng":-83.026664,"bar/restaurant or carry-out":"bar/restaurant"},
{"company":"Jury Room","address":"22 E Mound St, Columbus, OH 43215","lat":39.955023,"lng":-82.998456,"bar/restaurant or carry-out":"bar/restaurant"},
{"company":"Mad Mex","address":"1542 N High St, Columbus, OH 43201","lat":39.993914,"lng":-83.006655,"bar/restaurant or carry-out":"bar/restaurant"},
{"company":"Mellow Mushroom - Dublin","address":"6505 Dublin Center Dr., Dublin, OH 43017","lat":40.099332,"lng":-83.095249,"bar/restaurant or carry-out":"bar/restaurant"},
{"company":"Mellow Mushroom","address":"2170 Polaris Pkwy, Columbus, OH 43240","lat":40.145802,"lng":-82.95981,"bar/restaurant or carry-out":"bar/restaurant"},
{"company":"Melt - Columbus","address":"840 N. High St., Columbus, OH 43215","lat":39.979475,"lng":-83.00366,"bar/restaurant or carry-out":"bar/restaurant"},
{"company":"North High Brewing Co","address":"1288 N. High St., Columbus, OH 43201","lat":39.988682,"lng":-83.00543,"bar/restaurant or carry-out":"bar/restaurant"},
{"company":"Northstar Cafe- Easton","address":"4015 Townsfair Way, Columbus, OH 43219","lat":40.048994,"lng":-82.914005,"bar/restaurant or carry-out":"bar/restaurant"},
{"company":"Oldfields On 4th","address":"1571 N. 4th St., Columbus, OH 43201","lat":39.995289,"lng":-82.999236,"bar/restaurant or carry-out":"bar/restaurant"},
{"company":"Park Street Tavern","address":"501 Park St., Columbus, OH 43215","lat":39.97237,"lng":-83.004948,"bar/restaurant or carry-out":"bar/restaurant"},
{"company":"Pies & Pints","address":"7227 N. High St. Suite 84, Worthington, OH 43085","lat":40.106437,"lng":-83.016977,"bar/restaurant or carry-out":"bar/restaurant"},
{"company":"Red Brick Tavern - Columbus","address":"292 E. Gates, Columbus, OH 43206","lat":39.937661,"lng":-82.987782,"bar/restaurant or carry-out":"bar/restaurant"},
{"company":"Scarlet and Grey Cafe","address":"2203 N. High St., Columbus, OH 43201","lat":40.007191,"lng":-83.009582,"bar/restaurant or carry-out":"bar/restaurant"},
{"company":"Shady O' Grady's ","address":"9443 Loveland Madeira Rd., Cincinnati, OH 45242","lat":39.227725,"lng":-84.324093,"bar/restaurant or carry-out":"bar/restaurant"},
{"company":"Stars Grill","address":"2584 Bethel Rd., Columbus, OH 43220","lat":40.066978,"lng":-83.087904,"bar/restaurant or carry-out":"bar/restaurant"},
{"company":"Surly girl Saloon","address":"1126 N High St, Columbus, OH 43201","lat":39.985377,"lng":-83.004771,"bar/restaurant or carry-out":"bar/restaurant"},
{"company":"The Barrel and Bottle LLC","address":"59 Spruce St., Columbus, OH 43215","lat":39.972146,"lng":-83.004301,"bar/restaurant or carry-out":"bar/restaurant"},
{"company":"Weilands Market","address":"3600 Indianola Ave., Columbus, OH 43214","lat":40.037374,"lng":-82.999949,"bar/restaurant or carry-out":"carry-out"},
{"company":"Airy Pony Keg","address":"7549 Colerain Ave., Cincinnati, OH 45239","lat":39.214979,"lng":-84.585463,"bar/restaurant or carry-out":"carry-out"},
{"company":"Exxon - Tealtown","address":"1006 Old State Route 74, Batavia, OH 45103","lat":39.099056,"lng":-84.258434,"bar/restaurant or carry-out":"carry-out"},
{"company":"Shell - Centerville","address":"899 S Main St., Centerville, OH 45458","lat":39.613584,"lng":-84.16029,"bar/restaurant or carry-out":"carry-out"},
{"company":"By Golly's","address":"714 Lila Ave., Milford, OH 45150","lat":39.17657,"lng":-84.285177,"bar/restaurant or carry-out":"bar/restaurant"},
{"company":"Cincinnati Athletic Club","address":"111 Shillito Place, Cincinnati, OH 45202","lat":39.102547,"lng":-84.515796,"bar/restaurant or carry-out":"bar/restaurant"},
{"company":"Ferrari's Little Italy & Bakery","address":"7677 Goff Terrace, Madeira, OH 45243","lat":39.186985,"lng":-84.364599,"bar/restaurant or carry-out":"bar/restaurant"},
{"company":"Madonna's","address":"11 E 7th St., Cincinnati, OH 45202","lat":39.103721,"lng":-84.513281,"bar/restaurant or carry-out":"bar/restaurant"},
{"company":"Peach Grove Market","address":"5968 Springdale Rd., Cincinnati, OH 45247","lat":39.227631,"lng":-84.640128,"bar/restaurant or carry-out":"carry-out"},
{"company":"Walgreens - Bridgetown","address":"5508 Bridgetown Rd., Cincinnati, OH 45248","lat":39.157797,"lng":-84.630395,"bar/restaurant or carry-out":"carry-out"},
{"company":"Betty's High St","address":"680 N High St, Columbus, OH 43215","lat":39.976331,"lng":-83.003169,"bar/restaurant or carry-out":"bar/restaurant"},
{"company":"Blacklick Wine","address":"7199 E Broad St, Blacklick, OH 43004","lat":39.983161,"lng":-82.809551,"bar/restaurant or carry-out":"carry-out"},
{"company":"Giant Eagle 6520 - Perimeter","address":"6700 Perimeter Loop Rd., Dublin, OH 43017","lat":40.102796,"lng":-83.155956,"bar/restaurant or carry-out":"carry-out"},
{"company":"Hang Over Easy","address":"1646 Neil Ave., Columbus, OH 43201","lat":39.99512,"lng":-83.01419,"bar/restaurant or carry-out":"bar/restaurant"},
{"company":"House Wine - Worthington","address":"644 High St., Columbus, OH 43085","lat":40.087043,"lng":-83.017486,"bar/restaurant or carry-out":"bar/restaurant"},
{"company":"Kobo","address":"2590 N High Street, Columbus, OH 43202","lat":40.015173,"lng":-83.011108,"bar/restaurant or carry-out":"bar/restaurant"},
{"company":"My Bar","address":"3534 W. Dublin-Granville Rd., Columbus, OH 43235","lat":40.093301,"lng":-83.084634,"bar/restaurant or carry-out":"bar/restaurant"},
{"company":"St. James Tavern","address":"1057 N. 4th St., Columbus, OH 43201","lat":39.984635,"lng":-82.999494,"bar/restaurant or carry-out":"bar/restaurant"},
{"company":"Stones Lanes ","address":"3746 Montgomery Rd., Norwood, OH 45212","lat":39.147908,"lng":-84.466337,"bar/restaurant or carry-out":"bar/restaurant"},
{"company":"Strongwater","address":"401 W Town St., Columbus, OH 43215","lat":39.957165,"lng":-83.010786,"bar/restaurant or carry-out":"bar/restaurant"},
{"company":"Suzi-cue","address":"1950 N. 4th st., Columbus, OH 43201","lat":40.003223,"lng":-82.99848,"bar/restaurant or carry-out":"bar/restaurant"},
{"company":"Terrace Park Country Club ","address":"5341 S Milford Rd, Milford, OH 45150","lat":39.156254,"lng":-84.289612,"bar/restaurant or carry-out":"bar/restaurant"},
{"company":"Village Wine - Canal","address":"600 W Waterloo Canal, Winchester, OH 43110","lat":39.853533,"lng":-82.818773,"bar/restaurant or carry-out":"bar/restaurant"},
{"company":"Taffy's ","address":"123 E Main St, Eaton, OH 45320","lat":39.743526,"lng":-84.635149,"bar/restaurant or carry-out":"bar/restaurant"},
{"company":"Blue Goose ","address":"11060 Reading Rd., Sharonville, OH 45241","lat":39.269544,"lng":-84.412982,"bar/restaurant or carry-out":"bar/restaurant"},
{"company":"Courtyard - Rookwood","address":"3813 Edwards Rd., Norwood, OH 45209","lat":39.148527,"lng":-84.442532,"bar/restaurant or carry-out":"bar/restaurant"},
{"company":"Dana Gardens","address":"1832 Dana Ave., Norwood, OH 45207","lat":39.146517,"lng":-84.466351,"bar/restaurant or carry-out":"bar/restaurant"},
{"company":"Edge Inn Tavern","address":"3935 Edwards Rd., Cincinnati, OH 45209","lat":39.150366,"lng":-84.442377,"bar/restaurant or carry-out":"bar/restaurant"},
{"company":"Julian's Deli and Spirits ","address":"200 W. Loveland Ave., Loveland, OH 45140","lat":39.268236,"lng":-84.258525,"bar/restaurant or carry-out":"bar/restaurant"},
{"company":"Ole Friends","address":"549 E Main St., Lebanon, OH 45036","lat":39.432195,"lng":-84.195533,"bar/restaurant or carry-out":"bar/restaurant"},
{"company":"RSVP/Village Pantry Catering","address":"453 Wards Corner Rd., Loveland, OH 45150","lat":39.220882,"lng":-84.284348,"bar/restaurant or carry-out":"bar/restaurant"},
{"company":"Transition Bar ","address":"3152 Linwood Ave., Cincinnati, OH 45226","lat":39.13056,"lng":-84.430091,"bar/restaurant or carry-out":"bar/restaurant"},
{"company":"Wags Dog Park","address":"3810 Church St., Newtown, OH 45244","lat":39.131705,"lng":-84.356049,"bar/restaurant or carry-out":"carry-out"},
{"company":"Losantaville Country Club ","address":"3097 Losantaville Ave., Cincinnati, OH 45213","lat":39.182159,"lng":-84.434371,"bar/restaurant or carry-out":"bar/restaurant"},
{"company":"Mt Adams Pavillion ","address":"949 Pavillion St, Cincinnati, OH 45202","lat":39.107488,"lng":-84.497246,"bar/restaurant or carry-out":"bar/restaurant"},
{"company":"Peterloon Foundation ","address":"8605.Hopewell Rd, Cincinnati, OH 45242","lat":39.240596,"lng":-84.331239,"bar/restaurant or carry-out":"bar/restaurant"},
{"company":"Peterloon","address":"8605 Hopewell Rd, Cincinnati, OH 45242","lat":39.240596,"lng":-84.331239,"bar/restaurant or carry-out":"carry-out"},
{"company":"Smithville Market","address":"5 S Smithville Rd., Dayton, OH 45431","lat":39.765034,"lng":-84.138095,"bar/restaurant or carry-out":"carry-out"},
{"company":"Super Sam Food Mart","address":"1335 Ohio Pike, Amelia, OH 45102","lat":39.04105,"lng":-84.236726,"bar/restaurant or carry-out":"carry-out"},
{"company":"Ale Wine & Spirits of Powell","address":"7560 Guardwell Rd, Powell, OH 43065","lat":40.194131,"lng":-83.095046,"bar/restaurant or carry-out":"carry-out"},
{"company":"Amato's Pizza","address":"6 S. Sandusky St., Delaware, OH 43015","lat":40.298512,"lng":-83.068152,"bar/restaurant or carry-out":"bar/restaurant"},
{"company":"Beverage Source","address":"1551 W. Church St., Newark, OH 43055","lat":40.056702,"lng":-82.452824,"bar/restaurant or carry-out":"carry-out"},
{"company":"Bossy Grrl's Pinup Joint","address":"2598 N. High St., Columbus, OH 43202","lat":40.015257,"lng":-83.011425,"bar/restaurant or carry-out":"bar/restaurant"},
{"company":"Broadway Pub- Granville","address":"126 E.Broadway, Granville, OH 43023","lat":40.068341,"lng":-82.51915,"bar/restaurant or carry-out":"bar/restaurant"},
{"company":"Butterbee's - Mt. Orab","address":"390 N High St., Mt. Orab, OH 45154","lat":39.03301,"lng":-83.919149,"bar/restaurant or carry-out":"bar/restaurant"},
{"company":"Charlie's Good Time","address":"61 S Main St., Miamisburg, OH 45342","lat":39.640592,"lng":-84.289992,"bar/restaurant or carry-out":"bar/restaurant"},
{"company":"Corner Stone Craft Beer & Wine","address":"61 Parsons Ave., Columbus, OH 43215","lat":39.962899,"lng":-82.981987,"bar/restaurant or carry-out":"carry-out"},
{"company":"Deepwood","address":"511 N High St., Columbus, OH 43215","lat":39.973351,"lng":-83.002808,"bar/restaurant or carry-out":"bar/restaurant"},
{"company":"Easy Street - Powell","address":"5 S. Liberty Street, Powell, OH 43065","lat":40.155261,"lng":-83.07827,"bar/restaurant or carry-out":"bar/restaurant"},
{"company":"Holiday Inn - Sharonville","address":"3855 Hauck Rd., Sharonville, OH 45241","lat":39.289941,"lng":-84.398429,"bar/restaurant or carry-out":"bar/restaurant"},
{"company":"Kisers BBQ","address":"11309 Jackson Dr., The Plains, OH 45780","lat":39.364208,"lng":-82.117717,"bar/restaurant or carry-out":"bar/restaurant"},
{"company":"Manifesto Grato","address":"21 E. State St., Columbus, OH 43215","lat":39.960015,"lng":-82.99955,"bar/restaurant or carry-out":"bar/restaurant"},
{"company":"Marion Lanes","address":"6170 Brandt Pike, Huber Heights, OH 45434","lat":39.842424,"lng":-84.114098,"bar/restaurant or carry-out":"bar/restaurant"},
{"company":"Moe's BBQ","address":"128 Broadway East, Granville, OH 43023","lat":40.067916,"lng":-82.519177,"bar/restaurant or carry-out":"bar/restaurant"},
{"company":"Poelking Lanes - Dayton Mall","address":"8871 Kingsridge Dr., Dayton, OH 45458","lat":39.630501,"lng":-84.217969,"bar/restaurant or carry-out":"bar/restaurant"},
{"company":"Snap Shots","address":"925 River Rd, Granville, OH 43023","lat":40.059549,"lng":-82.518675,"bar/restaurant or carry-out":"bar/restaurant"},
{"company":"Soooo Good Bar & Grill","address":"75 W Main St., Springboro, OH 45066","lat":39.558894,"lng":-84.232779,"bar/restaurant or carry-out":"bar/restaurant"},
{"company":"The Pub Out Back","address":"679 High St., Worthington, OH 43085","lat":40.087753,"lng":-83.01894,"bar/restaurant or carry-out":"bar/restaurant"},
{"company":"The Tavern","address":"889 Oak St., Columbus, OH 43205","lat":39.962694,"lng":-82.976537,"bar/restaurant or carry-out":"bar/restaurant"},
{"company":"2nd Street Saloon","address":"3703 Harrison Ave., Cincinnati, OH 45211","lat":39.156365,"lng":-84.611309,"bar/restaurant or carry-out":"bar/restaurant"},
{"company":"Back's Deli and Drive Thru ","address":"1101 Harrison Ave., Harrison, OH 45030","lat":39.257789,"lng":-84.80194,"bar/restaurant or carry-out":"carry-out"},
{"company":"Brooklyn Pizza - Montgomery","address":"9797 Montgomery Rd., Montgomery, OH 45242","lat":39.233892,"lng":-84.352148,"bar/restaurant or carry-out":"bar/restaurant"},
{"company":"Heathers","address":"505 South Main Street, Springboro, OH 45066","lat":39.551098,"lng":-84.23399,"bar/restaurant or carry-out":"bar/restaurant"},
{"company":"Marathon - Struble Rd.","address":"2790 Struble Rd., Cincinnati, OH 45251","lat":39.264095,"lng":-84.575102,"bar/restaurant or carry-out":"carry-out"},
{"company":"Rue Dumaine","address":"1061 Miamisburg Centerville Rd, Dayton, OH 45459","lat":39.628809,"lng":-84.189493,"bar/restaurant or carry-out":"bar/restaurant"},
{"company":"Shakti Petroleum","address":"2 E Dayton St., Fairborn, OH 45324","lat":39.819013,"lng":-84.02104,"bar/restaurant or carry-out":"carry-out"},
{"company":"Stone House Tavern","address":"258 S. Main Street, Waynesville, OH 45068","lat":39.527661,"lng":-84.087628,"bar/restaurant or carry-out":"bar/restaurant"},
{"company":"Walgreens - Boudinot Ave.","address":"2320 Boudinot Ave., Cincinnati, OH 45238","lat":39.128585,"lng":-84.605354,"bar/restaurant or carry-out":"carry-out"},
{"company":"Walgreens - Ohio Pike","address":"719 Ohio Pike, Cincinnati, OH 45245","lat":39.065244,"lng":-84.289788,"bar/restaurant or carry-out":"carry-out"},
{"company":"Quatman Café","address":"224 W Main St., Mason, OH 45040","lat":39.360665,"lng":-84.311882,"bar/restaurant or carry-out":"bar/restaurant"},
{"company":"BP - Hopple St.","address":"1326 Hopple St., Cincinnati, OH 45225","lat":39.137326,"lng":-84.538496,"bar/restaurant or carry-out":"carry-out"},
{"company":"Caesar's Drive Thru","address":"998 Miamisburg Centerville Rd., Centerville, OH 45459","lat":39.62892,"lng":-84.189512,"bar/restaurant or carry-out":"carry-out"},
{"company":"Daniel's Restaurant & Pub ","address":"2735 Vine St., Cincinnati, OH 45219","lat":39.13154,"lng":-84.509687,"bar/restaurant or carry-out":"bar/restaurant"},
{"company":"J Arthur's ","address":"9390-96 Montgomery Rd., Montgomery, OH 45242","lat":39.226693,"lng":-84.354657,"bar/restaurant or carry-out":"bar/restaurant"},
{"company":"Kroger 395 - Blanchester","address":"1001 Cherry St, Blanchester, OH 45107","lat":39.300976,"lng":-83.960958,"bar/restaurant or carry-out":"carry-out"},
{"company":"Kroger 445 - Cleves","address":"4001 SR 128, Cleves, OH 45036","lat":39.172258,"lng":-84.76059,"bar/restaurant or carry-out":"carry-out"},
{"company":"Kroger 920 - Mt Orab","address":"210 Sterling Run Blvd, Mt Orab, OH 45154","lat":39.04042,"lng":-83.921746,"bar/restaurant or carry-out":"carry-out"},
{"company":"Marion's Grand Slam Drive Thru","address":"249 Middletown Eaton Rd., Middletown, OH 45042","lat":39.522325,"lng":-84.416057,"bar/restaurant or carry-out":"carry-out"},
{"company":"Ray's Drive Thru - Huber Heights","address":"5229 Taylorsville Rd., Huber Heights, OH 45424","lat":39.863637,"lng":-84.144162,"bar/restaurant or carry-out":"carry-out"},
{"company":"South Side Drive Thru","address":"337 W Central Ave, West Carrolton, OH 45442","lat":39.66968,"lng":-84.257722,"bar/restaurant or carry-out":"carry-out"},
{"company":"Stand, The ","address":"3195 Linwood Ave, Cincinnati, OH 45208","lat":39.128841,"lng":-84.430705,"bar/restaurant or carry-out":"bar/restaurant"},
{"company":"The Precinct ","address":"311 Delta Ave., Cincinnati, OH 45226","lat":39.117017,"lng":-84.439763,"bar/restaurant or carry-out":"bar/restaurant"},
{"company":"ZZ-Public Sale","address":"add .065% sales tax, NA, NA 45242","lat":39.236436,"lng":-84.36472,"bar/restaurant or carry-out":"carry-out"},
{"company":"202 Drive Thru","address":"9997 Troy Pike, Huber Heights, OH 45371","lat":39.884712,"lng":-84.136131,"bar/restaurant or carry-out":"carry-out"},
{"company":"Shell - Harrison","address":"9990 Harrison Ave, Cincinnati, OH 45030","lat":39.198477,"lng":-84.671403,"bar/restaurant or carry-out":"carry-out"},
{"company":"Kroger 351 - Montgomery","address":"9939 Montgomery Rd., Montgomery, OH 45242","lat":39.237232,"lng":-84.349885,"bar/restaurant or carry-out":"carry-out"},
{"company":"Central Liquors","address":"9908 Colerain Avenue, Cincinnati, OH 45251","lat":39.252039,"lng":-84.598261,"bar/restaurant or carry-out":"carry-out"},
{"company":"Wine Store - Montgomery","address":"9905 Montgomery Rd., Cincinnati, OH 45242","lat":39.235993,"lng":-84.350486,"bar/restaurant or carry-out":"carry-out"},
{"company":"Siler's Drive Thru","address":"986 Old St. Rte 74, Batavia, OH 45103","lat":39.077007,"lng":-84.176879,"bar/restaurant or carry-out":"carry-out"},
{"company":"Carlo & Johnny's ","address":"9769 Montgomery Rd., Montgomery, OH 45242","lat":39.23386,"lng":-84.35337,"bar/restaurant or carry-out":"bar/restaurant"},
{"company":"Taggart's","address":"970 Patterson Rd, Dayton, OH 45419","lat":39.724222,"lng":-84.15311,"bar/restaurant or carry-out":"bar/restaurant"},
{"company":"Kroger 832 - Bechtle Ave","address":"965 N Bechtle Ave, Springfield, OH 45504","lat":39.9384,"lng":-83.836754,"bar/restaurant or carry-out":"carry-out"},
{"company":"Back Porch Saloon ","address":"9626 Princeton-Glendale Road, Hamilton, OH 45011","lat":39.3174,"lng":-84.463234,"bar/restaurant or carry-out":"bar/restaurant"},
{"company":"Tipp Foodtown","address":"960 W. Main St., Tipp City, OH 45371","lat":39.96085,"lng":-84.18491,"bar/restaurant or carry-out":"carry-out"},
{"company":"Milano's - Miamisburg","address":"9572 Springboro Pike, Miamisburg, OH 45342","lat":39.611373,"lng":-84.227094,"bar/restaurant or carry-out":"bar/restaurant"},
{"company":"Beef O'Brady's - Centerville","address":"953 S. Main St, Centerville, OH 45458","lat":39.610655,"lng":-84.163302,"bar/restaurant or carry-out":"bar/restaurant"},
{"company":"Benchmark Outfitters","address":"9525 Kenwood Rd., Cincinnati, OH 45242","lat":39.230672,"lng":-84.37849,"bar/restaurant or carry-out":"carry-out"},
{"company":"Mio's Pizza - Blue Ash ","address":"9500 Kenwood Rd. Unit C&D, Blue Ash, OH 45242","lat":39.232003,"lng":-84.378273,"bar/restaurant or carry-out":"bar/restaurant"},
{"company":"Tap n Go ","address":"950 Pavilion St., Cincinnati, OH 45202","lat":39.107774,"lng":-84.497062,"bar/restaurant or carry-out":"bar/restaurant"},
{"company":"Yard House - Cincinnati ","address":"95 East Freedom Way, Cincinnati, OH 45202","lat":39.097169,"lng":-84.510352,"bar/restaurant or carry-out":"bar/restaurant"},
{"company":"Archers Tavern","address":"9496 Dayton-Lebanon Pike, Centerville, OH 45458","lat":39.606483,"lng":-84.160171,"bar/restaurant or carry-out":"bar/restaurant"},
{"company":"Mitchell's Fish Market ","address":"9456 Waterfront Dr., West Chester, OH 45069","lat":39.302665,"lng":-84.408274,"bar/restaurant or carry-out":"bar/restaurant"},
{"company":"Red Robin - West Chester ","address":"9434 Civic Center Blvd., West Chester, OH 45069","lat":39.350886,"lng":-84.419067,"bar/restaurant or carry-out":"bar/restaurant"},
{"company":"Miami Valley Wine","address":"943 W. Main, Tipp City, OH 45371","lat":39.960886,"lng":-84.184463,"bar/restaurant or carry-out":"carry-out"},
{"company":"Champps Restaurant - West Chester ","address":"9424 Civic Centre Blvd., West Chester, OH 45069","lat":39.350886,"lng":-84.419067,"bar/restaurant or carry-out":"bar/restaurant"},
{"company":"Cadillac Jacks of Centerville Inc","address":"9400 Springboro Pike, Centerville, Oh 45449","lat":39.645218,"lng":-84.224515,"bar/restaurant or carry-out":"carry-out"},
{"company":"Buffalo Wings and Rings Centerville","address":"94 S. MAIN STREET, CENTERVILLE, OH 45459","lat":39.630856,"lng":-84.158311,"bar/restaurant or carry-out":"bar/restaurant"},
{"company":"Remington Market","address":"9390 Loveland Madeira Rd., Cincinnati, OH 45242","lat":39.227107,"lng":-84.325339,"bar/restaurant or carry-out":"carry-out"},
{"company":"Stone Creek Dining Company ","address":"9386 Montgomery Rd., Cincinnati, OH 45242","lat":39.226522,"lng":-84.354868,"bar/restaurant or carry-out":"bar/restaurant"},
{"company":"Delicio Coal Fired Pizza ","address":"9321 Montgomery Rd., Montgomery, OH 45242","lat":39.224819,"lng":-84.355705,"bar/restaurant or carry-out":"bar/restaurant"},
{"company":"Yesterday's","address":"930 Hatch St., Cincinnati, OH 45202","lat":39.109508,"lng":-84.497792,"bar/restaurant or carry-out":"bar/restaurant"},
{"company":"Buffalo Wild Wings - West Chester ","address":"9243 Schulze Dr., West Chester, OH 45069","lat":39.322514,"lng":-84.427959,"bar/restaurant or carry-out":"bar/restaurant"},
{"company":"Mellow Mushroom West Chester ","address":"9238 Floer Dr., West Chester, OH 45069","lat":39.323185,"lng":-84.430432,"bar/restaurant or carry-out":"bar/restaurant"},
{"company":"Zip in","address":"9216 Dayton-Oxford Rd., Carlisle, OH 45005","lat":39.588088,"lng":-84.295796,"bar/restaurant or carry-out":"carry-out"},
{"company":"Sunoco- Winton Rd.","address":"9177 Winton Rd., Cincinnati, OH 45231","lat":39.233744,"lng":-84.50996,"bar/restaurant or carry-out":"carry-out"},
{"company":"TGI Friday's - Fields Ertel ","address":"9141 Fields Ertel Road, Cincinnati, OH 45249","lat":39.291865,"lng":-84.308151,"bar/restaurant or carry-out":"bar/restaurant"},
{"company":"Dingle House ","address":"9102 Union Center Blvd, West Chester, OH 45069","lat":39.327803,"lng":-84.435271,"bar/restaurant or carry-out":"bar/restaurant"},
{"company":"The Bar ","address":"9101 Reading Rd., Reading, OH 45215","lat":39.22423,"lng":-84.440279,"bar/restaurant or carry-out":"bar/restaurant"},
{"company":"Copper Blue ","address":"900 Main St., Milford, OH 45150","lat":39.17767,"lng":-84.280031,"bar/restaurant or carry-out":"bar/restaurant"},
{"company":"Walgreens - Mitchell","address":"9 W Mitchell Ave., Cincinnati, OH 45217","lat":39.160815,"lng":-84.506125,"bar/restaurant or carry-out":"carry-out"},
{"company":"Main St. Gourmet ","address":"9 S. Main St., Oxford, OH 45056","lat":39.510054,"lng":-84.742143,"bar/restaurant or carry-out":"bar/restaurant"},
{"company":"Beverage Palace","address":"8980 Kingsridge Dr., Dayton, OH 45458","lat":39.629852,"lng":-84.224124,"bar/restaurant or carry-out":"carry-out"},
{"company":"O'Bryan's Wine-Landen","address":"8972 Columbia Rd., Loveland, OH 45140","lat":39.305416,"lng":-84.278498,"bar/restaurant or carry-out":"carry-out"},
{"company":"Logos Sports Bar","address":"8954 Blue Ash Rd., Cincinnati, OH 45242","lat":39.220639,"lng":-84.383989,"bar/restaurant or carry-out":"bar/restaurant"},
{"company":"Pizza Tower","address":"8945 Governors Way, Cincinnati, OH 45249","lat":39.291222,"lng":-84.31503,"bar/restaurant or carry-out":"bar/restaurant"},
{"company":"Bunkers","address":"893 E National Rd, Vandalia, OH 45377","lat":39.892453,"lng":-84.180887,"bar/restaurant or carry-out":"bar/restaurant"},
{"company":"Fricker's - Mason ","address":"8850 Governors Hill Dr., Mason, OH 45249","lat":39.290381,"lng":-84.317889,"bar/restaurant or carry-out":"bar/restaurant"},
{"company":"Kroger 938 - Englewood","address":"885 Union Rd, Englewood, OH 45322","lat":39.863625,"lng":-84.313889,"bar/restaurant or carry-out":"carry-out"},
{"company":"Cork n Bottle","address":"881 E Franklin St., Centerville, OH 45459","lat":39.628552,"lng":-84.142365,"bar/restaurant or carry-out":"carry-out"},
{"company":"Tap House Grill","address":"8740 Montgomery Rd., Cincinnati, OH 45236","lat":39.213491,"lng":-84.359404,"bar/restaurant or carry-out":"bar/restaurant"},
{"company":"Ameristop - Fields Ertel","address":"8675 Fields Ertel Rd., Mason, OH 45040","lat":39.293149,"lng":-84.328611,"bar/restaurant or carry-out":"carry-out"},
{"company":"Brentwood Spirits","address":"8621 Winton Rd., Cincinnati, OH 45231","lat":39.224714,"lng":-84.516733,"bar/restaurant or carry-out":"carry-out"},
{"company":"Luckie's Pony Keg","address":"8600 Blue Ash Rd, Cincinnati, OH 45236","lat":39.215608,"lng":-84.38678,"bar/restaurant or carry-out":"carry-out"},
{"company":"McLevy's Pub ","address":"8512 Market Place Ln., Montgomery, OH 45242","lat":39.237192,"lng":-84.347431,"bar/restaurant or carry-out":"bar/restaurant"},
{"company":"312 Bar ","address":"8450 Blue Ash Dr., Cincinnati, OH 45236","lat":39.211865,"lng":-84.388633,"bar/restaurant or carry-out":"bar/restaurant"},
{"company":"Clermont Springs Deli ","address":"8427 Beechmont Ave., Cincinnati, OH 45255","lat":39.072294,"lng":-84.320972,"bar/restaurant or carry-out":"bar/restaurant"},
{"company":"Country Fresh Farm Market - Hartwell","address":"8425 Vine St., Cincinnati, OH 45216","lat":39.216467,"lng":-84.473769,"bar/restaurant or carry-out":"carry-out"},
{"company":"Kroger 384 - Winton Rd","address":"8421 Winton Road, Cincinnati, OH 45231","lat":39.22068,"lng":-84.519182,"bar/restaurant or carry-out":"carry-out"},
{"company":"Reading Village Market","address":"8400 Reading Rd., Reading, OH 45237","lat":39.211865,"lng":-84.447151,"bar/restaurant or carry-out":"carry-out"},
{"company":"Buffalo Wings and Rings - Winton ","address":"8377 Winton Rd., Cincinnati, OH 45231","lat":39.219811,"lng":-84.518021,"bar/restaurant or carry-out":"bar/restaurant"},
{"company":"Slyders Tavern","address":"836 Watervliet Ave, Dayton, OH 45420","lat":39.730021,"lng":-84.139879,"bar/restaurant or carry-out":"bar/restaurant"},
{"company":"Marathon - Clough","address":"8345 Clough, Cincinnati, OH 45244","lat":39.087731,"lng":-84.322432,"bar/restaurant or carry-out":"carry-out"},
{"company":"Country Fresh Farm Market","address":"8315 Beechmont Ave., Cincinnati, OH 45255","lat":39.071365,"lng":-84.323949,"bar/restaurant or carry-out":"carry-out"},
{"company":"Mama Mimi's - Beechmont ","address":"8312 Beechmont Ave., Cincinnati, OH 45255","lat":39.072954,"lng":-84.324183,"bar/restaurant or carry-out":"bar/restaurant"},
{"company":"Four Bridges Country Club","address":"8300 Four Bridges Clubhouse, Middletown, OH 45044","lat":39.515058,"lng":-84.398276,"bar/restaurant or carry-out":"bar/restaurant"},
{"company":"Mio's Pizza - Anderson ","address":"8298 Clough Pike, Cincinnati, OH 45244","lat":39.088325,"lng":-84.322363,"bar/restaurant or carry-out":"bar/restaurant"},
{"company":"Louie's Tap House & Grill ","address":"8267 Arbor Square Dr, Mason, OH 45040","lat":39.318677,"lng":-84.314101,"bar/restaurant or carry-out":"bar/restaurant"},
{"company":"Healthy Alternative - Englewood","address":"8258 North Main St, Dayton, OH 45415","lat":39.845308,"lng":-84.263586,"bar/restaurant or carry-out":"carry-out"},
{"company":"Kroger 411 - Main ST","address":"824 Main Street, Milford, OH 45150","lat":39.177715,"lng":-84.281066,"bar/restaurant or carry-out":"carry-out"},
{"company":"Beckett Wine and Liquor","address":"8212 Princeton-Glendale Rd., West Chester, OH 45069","lat":39.353092,"lng":-84.461179,"bar/restaurant or carry-out":"carry-out"},
{"company":"Sunoco - Montgomery","address":"8186 Montgomery Rd., Madeira, OH 45236","lat":39.204983,"lng":-84.367344,"bar/restaurant or carry-out":"carry-out"},
{"company":"Embers Restaurant ","address":"8170 Montgomery Rd., Madeira, OH 45236","lat":39.204377,"lng":-84.368555,"bar/restaurant or carry-out":"bar/restaurant"},
{"company":"Camargo Beverage","address":"8161 Camargo Rd, Madeira, OH 45243","lat":39.192326,"lng":-84.350897,"bar/restaurant or carry-out":"carry-out"},
{"company":"TGI Friday's - Kenwood ","address":"8150 Montgomery Rd., Madiera, OH 45236","lat":39.204324,"lng":-84.368621,"bar/restaurant or carry-out":"bar/restaurant"},
{"company":"Marathon - Camargo","address":"8103 Camargo Rd., Madeira, OH 45243","lat":39.190702,"lng":-84.354202,"bar/restaurant or carry-out":"carry-out"},
{"company":"Crazy Mango","address":"81 Magnolia Lane, Beavercreek, OH 45440","lat":39.693657,"lng":-84.100252,"bar/restaurant or carry-out":"bar/restaurant"},
{"company":"School House Resturant ","address":"8031 Glendale-Milford Rd., Camp Dennison, OH 45111","lat":39.198754,"lng":-84.289107,"bar/restaurant or carry-out":"bar/restaurant"},
{"company":"Carlisle Food Mart","address":"801 Central Avenue, Carlisle, OH 45005","lat":39.584328,"lng":-84.32606,"bar/restaurant or carry-out":"carry-out"},
{"company":"Kroger 413 - Loveland-Maderia","address":"800 Loveland-Maderia RD, Loveland, OH 45140","lat":39.261418,"lng":-84.273236,"bar/restaurant or carry-out":"carry-out"},
{"company":"Car Rock Café ","address":"7912 Blue Ash Rd., Cincinnati, OH 45236","lat":39.204987,"lng":-84.392845,"bar/restaurant or carry-out":"bar/restaurant"},
{"company":"Aroma - Kenwood","address":"7875 Montgomery Rd., Cincinnati, OH 45236","lat":39.200932,"lng":-84.376009,"bar/restaurant or carry-out":"bar/restaurant"},
{"company":"Red Robin - Kenwood ","address":"7875 Montgomery Rd., Cincinnati, OH 45236","lat":39.200932,"lng":-84.376009,"bar/restaurant or carry-out":"bar/restaurant"},
{"company":"Ameristop - Beechmont","address":"7870 Beechmont Ave., Cincinnati, OH 45255","lat":39.07269,"lng":-84.337761,"bar/restaurant or carry-out":"carry-out"},
{"company":"Kroger 945 - West Chester","address":"7855 Tylersville Rd, West Chester, OH 45069","lat":39.352635,"lng":-84.362968,"bar/restaurant or carry-out":"carry-out"},
{"company":"Traci's ","address":"784 Loveland Miamiville Rd., Loveland, OH 45150","lat":39.228511,"lng":-84.257803,"bar/restaurant or carry-out":"bar/restaurant"},
{"company":"The Corner Pub ","address":"7833 Cooper Rd., Montgomery, OH 45242","lat":39.226368,"lng":-84.355134,"bar/restaurant or carry-out":"bar/restaurant"},
{"company":"Z Wine and Cheese Place","address":"7823 Cooper Rd., Montgomery, OH 45242","lat":39.226559,"lng":-84.355198,"bar/restaurant or carry-out":"carry-out"},
{"company":"Marathon - West Chester","address":"7809 Cin-Day Rd, West Chester, OH 45069","lat":39.341965,"lng":-84.406761,"bar/restaurant or carry-out":"carry-out"},
{"company":"Shooters Sports Grill ","address":"780 Loveland-Miamiville Rd, Loveland, OH 45140","lat":39.228301,"lng":-84.259338,"bar/restaurant or carry-out":"bar/restaurant"},
{"company":"Trader Joe's-669-Cincinnati","address":"7788 Montgomery Rd, Cincinnati, OH 45236","lat":39.197822,"lng":-84.381821,"bar/restaurant or carry-out":"carry-out"},
{"company":"Dewey's Pizza - Kenwood ","address":"7767 Kenwood Rd, Cincinnati, OH 45236","lat":39.202126,"lng":-84.380107,"bar/restaurant or carry-out":"bar/restaurant"},
{"company":"LaRosa's - Anderson ","address":"7756 Beechmont Ave., Cincinnati, OH 45230","lat":39.073118,"lng":-84.34273,"bar/restaurant or carry-out":"bar/restaurant"},
{"company":"Nonu, Inc. - The Wine List","address":"7753 Tylersville Rd., West Chester, OH 45069","lat":39.353111,"lng":-84.36666,"bar/restaurant or carry-out":"carry-out"},
{"company":"Wine World","address":"7737 Five Mile Rd., Cincinnati, OH 45230","lat":39.07496,"lng":-84.352097,"bar/restaurant or carry-out":"carry-out"},
{"company":"Madeira Market","address":"7722 Laurel Ave., Madeira, OH 45243","lat":39.189688,"lng":-84.362187,"bar/restaurant or carry-out":"carry-out"},
{"company":"Mama Mimi's - Kenwood ","address":"7714 B Montgomery Rd., Cincinnati, OH 45236","lat":39.197137,"lng":-84.385397,"bar/restaurant or carry-out":"bar/restaurant"},
{"company":"Milano's - West Chester ","address":"7701 Voice of America Centre Dr., West Chester, OH 45069","lat":39.353307,"lng":-84.361798,"bar/restaurant or carry-out":"bar/restaurant"},
{"company":"Root Cellar","address":"7699 Montgomery Rd., Cincinnati, OH 45236","lat":39.196949,"lng":-84.386018,"bar/restaurant or carry-out":"carry-out"},
{"company":"Uncorked at the Spicy Olive ","address":"7671 Cox Ln. Unit A, West Chester, OH 45069","lat":39.355009,"lng":-84.365888,"bar/restaurant or carry-out":"bar/restaurant"},
{"company":"50 West Brewing Company","address":"7668 Wooster Pike, Cincinnati, OH 45227","lat":39.138508,"lng":-84.35273,"bar/restaurant or carry-out":"bar/restaurant"},
{"company":"Heritage Tastings ","address":"7664 Wooster Pike, Cincinnati, OH 45227","lat":39.13948,"lng":-84.353766,"bar/restaurant or carry-out":"bar/restaurant"},
{"company":"Dewey's Pizza - West Chester ","address":"7663 Cox Lane, West Chester, OH 45069","lat":39.355009,"lng":-84.365888,"bar/restaurant or carry-out":"bar/restaurant"},
{"company":"Anthony's ","address":"7641 Voice of America Center, West Chester, OH 45069","lat":39.353307,"lng":-84.361798,"bar/restaurant or carry-out":"bar/restaurant"},
{"company":"Pizzelli Pizza ","address":"7639 Wooster Pike, Cincinnati, OH 45227","lat":39.138751,"lng":-84.354139,"bar/restaurant or carry-out":"bar/restaurant"},
{"company":"Hahana Beach ","address":"7605 Woster Pk, Cincinnati, OH 45244","lat":40.054307,"lng":-82.940775,"bar/restaurant or carry-out":"bar/restaurant"},
{"company":"Wild Mikes ","address":"7587 Bridgetown Road, Cincinnati, OH 45248","lat":39.164558,"lng":-84.699098,"bar/restaurant or carry-out":"bar/restaurant"},
{"company":"Kroger 915 - Beechmont","address":"7580 Beechmont Ave, Cincinnati, OH 45255","lat":39.07282,"lng":-84.34704,"bar/restaurant or carry-out":"carry-out"},
{"company":"Gameday Grill and Patio","address":"7576 n. state rt. 48, Waynesville, OH 45068","lat":39.546436,"lng":-84.165935,"bar/restaurant or carry-out":"bar/restaurant"},
{"company":"Shell - Fields Ertel","address":"7555 Fields Ertel Rd., Cincinnati, OH 45241","lat":39.290243,"lng":-84.354676,"bar/restaurant or carry-out":"carry-out"},
{"company":"Chad's Drive Thru","address":"7551 Harrison Ave., Cincinnati, OH 45247","lat":39.216959,"lng":-84.689319,"bar/restaurant or carry-out":"carry-out"},
{"company":"Mason Pub & Patio ","address":"753 Reading Rd., Mason, OH 45040","lat":39.349309,"lng":-84.326081,"bar/restaurant or carry-out":"bar/restaurant"},
{"company":"Kroger 914 - Troy","address":"751 West Market Street, Troy, OH 45373","lat":40.030714,"lng":-84.22243,"bar/restaurant or carry-out":"carry-out"},
{"company":"101 Beer Kitchen","address":"7509 Sawmill Road, Dublin, OH 43016","lat":40.118057,"lng":-83.090417,"bar/restaurant or carry-out":"bar/restaurant"},
{"company":"Boston's Bistro 2","address":"7500 N Main St., Dayton, OH 45415","lat":39.832997,"lng":-84.25248,"bar/restaurant or carry-out":"bar/restaurant"},
{"company":"Uno's - Beechmont ","address":"7500 Beechmont Ave., Cincinnati, OH 45255","lat":39.074382,"lng":-84.349166,"bar/restaurant or carry-out":"bar/restaurant"},
{"company":"TGI Friday's - Beechmont ","address":"7480 Beechmont Ave., Cincinnati, OH 45255","lat":39.072863,"lng":-84.34975,"bar/restaurant or carry-out":"bar/restaurant"},
{"company":"Goodfella's - Beechmont ","address":"7466 Beechmont Ave. Suite 412, Cincinnati, OH 45255","lat":39.072864,"lng":-84.349837,"bar/restaurant or carry-out":"bar/restaurant"},
{"company":"Trio Restaurant ","address":"7465 Kenwood Road Ste. 11, Cincinnati, OH 45236","lat":39.198615,"lng":-84.380442,"bar/restaurant or carry-out":"bar/restaurant"},
{"company":"Latitudes ","address":"7454 Beechmont Ave Suite 303, Cincinnati, OH 45255","lat":39.072866,"lng":-84.349911,"bar/restaurant or carry-out":"bar/restaurant"},
{"company":"Flip Daddy's ","address":"7453 Wooster Pk, Cincinnati, OH 45227","lat":40.054307,"lng":-82.940775,"bar/restaurant or carry-out":"bar/restaurant"},
{"company":"Cabana's on the River ","address":"7447 Forbes Rd., Cincinnati, OH 45233","lat":39.127023,"lng":-84.706642,"bar/restaurant or carry-out":"bar/restaurant"},
{"company":"Shell- Wooster Pike","address":"7436 Wooster Pike, Cincinnati, OH 45227","lat":39.142154,"lng":-84.359273,"bar/restaurant or carry-out":"carry-out"},
{"company":"Lou's Beverage","address":"740 Reading Rd. (Rt. 42), Mason, OH 45040","lat":39.360059,"lng":-84.309939,"bar/restaurant or carry-out":"carry-out"},
{"company":"Dorothy Lane - Springboro","address":"740 N. Main St., Springboro, OH 45066","lat":39.577003,"lng":-84.230861,"bar/restaurant or carry-out":"carry-out"},
{"company":"Lehr's","address":"740 Main St., Milford, OH 45150","lat":39.176936,"lng":-84.284715,"bar/restaurant or carry-out":"carry-out"},
{"company":"Kroger 421 - Mariemont","address":"7385 Wooster Pike, Cincinnati, OH 45227","lat":39.141896,"lng":-84.361653,"bar/restaurant or carry-out":"carry-out"},
{"company":"BP - Beechmont","address":"7380 Beechmont Ave., Cincinnati, OH 45230","lat":39.072896,"lng":-84.352643,"bar/restaurant or carry-out":"carry-out"},
{"company":"West Chester Food Mart - Marathon","address":"7363 Kingsgate Way, West Chester, OH 45069","lat":39.352436,"lng":-84.370381,"bar/restaurant or carry-out":"carry-out"},
{"company":"Little Store","address":"7325 Peters Pike, Dayton, OH 45414","lat":39.854107,"lng":-84.227525,"bar/restaurant or carry-out":"bar/restaurant"},
{"company":"Kroger 383 - Middletown","address":"7300 Yankee Rd, Middletown, OH 45044","lat":39.376862,"lng":-84.376381,"bar/restaurant or carry-out":"carry-out"},
{"company":"Lucky Dog Grille ","address":"729 Reading Rd., Mason, OH 45040","lat":39.351473,"lng":-84.322536,"bar/restaurant or carry-out":"bar/restaurant"},
{"company":"The H Bar","address":"7236 Ohio Ave., Silverton, OH 45236","lat":39.200874,"lng":-84.404083,"bar/restaurant or carry-out":"bar/restaurant"},
{"company":"Middletown Fine Wine and Spirits","address":"721 Breiel Blvd., Middletown, OH 45044","lat":39.502725,"lng":-84.354741,"bar/restaurant or carry-out":"carry-out"},
{"company":"Walgreens 12831 - Beechmont","address":"7135 Beechmont Ave., Cincinnati, OH 45230","lat":39.073251,"lng":-84.362212,"bar/restaurant or carry-out":"carry-out"},
{"company":"J.R.'s Table ","address":"713 Vine Street, Cincinnati, OH 45202","lat":39.104123,"lng":-84.51387,"bar/restaurant or carry-out":"bar/restaurant"},
{"company":"Beer Depot","address":"712 Watervielet Avenue, Dayton, OH 45420","lat":39.73153,"lng":-84.141916,"bar/restaurant or carry-out":"bar/restaurant"},
{"company":"Yabos Tacos - Westerville","address":"7097 State Rt 3, Westerville, OH 43082","lat":40.149649,"lng":-82.922128,"bar/restaurant or carry-out":"bar/restaurant"},
{"company":"Sam's Corner Store","address":"7011 New Haven Rd, Harrison, OH 45030","lat":39.265744,"lng":-84.6729,"bar/restaurant or carry-out":"carry-out"},
{"company":"Anderson's North","address":"7000 Bent Tree Blvd., Columbus, OH 43235","lat":40.097097,"lng":-83.082188,"bar/restaurant or carry-out":"carry-out"},
{"company":"Jeff Ruby's ","address":"700 Walnut St., Cincinnati, OH 45202","lat":39.104144,"lng":-84.511772,"bar/restaurant or carry-out":"bar/restaurant"},
{"company":"Blue Wisp Jazz Club ","address":"700 Race St., Cincinnati, OH 45202","lat":39.103507,"lng":-84.515242,"bar/restaurant or carry-out":"bar/restaurant"},
{"company":"Sungs Korean Bistro ","address":"700 Elm St., Cincinnati, OH 45202","lat":39.103328,"lng":-84.516783,"bar/restaurant or carry-out":"bar/restaurant"},
{"company":"Kroger 402 - Madeira","address":"6950 Miami Ave., Madeira, OH 45243","lat":39.187827,"lng":-84.361705,"bar/restaurant or carry-out":"carry-out"},
{"company":"MVP Sports Bar and Grille ","address":"6923 Plainfield Rd., Silverton, OH 45236","lat":39.194475,"lng":-84.400619,"bar/restaurant or carry-out":"bar/restaurant"},
{"company":"Madeira Wine & Spirits","address":"6917 Miami Ave., Maderia, OH 45243","lat":39.187121,"lng":-84.363724,"bar/restaurant or carry-out":"carry-out"},
{"company":"Main Street Cafe - Newtown ","address":"6903 Main St., Newtown, OH 45244","lat":39.124434,"lng":-84.361676,"bar/restaurant or carry-out":"bar/restaurant"},
{"company":"National Exemplar ","address":"6880 Wooster Pike, Mariemont, OH 45227","lat":39.14577,"lng":-84.376417,"bar/restaurant or carry-out":"bar/restaurant"},
{"company":"Fricker's - Miller Lane","address":"6834 Miller Ln., Dayton, OH 45414","lat":39.846422,"lng":-84.190782,"bar/restaurant or carry-out":"bar/restaurant"},
{"company":"Dilly Deli ","address":"6818 Wooster Pike, Cincinnati, OH 45227","lat":39.145251,"lng":-84.376403,"bar/restaurant or carry-out":"bar/restaurant"},
{"company":"Five Mile Marathon","address":"6790 Kellogg Ave., Cincinnati, OH 45230","lat":39.056007,"lng":-84.417468,"bar/restaurant or carry-out":"carry-out"},
{"company":"McCauley's Carry Out","address":"6788 Fields Ertel Rd., Sharonville, OH 45241","lat":39.293337,"lng":-84.361966,"bar/restaurant or carry-out":"carry-out"},
{"company":"Scene ","address":"677 Walnut Ave, Cincinnati, OH 45202","lat":39.103838,"lng":-84.512002,"bar/restaurant or carry-out":"bar/restaurant"},
{"company":"Anderson Food Mart","address":"6730 Clough Pike, Cincinnati, OH 45244","lat":39.098479,"lng":-84.36859,"bar/restaurant or carry-out":"carry-out"},
{"company":"HD Beans & Bottles ","address":"6721 Montgomery Rd, Cincinnati, OH 45236","lat":39.190324,"lng":-84.410223,"bar/restaurant or carry-out":"bar/restaurant"},
{"company":"Quencher Drive Thru","address":"6720 Clough Pike, Cincinnati, OH 45244","lat":39.098759,"lng":-84.368524,"bar/restaurant or carry-out":"carry-out"},
{"company":"Eastside Café ","address":"671 Ohio Pike, Withamsville, OH 45245","lat":39.06456,"lng":-84.289908,"bar/restaurant or carry-out":"bar/restaurant"},
{"company":"Ameristop-Liberty Twp","address":"6583 Cin-Day Rd., Middletown, OH 45044","lat":39.515058,"lng":-84.398276,"bar/restaurant or carry-out":"carry-out"},
{"company":"Miami Valley Wine-Brandt Pike","address":"6565 Brandt Pike, Huber Heights, OH 45424","lat":39.848159,"lng":-84.113306,"bar/restaurant or carry-out":"carry-out"},
{"company":"Ameristore","address":"6545 Harrison Ave. 1st Floor, Cincinnati, OH 45247","lat":39.193646,"lng":-84.660148,"bar/restaurant or carry-out":"carry-out"},
{"company":"Bucketheads","address":"6507 Harrison Ave., Cincinnati, OH 45247","lat":39.191866,"lng":-84.660019,"bar/restaurant or carry-out":"bar/restaurant"},
{"company":"Walgreens - Troy Pike","address":"6495 Old Troy Pike, Huber Heights, OH 45242","lat":39.848041,"lng":-84.139661,"bar/restaurant or carry-out":"carry-out"},
{"company":"Honk-N-Hollar","address":"649 N. Detroit St. Hwy 68, Xenia, OH 45385","lat":39.684782,"lng":-83.929653,"bar/restaurant or carry-out":"carry-out"},
{"company":"Kroger 935 - Bellbrook","address":"6480 Wilmington Pike, Centerville, OH 45459","lat":39.639872,"lng":-84.108588,"bar/restaurant or carry-out":"carry-out"},
{"company":"Jtaps Bar & Grill ","address":"6441 Glenway Ave., Cincinnati, OH 45211","lat":39.150779,"lng":-84.628256,"bar/restaurant or carry-out":"bar/restaurant"},
{"company":"Righteous Room ","address":"641 Walnut St, Cincinnati, OH 45202","lat":39.103652,"lng":-84.512228,"bar/restaurant or carry-out":"bar/restaurant"},
{"company":"Mama Vitas ","address":"6405 Branch Hill Guinea Pike, Loveland, OH 45140","lat":39.230519,"lng":-84.259069,"bar/restaurant or carry-out":"bar/restaurant"},
{"company":"Salem Gardens ","address":"6396 Salem Rd., Cincinnati, OH 45230","lat":39.074954,"lng":-84.383119,"bar/restaurant or carry-out":"bar/restaurant"},
{"company":"Marathon - Mason","address":"6391 Reading Rd., Mason, OH 45040","lat":39.346827,"lng":-84.329933,"bar/restaurant or carry-out":"carry-out"},
{"company":"Kroger 435 - Branch Hill","address":"6388 Branch Hill Guinea Pike, Loveland, OH 45140","lat":39.229041,"lng":-84.255988,"bar/restaurant or carry-out":"carry-out"},
{"company":"Western Bowl","address":"6383 Glenway Ave., Cincinnati, OH 45211","lat":39.148658,"lng":-84.628787,"bar/restaurant or carry-out":"bar/restaurant"},
{"company":"Willie's Sports Café -Western Hills ","address":"6380 Glenway Ave., Cincinnati, OH 45211","lat":39.149449,"lng":-84.626546,"bar/restaurant or carry-out":"bar/restaurant"},
{"company":"JP's Food Mart","address":"6380 Branch Hill-Guinea Pike, Cincinnati, OH 45140","lat":39.241139,"lng":-84.248952,"bar/restaurant or carry-out":"carry-out"},
{"company":"Ameristop - Fairfield","address":"6330 Pleasant Ave., Fairfield, OH 45014","lat":39.310253,"lng":-84.561558,"bar/restaurant or carry-out":"carry-out"},
{"company":"Piqua Beverage Center","address":"633 W High ST, Piqua, OH 45356","lat":40.148223,"lng":-84.248179,"bar/restaurant or carry-out":"carry-out"},
{"company":"Mac's Pizza Pub - Fairfax ","address":"6309 Wooster Pike, Cincinnati, OH 45227","lat":39.14307,"lng":-84.386336,"bar/restaurant or carry-out":"bar/restaurant"},
{"company":"Ameristop - Wooster Pike","address":"6300 Wooster Pike, Cincinnati, OH 45227","lat":39.143723,"lng":-84.386783,"bar/restaurant or carry-out":"carry-out"},
{"company":"Double Tree Suites Bistro - Blue Ash","address":"6300 E. Kemper Rd., Delver back dock by dumpster, OH 45241","lat":39.279883,"lng":-84.406761,"bar/restaurant or carry-out":"bar/restaurant"},
{"company":"Nicholson's Pub ","address":"625 Walnut Street, Cincinnati, OH 45202","lat":39.103304,"lng":-84.512594,"bar/restaurant or carry-out":"bar/restaurant"},
{"company":"Xenia Liquors","address":"623 W 2nd St., Xenia, OH 45385","lat":39.682788,"lng":-83.939764,"bar/restaurant or carry-out":"carry-out"},
{"company":"Sunoco - Bethel","address":"622 W. Plane St., Bethel, OH 45106","lat":38.965015,"lng":-84.090125,"bar/restaurant or carry-out":"carry-out"},
{"company":"Walgreens - Montgomery Rd.","address":"6204 Montgomery Rd., Cincinnati, OH 45213","lat":39.183162,"lng":-84.425017,"bar/restaurant or carry-out":"carry-out"},
{"company":"Marty's Corner Store","address":"6203 Branch Hill Guinea Pike, Milford, OH 45150","lat":39.214431,"lng":-84.240659,"bar/restaurant or carry-out":"carry-out"},
{"company":"Stone Creek Dining - West Chester ","address":"6200 Muhlhauser Rd, West Chester, OH 45069","lat":39.325654,"lng":-84.427367,"bar/restaurant or carry-out":"bar/restaurant"},
{"company":"Scene 75","address":"6196 Poe Ave., Vandalia, OH 45414","lat":39.837343,"lng":-84.187066,"bar/restaurant or carry-out":"bar/restaurant"},
{"company":"Cincinnati Marriott North","address":"6189 Mulhauser Rd., West Chester, OH 45069","lat":39.320615,"lng":-84.43034,"bar/restaurant or carry-out":"bar/restaurant"},
{"company":"Dorothy Lane - Washington Sq.","address":"6177 Far Hills Ave., Dayton, OH 45459","lat":39.655748,"lng":-84.157286,"bar/restaurant or carry-out":"carry-out"},
{"company":"Kroger 948 - Glenway","address":"6165 Glenway Ave, Cincinnati, OH 45211","lat":39.142234,"lng":-84.619422,"bar/restaurant or carry-out":"carry-out"},
{"company":"BP - Blue Ash","address":"6151 Pfeiffer Rd., Blue Ash, OH 45242","lat":39.249412,"lng":-84.367748,"bar/restaurant or carry-out":"carry-out"},
{"company":"Arrow - 725","address":"615 Lyons Rd., Dayton, OH 45459","lat":39.63076,"lng":-84.188835,"bar/restaurant or carry-out":"carry-out"},
{"company":"Hatting's Super Market","address":"6148 Bridgetown Rd., Cincinnati, OH 45248","lat":39.157147,"lng":-84.650813,"bar/restaurant or carry-out":"carry-out"},
{"company":"BP - Pleasant Ridge","address":"6135 Montgomery Rd, Cincinnati, OH 45213","lat":39.183628,"lng":-84.425658,"bar/restaurant or carry-out":"carry-out"},
{"company":"Winton Food Mart","address":"6120 Winton Rd., Fairfield, OH 45014","lat":39.313707,"lng":-84.541334,"bar/restaurant or carry-out":"carry-out"},
{"company":"Molly Malone's ","address":"6111 Montgomery Rd., Cincinnati, OH 45213","lat":39.182561,"lng":-84.426866,"bar/restaurant or carry-out":"bar/restaurant"},
{"company":"Marty's Hops & Vines","address":"6110 Hamilton Ave, Cincinnati, OH 45224","lat":39.202192,"lng":-84.547316,"bar/restaurant or carry-out":"carry-out"},
{"company":"Gaslight Café ","address":"6104 Montgomery Rd, Cincinnati, OH 45213","lat":39.182054,"lng":-84.426896,"bar/restaurant or carry-out":"bar/restaurant"},
{"company":"Jay's Food Mart","address":"6100 Winton Rd., Fairfield, OH 45014","lat":39.314576,"lng":-84.541288,"bar/restaurant or carry-out":"carry-out"},
{"company":"Jeff's Marathon","address":"6094 Bridgetown Rd., Cincinnati, OH 45248","lat":39.158163,"lng":-84.64945,"bar/restaurant or carry-out":"carry-out"},
{"company":"Metropole at 21C ","address":"609 Walnut St., Cincinnati, OH 45202","lat":39.103172,"lng":-84.512491,"bar/restaurant or carry-out":"bar/restaurant"},
{"company":"Pleasant Hour Café ","address":"6083 Montgomery Rd., Cincinnati, OH 45213","lat":39.18222,"lng":-84.42807,"bar/restaurant or carry-out":"bar/restaurant"},
{"company":"Fine Wine & True Spirits","address":"6080 Wilmington Pike, Dayton, OH 45459","lat":39.652492,"lng":-84.109881,"bar/restaurant or carry-out":"carry-out"},
{"company":"Riversbend Wine & Spirits","address":"6052 S. State Route 48, Maineville, OH 45039","lat":39.35158,"lng":-84.219068,"bar/restaurant or carry-out":"carry-out"},
{"company":"Marathon - Cheviot","address":"6050 Cheviot Rd., Cincinnati, OH 45247","lat":39.203132,"lng":-84.59963,"bar/restaurant or carry-out":"carry-out"},
{"company":"2 Putt Tavern and Grill ","address":"6040 St. Rt. 48, Maineville, OH 45039","lat":39.315059,"lng":-84.22077,"bar/restaurant or carry-out":"bar/restaurant"},
{"company":"White Oak Deli","address":"6035 Cheviot Rd., Cincinnati, OH 45247","lat":39.202881,"lng":-84.600179,"bar/restaurant or carry-out":"carry-out"},
{"company":"Walgreens - Race St.","address":"601 Race St., Cincinnati, OH 45202","lat":39.102333,"lng":-84.51509,"bar/restaurant or carry-out":"carry-out"},
{"company":"Nada ","address":"600 Walnut St, Cincinnati, OH 45202","lat":39.102969,"lng":-84.511412,"bar/restaurant or carry-out":"bar/restaurant"},
{"company":"Bee Gee's","address":"5995 Bigger Rd., Kettering, OH 45440","lat":39.658326,"lng":-84.127424,"bar/restaurant or carry-out":"bar/restaurant"},
{"company":"Shell - Werk Rd.","address":"5984 Glenway Ave., Cincinnati, OH 45238","lat":39.14101,"lng":-84.617919,"bar/restaurant or carry-out":"carry-out"},
{"company":"Relish Fusion Tapas ","address":"5947 Deerfield Blvd., Mason, OH 45040","lat":39.30782,"lng":-84.320385,"bar/restaurant or carry-out":"bar/restaurant"},
{"company":"Nativity Parish ","address":"5935 Pandora Ave, Cincinnati, OH 45213","lat":39.180424,"lng":-84.426952,"bar/restaurant or carry-out":"bar/restaurant"},
{"company":"Browndog Café ","address":"5893 Pfeiffer Rd., Blue Ash, OH 45242","lat":39.249344,"lng":-84.365106,"bar/restaurant or carry-out":"bar/restaurant"},
{"company":"Piazza Discepoli - White Oak","address":"5872 Cheviot Road, Cincinnati, OH 45247","lat":39.200248,"lng":-84.600752,"bar/restaurant or carry-out":"carry-out"},
{"company":"Langen Meats","address":"5855 Cheviot Rd., Cincinnati, OH 45247","lat":39.199799,"lng":-84.601097,"bar/restaurant or carry-out":"carry-out"},
{"company":"Rumbleseat Wine","address":"5853 Far Hills Ave, Dayton, OH 45429","lat":39.661134,"lng":-84.158663,"bar/restaurant or carry-out":"bar/restaurant"},
{"company":"Kroger 436 - Harrison Rd.","address":"5830 Harrison Rd, Cincinnati, OH 45248","lat":39.17299,"lng":-84.64056,"bar/restaurant or carry-out":"carry-out"},
{"company":"Larry's Convenient Store","address":"5810 Cheviot Rd., Cincinnati, OH 45247","lat":39.199483,"lng":-84.600884,"bar/restaurant or carry-out":"carry-out"},
{"company":"Whole Foods - Mason","address":"5805 Deerfield Blvd., Mason, OH 45040","lat":39.307662,"lng":-84.3164,"bar/restaurant or carry-out":"carry-out"},
{"company":"Tropics","address":"580 Lincoln Park Blvd, Kettering, OH 45429","lat":39.696221,"lng":-84.158653,"bar/restaurant or carry-out":"bar/restaurant"},
{"company":"Putter's - Milford ","address":"5723 Signal Hill Ct., Milford, OH 45150","lat":39.185861,"lng":-84.267056,"bar/restaurant or carry-out":"bar/restaurant"},
{"company":"Ameristop - Springdale Rd.","address":"5687 Springdale Rd., Cincinnati, OH 45247","lat":39.232856,"lng":-84.628007,"bar/restaurant or carry-out":"carry-out"},
{"company":"Brazenhead - Tylersville ","address":"5650 Tylersville Rd, Mason, OH 45040","lat":39.352126,"lng":-84.32263,"bar/restaurant or carry-out":"bar/restaurant"},
{"company":"Natalie's Coal Fired Pizza","address":"5593 N. High St., Worthington, OH 43085","lat":40.077001,"lng":-83.01875,"bar/restaurant or carry-out":"bar/restaurant"},
{"company":"TJ Chumps - Englewood","address":"559 S Main St., Englewood, OH 45322","lat":39.869827,"lng":-84.29492,"bar/restaurant or carry-out":"bar/restaurant"},
{"company":"Thirsty's Oasis ","address":"5589 S SR 741, Mason, OH 45040","lat":39.356115,"lng":-84.267216,"bar/restaurant or carry-out":"bar/restaurant"},
{"company":"Roosters - Huber Heights","address":"5571 Merily Way, Huber Heights, OH 45424","lat":39.867606,"lng":-84.136361,"bar/restaurant or carry-out":"bar/restaurant"},
{"company":"Ameristop Kings Mills","address":"5542 State Route 741, Mason, OH 45040","lat":39.357905,"lng":-84.268198,"bar/restaurant or carry-out":"carry-out"},
{"company":"Meadowlark cafe","address":"5531 farhills, Kettering, OH 45429","lat":39.666059,"lng":-84.162889,"bar/restaurant or carry-out":"bar/restaurant"},
{"company":"Hillside Gastropub ","address":"5510 Rybolt Rd., Cincinnati, OH 45248","lat":39.193987,"lng":-84.661442,"bar/restaurant or carry-out":"bar/restaurant"},
{"company":"Kroger 305 - Old St Rt","address":"550 Old St RTE 74, Cincinnati, OH 45244","lat":39.105607,"lng":-84.521521,"bar/restaurant or carry-out":"carry-out"},
{"company":"Buffalo Wings and Rings - Fairfield ","address":"5486 Dixie HWY, Fairfield, OH 45014","lat":39.334236,"lng":-84.52472,"bar/restaurant or carry-out":"bar/restaurant"},
{"company":"Tavern on the Bend ","address":"5471 North Bend Rd, Cincinnati, OH 45247","lat":39.190281,"lng":-84.600278,"bar/restaurant or carry-out":"bar/restaurant"},
{"company":"Norwood Drive Thru","address":"5463 Montgomery Rd., Cincinnati, OH 45212","lat":39.173683,"lng":-84.444407,"bar/restaurant or carry-out":"carry-out"},
{"company":"Jungle Jim's Fairfield","address":"5440 Dixie Hwy., Fairfield, OH 45014","lat":39.335751,"lng":-84.524303,"bar/restaurant or carry-out":"carry-out"},
{"company":"Smile Drive Thru","address":"5430 Glenway Ave., Cincinnati, OH 45238","lat":39.129452,"lng":-84.606465,"bar/restaurant or carry-out":"carry-out"},
{"company":"Shell - North Bend","address":"5394 North Bend Rd., Cincinnati, OH 45247","lat":39.187758,"lng":-84.602305,"bar/restaurant or carry-out":"carry-out"},
{"company":"Pour House- Centerville","address":"536 Centerville Miamisburg Rd, Centerville, OH 45459","lat":39.627825,"lng":-84.17344,"bar/restaurant or carry-out":"bar/restaurant"},
{"company":"Riddle Road Market","address":"533 Riddle Rd. #1, Cincinnati, OH 45220","lat":39.135595,"lng":-84.526185,"bar/restaurant or carry-out":"carry-out"},
{"company":"Kroger 826 - Kettering","address":"530 E Stroop Rd, Dayton, OH 45429","lat":39.689339,"lng":-84.162393,"bar/restaurant or carry-out":"carry-out"},
{"company":"Trolley Stop","address":"530 E 5th St., Dayton, OH 45402","lat":39.756899,"lng":-84.18275,"bar/restaurant or carry-out":"carry-out"},
{"company":"Columbus Brewing Co.","address":"525 Short St., Columbus, OH 43215","lat":39.950766,"lng":-83.003714,"bar/restaurant or carry-out":"bar/restaurant"},
{"company":"Old Bag of Nails Pub - Mason ","address":"5234 Kings Mills Rd., Mason, OH 45040","lat":39.356619,"lng":-84.280387,"bar/restaurant or carry-out":"bar/restaurant"},
{"company":"Indian Mound Cafe","address":"5226 Montgomery Rd., Norwood, OH 45212","lat":39.169641,"lng":-84.45014,"bar/restaurant or carry-out":"bar/restaurant"},
{"company":"Remke - Beechmont","address":"5218 Beechmont Ave., Cincinnati, OH 45230","lat":39.106955,"lng":-84.395436,"bar/restaurant or carry-out":"carry-out"},
{"company":"One Stop Party Shop","address":"5215 Delhi Pike, Cincinnati, OH 45238","lat":39.094314,"lng":-84.616131,"bar/restaurant or carry-out":"carry-out"},
{"company":"Kroger 426 - ST RT 741","address":"5210 State Route 741, Mason, OH 45040","lat":39.358538,"lng":-84.278144,"bar/restaurant or carry-out":"carry-out"},
{"company":"Mazunte","address":"5207 Madison Rd., Cincinnati, OH 45227","lat":39.161295,"lng":-84.405165,"bar/restaurant or carry-out":"bar/restaurant"},
{"company":"Via Vite ","address":"520 Vine Street, Cincinnati, OH 45202","lat":39.101898,"lng":-84.513027,"bar/restaurant or carry-out":"bar/restaurant"},
{"company":"Lucky's Taproom","address":"520 E. Fifth St., Dayton, OH 45402","lat":39.756814,"lng":-84.182959,"bar/restaurant or carry-out":"bar/restaurant"},
{"company":"Rapid Run Carryout","address":"5179 Rapid Run Rd., Cincinnati, OH 45238","lat":39.111323,"lng":-84.613046,"bar/restaurant or carry-out":"carry-out"},
{"company":"Gabby's Café ","address":"515 Wyoming Ave, Wyoming, OH 45215","lat":39.22691,"lng":-84.465177,"bar/restaurant or carry-out":"bar/restaurant"},
{"company":"Moon Market","address":"512-516 S. Locust St., Oxford, OH 45056","lat":39.505103,"lng":-84.749434,"bar/restaurant or carry-out":"carry-out"},
{"company":"Fox & Hound - Mason ","address":"5113 Bowen Dr., Mason, OH 45040","lat":39.311694,"lng":-84.314524,"bar/restaurant or carry-out":"bar/restaurant"},
{"company":"Kroger 448 - Mason","address":"5100 Terra Firma Dr Store#448, Mason, OH 45040","lat":39.360059,"lng":-84.309939,"bar/restaurant or carry-out":"carry-out"},
{"company":"Kroger 944 - Delhi Pike","address":"5080 Delhi Pike, Cincinnati, OH 45238","lat":39.094888,"lng":-84.612961,"bar/restaurant or carry-out":"carry-out"},
{"company":"Remke - Western Hills","address":"5071 Glencrossing Way, Cincinnati, OH 45238","lat":39.12991,"lng":-84.612396,"bar/restaurant or carry-out":"carry-out"},
{"company":"Residence Inn - Cincinnati ","address":"506 E. 4th St., Cincinnati, OH 45202","lat":39.101439,"lng":-84.504435,"bar/restaurant or carry-out":"bar/restaurant"},
{"company":"Rusty Bucket - Mason ","address":"5035 Deerfield Blvd., Mason, OH 45040","lat":39.307804,"lng":-84.31476,"bar/restaurant or carry-out":"bar/restaurant"},
{"company":"World of Beer - Brewery District","address":"503 South Front Street, Columbus, OH 43215","lat":39.951417,"lng":-83.001039,"bar/restaurant or carry-out":"bar/restaurant"},
{"company":"Remke - Delhi","address":"5025 Delhi Rd., Cincinnati, OH 45238","lat":39.095186,"lng":-84.610423,"bar/restaurant or carry-out":"carry-out"},
{"company":"Red Robin - Mason ","address":"5013 Bowen Dr., Mason, OH 45040","lat":39.310546,"lng":-84.314735,"bar/restaurant or carry-out":"bar/restaurant"},
{"company":"Walgreens - Huber Heights","address":"5000 Brandt Pike, Huber Heights, OH 45424","lat":39.825885,"lng":-84.12174,"bar/restaurant or carry-out":"carry-out"},
{"company":"Village Keg","address":"5 Enfield St., Greenhills, OH 45218","lat":39.26978,"lng":-84.521473,"bar/restaurant or carry-out":"carry-out"},
{"company":"Bob's Bar","address":"4961 N High st, Columbus, OH 43214","lat":40.065097,"lng":-83.019367,"bar/restaurant or carry-out":"bar/restaurant"},
{"company":"Ale House/Don's Carryout","address":"4956 Springboro Rd., Moraine, OH 45439","lat":39.710058,"lng":-84.216946,"bar/restaurant or carry-out":"carry-out"},
{"company":"Casa Bianca ","address":"4940 Muhlhauser Rd., Cincinnati, OH 45246","lat":39.316889,"lng":-84.454797,"bar/restaurant or carry-out":"bar/restaurant"},
{"company":"Price Hill Chili","address":"4920 Glenway Ave., Cincinnati, OH 45238","lat":39.119136,"lng":-84.599475,"bar/restaurant or carry-out":"bar/restaurant"},
{"company":"Brewhouse Drive Thru","address":"488 E Broadway, Covington, OH 45318","lat":40.122487,"lng":-84.346524,"bar/restaurant or carry-out":"carry-out"},
{"company":"Troy's Cafe & Catering ","address":"4877 Smith Rd, West Chester, OH 45069","lat":39.35102,"lng":-84.453735,"bar/restaurant or carry-out":"bar/restaurant"},
{"company":"Slatt's ","address":"4858 Cooper Rd, Blue Ash, OH 45242","lat":39.231023,"lng":-84.376281,"bar/restaurant or carry-out":"bar/restaurant"},
{"company":"Firehouse Grill ","address":"4785 Lake Forest Dr., Blue Ash, OH 45242","lat":39.251712,"lng":-84.378355,"bar/restaurant or carry-out":"bar/restaurant"},
{"company":"Kroger 428 - Kenard","address":"4777 Kenard Ave., Cincinnati, OH 45232","lat":39.164238,"lng":-84.514394,"bar/restaurant or carry-out":"carry-out"},
{"company":"Sammy's - Blue Ash","address":"4767 Creek Rd., Blue Ash, OH 45242","lat":39.257912,"lng":-84.375146,"bar/restaurant or carry-out":"bar/restaurant"},
{"company":"Pick N Go","address":"4746 Spring Grove Ave., Cincinnati, OH 45232","lat":39.165488,"lng":-84.514535,"bar/restaurant or carry-out":"carry-out"},
{"company":"Market, The","address":"4726 Wilmington Pike, Dayton, OH 45440","lat":39.674711,"lng":-84.116191,"bar/restaurant or carry-out":"carry-out"},
{"company":"Shaddocks Market","address":"4713 Central Ave., Middletown, OH 45042","lat":39.5105,"lng":-84.344706,"bar/restaurant or carry-out":"carry-out"},
{"company":"Terry's Turf Club ","address":"4618 Eastern Ave, Cincinnati, OH 45226","lat":39.118278,"lng":-84.419264,"bar/restaurant or carry-out":"bar/restaurant"},
{"company":"Sandbar, The ","address":"4609 Kellogg Ave, Cincinnati, OH 45226","lat":39.085284,"lng":-84.427714,"bar/restaurant or carry-out":"bar/restaurant"},
{"company":"Comet, The ","address":"4579 Hamilton Ave., Cincinnati, OH 45223","lat":39.17274,"lng":-84.543136,"bar/restaurant or carry-out":"bar/restaurant"},
{"company":"Embassy Suites - Blue Ash","address":"4554 Lake Forest Dr, Blue Ash, OH 45242","lat":39.254689,"lng":-84.381661,"bar/restaurant or carry-out":"bar/restaurant"},
{"company":"Crows Nest ","address":"4544 W 8th St., Cincinnati, OH 45238","lat":39.109421,"lng":-84.600966,"bar/restaurant or carry-out":"bar/restaurant"},
{"company":"Kroger 902 - Eastgate","address":"4530 Eastgate Blvd, Cincinnati, OH 45245","lat":39.103088,"lng":-84.271893,"bar/restaurant or carry-out":"carry-out"},
{"company":"Kroger 754 - Brandt Pike","address":"4506 Brandt Pike, Dayton, OH 45424","lat":39.817536,"lng":-84.125437,"bar/restaurant or carry-out":"carry-out"},
{"company":"Kroger 418 - Norwood","address":"4500 Montgomery Rd., Norwood, OH 45212","lat":39.158617,"lng":-84.457332,"bar/restaurant or carry-out":"carry-out"},
{"company":"Kroger 431 - Cherry Grove","address":"450 Ohio Pike SR 125, Cincinnati, OH 45255","lat":38.855116,"lng":-83.855376,"bar/restaurant or carry-out":"carry-out"},
{"company":"45 East - Oxford ","address":"45 East High St, Oxford, OH 45056","lat":39.510126,"lng":-84.741072,"bar/restaurant or carry-out":"bar/restaurant"},
{"company":"Wild Mike's - Green Township ","address":"4498 Harrison Ave., Cincinnati, OH 45211","lat":39.16428,"lng":-84.630112,"bar/restaurant or carry-out":"bar/restaurant"},
{"company":"Marathon - Bellbrook","address":"4491 State Route 725, Bellbrook, OH 45305","lat":39.63795,"lng":-84.110935,"bar/restaurant or carry-out":"carry-out"},
{"company":"Jungle Jims - Eastgate","address":"4450 Eastgate South Drive, Cincinnati, OH 45245","lat":39.095927,"lng":-84.270897,"bar/restaurant or carry-out":"carry-out"},
{"company":"Bell Event Center ","address":"444 Reading Rd., Cincinnati, OH 45202","lat":39.108897,"lng":-84.507006,"bar/restaurant or carry-out":"bar/restaurant"},
{"company":"Eisers Drive Thru","address":"4403 Verne Ave, Cincinnati, OH 45209","lat":39.155817,"lng":-84.43212,"bar/restaurant or carry-out":"carry-out"},
{"company":"Jimmy G's ","address":"435 Elm St., Cincinnati, OH 45205","lat":39.100465,"lng":-84.516313,"bar/restaurant or carry-out":"bar/restaurant"},
{"company":"Vyrsd","address":"435 Elm St., Cincinnati, OH 45205","lat":39.100147,"lng":-84.516275,"bar/restaurant or carry-out":"bar/restaurant"},
{"company":"Gordo's Pub & Grill ","address":"4328 Montgomery Rd., Cincinnati, OH 45212","lat":39.156311,"lng":-84.458742,"bar/restaurant or carry-out":"bar/restaurant"},
{"company":"Blind Bobs","address":"430 E Fifth Street, Dayton, OH 45402","lat":39.75691,"lng":-84.184699,"bar/restaurant or carry-out":"bar/restaurant"},
{"company":"Delta Snack Shack ","address":"430 Delta Ave, Cincinnati, OH 45226","lat":39.118383,"lng":-84.438444,"bar/restaurant or carry-out":"bar/restaurant"},
{"company":"Charlie's Import Food & Beer","address":"429 Troy St, Dayton, OH 45404","lat":39.775406,"lng":-84.174971,"bar/restaurant or carry-out":"carry-out"},
{"company":"Exxon - Mt. Carmel","address":"4248 Mt. Carmel Tabasco Rd., Cincinnati, OH 45244","lat":39.130723,"lng":-84.322649,"bar/restaurant or carry-out":"carry-out"},
{"company":"Plum St. Café ","address":"423 Plum St., Cincinnati, OH 45202","lat":39.103238,"lng":-84.518489,"bar/restaurant or carry-out":"bar/restaurant"},
{"company":"Mayday Bar ","address":"4227-31 Spring Grove Ave, Cincinnati, OH 45223","lat":39.159878,"lng":-84.532678,"bar/restaurant or carry-out":"bar/restaurant"},
{"company":"Bob's 8th St. Drive Thru","address":"4209 W. 8th St., Cincinnati, OH 45205","lat":39.106927,"lng":-84.589282,"bar/restaurant or carry-out":"carry-out"},
{"company":"Winner's Market","address":"4203 Kirby Ave., Cincinnati, OH 45223","lat":39.164707,"lng":-84.547724,"bar/restaurant or carry-out":"carry-out"},
{"company":"Billie's","address":"4203 Delhi Pike, Cincinnati, OH 45238","lat":39.09521,"lng":-84.590847,"bar/restaurant or carry-out":"bar/restaurant"},
{"company":"Marathon - Northside","address":"4200 Kirby Ave., Cincinnati, OH 45223","lat":39.164717,"lng":-84.547072,"bar/restaurant or carry-out":"carry-out"},
{"company":"Parker's Blue Ash Grill ","address":"4200 Cooper Rd, Blue Ash, OH 45242","lat":39.238155,"lng":-84.391383,"bar/restaurant or carry-out":"bar/restaurant"},
{"company":"Village Wine Cellars ","address":"42 E Mulberry St, Lebanon, OH 45036","lat":39.434475,"lng":-84.207238,"bar/restaurant or carry-out":"bar/restaurant"},
{"company":"Northside Tavern ","address":"4163 Hamilton Ave, Cincinnati, OH 45223","lat":39.162414,"lng":-84.540184,"bar/restaurant or carry-out":"bar/restaurant"},
{"company":"5th St. Wine & Deli","address":"416 E 5th St., Dayton, OH 45402","lat":39.756885,"lng":-84.185155,"bar/restaurant or carry-out":"bar/restaurant"},
{"company":"Smoke n Save","address":"415 Sycamore St., New Richmond, OH 45157","lat":38.955025,"lng":-84.282241,"bar/restaurant or carry-out":"carry-out"},
{"company":"Quik Pik - 3 COPIES!!!!","address":"4145 Montgomery Rd., Cincinnati, OH 45212","lat":39.15497,"lng":-84.460524,"bar/restaurant or carry-out":"carry-out"},
{"company":"Local127 ","address":"413 Vine St, Cincinnati, OH 45202","lat":39.10043,"lng":-84.512939,"bar/restaurant or carry-out":"bar/restaurant"},
{"company":"Listing Loon, The","address":"4124 Hamilton Ave., Cincinnati, OH 45223","lat":39.161009,"lng":-84.539267,"bar/restaurant or carry-out":"carry-out"},
{"company":"Chamellion ","address":"4114 Hamilton Ave, Cincinnati, OH 45233","lat":39.160742,"lng":-84.539082,"bar/restaurant or carry-out":"bar/restaurant"},
{"company":"Ruth's Parkside Café ","address":"4101 Spring Grove Ave., Cincinnati, OH 45223","lat":39.160302,"lng":-84.53716,"bar/restaurant or carry-out":"bar/restaurant"},
{"company":"Kroger 942 - Blue Ash","address":"4100 Hunt Rd, Blue Ash, OH 45236","lat":39.226934,"lng":-84.397488,"bar/restaurant or carry-out":"carry-out"},
{"company":"The Junction","address":"41 N. Court St., Athens, OH 44256","lat":39.330528,"lng":-82.101085,"bar/restaurant or carry-out":"carry-out"},
{"company":"Django ","address":"4046 Hamilton Ave., Cincinnati, OH 45223","lat":39.160055,"lng":-84.539254,"bar/restaurant or carry-out":"bar/restaurant"},
{"company":"Bistro Grace ","address":"4034 Hamilton Ave., Cincinnati, OH 45223","lat":39.159504,"lng":-84.539099,"bar/restaurant or carry-out":"bar/restaurant"},
{"company":"City View Tavern","address":"403 Oregon St., Cincinnati, OH 45202","lat":39.106009,"lng":-84.501076,"bar/restaurant or carry-out":"bar/restaurant"},
{"company":"Tacocracy ","address":"4029 Hamilton Ave., Cincinnati, OH 45223","lat":39.15915,"lng":-84.539446,"bar/restaurant or carry-out":"bar/restaurant"},
{"company":"Little Chicago ","address":"402 Clark St., Middletown, OH 45044","lat":39.519229,"lng":-84.396979,"bar/restaurant or carry-out":"bar/restaurant"},
{"company":"Beer Barn","address":"4017 Indian Ripple Rd., Dayton, OH 45440","lat":39.694885,"lng":-84.085596,"bar/restaurant or carry-out":"bar/restaurant"},
{"company":"Oakley Wines","address":"4011 Allston St., Cincinnati, OH 45209","lat":39.151968,"lng":-84.433207,"bar/restaurant or carry-out":"carry-out"},
{"company":"DiStasi's Restaurant & Banquet Center ","address":"400 Wyoming Avenue, Wyoming, OH 45215","lat":39.227577,"lng":-84.466455,"bar/restaurant or carry-out":"bar/restaurant"},
{"company":"Coldstream Country Club","address":"400 Asbury Rd., Cincinnati, OH 45230","lat":39.048071,"lng":-84.346715,"bar/restaurant or carry-out":"bar/restaurant"},
{"company":"Iron Horse ","address":"40 Village Square, Cincinnati, OH 45246","lat":39.27162,"lng":-84.459091,"bar/restaurant or carry-out":"bar/restaurant"},
{"company":"BP - Yellow Springs","address":"4 Xenia Ave, Yellow Springs, OH 45387","lat":39.806381,"lng":-83.888747,"bar/restaurant or carry-out":"carry-out"},
{"company":"Tuty's Inn","address":"3982 Colonel Glenn Hwy, Beavercreek, OH 45324","lat":39.775253,"lng":-84.078973,"bar/restaurant or carry-out":"bar/restaurant"},
{"company":"Shell - Hyde Park","address":"3980 Erie Ave., Cincinnati, OH 45208","lat":39.14979,"lng":-84.407541,"bar/restaurant or carry-out":"carry-out"},
{"company":"Wine Merchant","address":"3972 Edwards Rd, Cincinnati, OH 45209","lat":39.152059,"lng":-84.442115,"bar/restaurant or carry-out":"carry-out"},
{"company":"Crest Tavern","address":"397 Crestview Rd., Columbus, OH 43202","lat":40.021916,"lng":-83.002212,"bar/restaurant or carry-out":"bar/restaurant"},
{"company":"Shell - Shroyer Rd.","address":"3960 Far Hills Ave., Kettering, OH 45429","lat":39.690017,"lng":-84.168326,"bar/restaurant or carry-out":"carry-out"},
{"company":"Dillonvale IGA","address":"3950 E. Galbraith Rd, Cincinnati, OH 45236","lat":39.208704,"lng":-84.402325,"bar/restaurant or carry-out":"carry-out"},
{"company":"Flipside and Patio","address":"3945 Easton Station, Columbus, OH 43219","lat":40.049868,"lng":-82.915496,"bar/restaurant or carry-out":"bar/restaurant"},
{"company":"World of Beer - Easton","address":"3934 Townsfair Way, Columbus, OH 43219","lat":40.049102,"lng":-82.916871,"bar/restaurant or carry-out":"bar/restaurant"},
{"company":"Oakley Pub ","address":"3924 Isabella, Cincinnati, OH 45209","lat":39.151137,"lng":-84.432241,"bar/restaurant or carry-out":"bar/restaurant"},
{"company":"Mama Mimi's - Oakley ","address":"3923 Isabella Ave., Cincinnati, OH 45209","lat":39.150982,"lng":-84.432292,"bar/restaurant or carry-out":"bar/restaurant"},
{"company":"Larry's Food Mart - Stephenson Oil Company","address":"3920 Wade Mill Rd., Hamilton, OH 45014","lat":39.320789,"lng":-84.639634,"bar/restaurant or carry-out":"carry-out"},
{"company":"Irish Heritage Center","address":"3905 Eastern Ave., Cincinnati, OH 45226","lat":39.109991,"lng":-84.433924,"bar/restaurant or carry-out":"carry-out"},
{"company":"Remke- Hyde Park","address":"3872 Paxton Avenue, Cincinnati, OH 45209","lat":39.145987,"lng":-84.430102,"bar/restaurant or carry-out":"carry-out"},
{"company":"Halls Corner Carryout","address":"3851 Kemp Rd, Beavercreek, OH 45431","lat":39.756573,"lng":-84.075863,"bar/restaurant or carry-out":"carry-out"},
{"company":"Capital Grille - Norwood","address":"3821 Edwards Rd., Norwood, OH 45209","lat":39.148933,"lng":-84.442861,"bar/restaurant or carry-out":"bar/restaurant"},
{"company":"Black Sheep Public House ","address":"3807 N. Bend Rd., Cheviot, OH 45211","lat":39.155761,"lng":-84.606422,"bar/restaurant or carry-out":"bar/restaurant"},
{"company":"Shell - Newtown","address":"3804 Church St., Newtown, OH 45244","lat":39.131053,"lng":-84.356781,"bar/restaurant or carry-out":"carry-out"},
{"company":"Sullivan's Family Foods Inc.","address":"3803 Shady Lane, North Bend, OH 45052","lat":39.164716,"lng":-84.699595,"bar/restaurant or carry-out":"carry-out"},
{"company":"Ryan's Pub","address":"3800 Victory Pkwy, Cincinnati, OH 45207","lat":39.148936,"lng":-84.479575,"bar/restaurant or carry-out":"bar/restaurant"},
{"company":"Scoreboard ","address":"3783 Shady Lane, North Bend, OH 45052","lat":39.164008,"lng":-84.699674,"bar/restaurant or carry-out":"bar/restaurant"},
{"company":"Kirby's ","address":"378 Bridge St., Loveland, OH 45140","lat":39.246312,"lng":-84.292997,"bar/restaurant or carry-out":"bar/restaurant"},
{"company":"Betta's Italian Oven ","address":"3764 Montgomery Rd., Cincinnati, OH 45212","lat":39.148127,"lng":-84.465774,"bar/restaurant or carry-out":"bar/restaurant"},
{"company":"Kroger 355 - Hyde Park","address":"3760 Paxton Ave, Cincinnati, OH 45209","lat":39.144519,"lng":-84.430121,"bar/restaurant or carry-out":"carry-out"},
{"company":"Roswells Bar ","address":"3735 Glenmore Ave., Cheviot, OH 45211","lat":39.155865,"lng":-84.611487,"bar/restaurant or carry-out":"bar/restaurant"},
{"company":"Dean's Hops & Vines","address":"3722 Harrison Ave., Cincinnati, OH 45211","lat":39.156645,"lng":-84.612141,"bar/restaurant or carry-out":"bar/restaurant"},
{"company":"Beef O'Brady's - Springdale ","address":"370 Glensprings Dr., Springdale, OH 45246","lat":39.292651,"lng":-84.48592,"bar/restaurant or carry-out":"bar/restaurant"},
{"company":"Champions ","address":"3670 Werk Rd., Cincinnati, OH 45238","lat":39.14424,"lng":-84.626323,"bar/restaurant or carry-out":"bar/restaurant"},
{"company":"Pirates Den ","address":"3670 Werk Rd., Cincinnati, OH 45238","lat":39.14424,"lng":-84.626323,"bar/restaurant or carry-out":"bar/restaurant"},
{"company":"Whole Foods - Columbus","address":"3670 W Dublin Granville Rd, Columbus, OH 43235","lat":40.094918,"lng":-83.087497,"bar/restaurant or carry-out":"carry-out"},
{"company":"Jeff's Quick Stop","address":"367 Bridge St., Loveland, OH 45140","lat":39.246217,"lng":-84.293776,"bar/restaurant or carry-out":"carry-out"},
{"company":"City Beverage Drive-Thru","address":"3661 Shaw Ave., Cincinnati, OH 45208","lat":39.144444,"lng":-84.439906,"bar/restaurant or carry-out":"carry-out"},
{"company":"LaRosa's - Colerain ","address":"3657 Stonecreek Blvd, Cincinnati, OH 45251","lat":39.252935,"lng":-84.600249,"bar/restaurant or carry-out":"bar/restaurant"},
{"company":"Fogarty's ","address":"3620 Harrison Ave., Cheviot, OH 45211","lat":39.156109,"lng":-84.610067,"bar/restaurant or carry-out":"bar/restaurant"},
{"company":"Game Time Sports Bar Grille ","address":"3613 Harrison Ave, Cincinnati, OH 45211","lat":39.155994,"lng":-84.609704,"bar/restaurant or carry-out":"bar/restaurant"},
{"company":"Rootie's ","address":"3609 Harrison Rd., Cheviot, OH 45211","lat":39.155847,"lng":-84.609659,"bar/restaurant or carry-out":"bar/restaurant"},
{"company":"Habanero ","address":"358 Ludlow Ave., Cincinnati, OH 45220","lat":39.143867,"lng":-84.521795,"bar/restaurant or carry-out":"bar/restaurant"},
{"company":"Marathon - Kremer","address":"3579 Miamisburg Centerville Rd., West Carrollton, OH 45449","lat":39.641175,"lng":-84.235703,"bar/restaurant or carry-out":"carry-out"},
{"company":"Buz / Green Dog Café ","address":"3543 Columbia Pkwy, Cincinnati, OH 45226","lat":39.115391,"lng":-84.43808,"bar/restaurant or carry-out":"bar/restaurant"},
{"company":"Allyn's Café ","address":"3538 Columbia Parkway, Cincinnati, OH 45226","lat":39.116498,"lng":-84.437585,"bar/restaurant or carry-out":"bar/restaurant"},
{"company":"The M","address":"3520 Erie Ave, Cincinnati, OH 45208","lat":39.141223,"lng":-84.418493,"bar/restaurant or carry-out":"bar/restaurant"},
{"company":"Arthur's ","address":"3518 Edwards Rd., Cincinnati, OH 45208","lat":39.140292,"lng":-84.443184,"bar/restaurant or carry-out":"bar/restaurant"},
{"company":"Hap's Irish Pub","address":"3510 Erie Ave., Cincinnati, OH 45208","lat":39.14138,"lng":-84.418689,"bar/restaurant or carry-out":"bar/restaurant"},
{"company":"Vandalia Carryout","address":"351 E. National Rd., Vandalia, OH 45377","lat":39.89127,"lng":-84.19331,"bar/restaurant or carry-out":"carry-out"},
{"company":"Trotta's Pizza & Drive Thru ","address":"3501 Werk Rd., Cincinnati, OH 45248","lat":39.141011,"lng":-84.618885,"bar/restaurant or carry-out":"bar/restaurant"},
{"company":"Tostados Grill","address":"3500 Eastern Ave., Cincinnati, OH 45226","lat":39.116518,"lng":-84.439344,"bar/restaurant or carry-out":"bar/restaurant"},
{"company":"Ravine Market","address":"350 Warner St., Cincinnati, OH 45219","lat":39.125313,"lng":-84.525626,"bar/restaurant or carry-out":"carry-out"},
{"company":"Tina's ","address":"350 W 4th St, Cincinnati, OH 45202","lat":39.0991,"lng":-84.518462,"bar/restaurant or carry-out":"bar/restaurant"},
{"company":"Hilton Netherland Plaza - Cincinnati ","address":"35 West 5th St., Cincinnati, OH 45202","lat":39.100977,"lng":-84.514206,"bar/restaurant or carry-out":"bar/restaurant"},
{"company":"Kroger 370 - N. Bend","address":"3491 N. Bend Rd., Cincinnati, OH 45239","lat":39.190033,"lng":-84.59957,"bar/restaurant or carry-out":"carry-out"},
{"company":"Ambiance Wine Bar","address":"345 S Main St., Springboro, OH 45066","lat":39.552635,"lng":-84.233823,"bar/restaurant or carry-out":"bar/restaurant"},
{"company":"Liquor & Wine Warehouse","address":"3440 York Commons Blvd., Dayton, OH 45414","lat":39.844633,"lng":-84.196797,"bar/restaurant or carry-out":"carry-out"},
{"company":"Ludlow Wines","address":"343 Ludlow Ave, Cincinnati, OH 45220","lat":39.143547,"lng":-84.521175,"bar/restaurant or carry-out":"carry-out"},
{"company":"Kroger 441 - Towne Blvd","address":"3420 Towne Blvd, Middletown, OH 45005","lat":39.495227,"lng":-84.327808,"bar/restaurant or carry-out":"carry-out"},
{"company":"Olives @Ludlow Garage ","address":"342 Ludlow ave, Cincinnati, OH 45220","lat":39.144088,"lng":-84.521274,"bar/restaurant or carry-out":"bar/restaurant"},
{"company":"La Poste ","address":"3410 Telford St, Cincinnati, OH 45220","lat":39.144065,"lng":-84.520388,"bar/restaurant or carry-out":"bar/restaurant"},
{"company":"Main Drive Through","address":"3401 N Main St, Dayton, OH 45405","lat":39.796912,"lng":-84.217507,"bar/restaurant or carry-out":"carry-out"},
{"company":"Centerville Carryout","address":"34 W. Franklin St., Centerville, OH 45459","lat":39.628354,"lng":-84.160217,"bar/restaurant or carry-out":"carry-out"},
{"company":"Maineville Shell","address":"34 Grandin Rd., Maineville, OH 45039","lat":39.346247,"lng":-84.219531,"bar/restaurant or carry-out":"carry-out"},
{"company":"Babe's Café ","address":"3389 Glenmore Ave, Cincinnati, OH 45211","lat":39.149025,"lng":-84.613184,"bar/restaurant or carry-out":"bar/restaurant"},
{"company":"Keystone Bar & Grill ","address":"3384 Erie Ave., Cincinnati, OH 45208","lat":39.141474,"lng":-84.421118,"bar/restaurant or carry-out":"bar/restaurant"},
{"company":"Dutch's Pony Keg DBA Dutchs Bar ","address":"3378 Erie Ave., Cincinnati, OH 45208","lat":39.141427,"lng":-84.421578,"bar/restaurant or carry-out":"bar/restaurant"},
{"company":"Wine Guys - Bridgewater ","address":"3371 Princeton Rd., Hamilton, OH 45011","lat":39.390572,"lng":-84.503671,"bar/restaurant or carry-out":"bar/restaurant"},
{"company":"Beef O'Brady's - Beavercreek","address":"3347 SeaJay Dr., Beavercreek, OH 45430","lat":39.72058,"lng":-84.064208,"bar/restaurant or carry-out":"bar/restaurant"},
{"company":"China Gourmet ","address":"3340 Erie Ave., Cincinnati, OH 45208","lat":39.14173,"lng":-84.42291,"bar/restaurant or carry-out":"bar/restaurant"},
{"company":"S. Main St. Drive-Thru","address":"3324 S. Main St., Middletown, OH 45044","lat":39.480302,"lng":-84.419615,"bar/restaurant or carry-out":"carry-out"},
{"company":"Trader Joe's-673-Dayton","address":"328 E. Stroop Rd., Kettering, OH 45429","lat":39.688436,"lng":-84.166278,"bar/restaurant or carry-out":"carry-out"},
{"company":"BP-Beechwood","address":"3251 Mt. Carmel Rd., Cincinnati, OH 45244","lat":39.113973,"lng":-84.30799,"bar/restaurant or carry-out":"carry-out"},
{"company":"Station 1","address":"325 N. Fountain Ave, Springfield, OH 45504","lat":39.928838,"lng":-83.810189,"bar/restaurant or carry-out":"carry-out"},
{"company":"Fries Café ","address":"3247 Jefferson Ave., Cincinnati, OH 45220","lat":39.139755,"lng":-84.513074,"bar/restaurant or carry-out":"bar/restaurant"},
{"company":"Remke- Ridge","address":"3240 Highland Ave, Cincinnati, OH 45213","lat":39.16936,"lng":-84.428537,"bar/restaurant or carry-out":"carry-out"},
{"company":"Maribelle's Tavern ","address":"3235 Madison Rd, Cincinnati, OH 45209","lat":39.15476,"lng":-84.426647,"bar/restaurant or carry-out":"bar/restaurant"},
{"company":"Clifton International Market","address":"3232 Jefferson Ave., Cincinnati, OH 45220","lat":39.139141,"lng":-84.512015,"bar/restaurant or carry-out":"carry-out"},
{"company":"Stanley's ","address":"323 Stanley Ave, Cincinnati, OH 45226","lat":39.115075,"lng":-84.437369,"bar/restaurant or carry-out":"bar/restaurant"},
{"company":"Million's Café ","address":"3210 Linwood Ave., Cincinnati, OH 45226","lat":39.128202,"lng":-84.4299,"bar/restaurant or carry-out":"bar/restaurant"},
{"company":"Mt. Lookout Tavern ","address":"3209 Linwood Ave., Cincinnati, OH 45226","lat":39.128277,"lng":-84.430305,"bar/restaurant or carry-out":"bar/restaurant"},
{"company":"Wurst Bar on the Square ","address":"3204 Linwood Ave., Cincinnati, OH 45208","lat":39.128274,"lng":-84.429888,"bar/restaurant or carry-out":"bar/restaurant"},
{"company":"Red Feather ","address":"3200 Madison Rd., Cincinnati, OH 45209","lat":39.155078,"lng":-84.427449,"bar/restaurant or carry-out":"bar/restaurant"},
{"company":"Kroger 811 - Beavercreek","address":"3195 Dayton-Xenia Rd #500, Beavercreek, OH 45434","lat":39.725853,"lng":-84.054742,"bar/restaurant or carry-out":"carry-out"},
{"company":"Everything's D Vine","address":"318 W. 4th St., Cincinnati, OH 45202","lat":39.099153,"lng":-84.518096,"bar/restaurant or carry-out":"carry-out"},
{"company":"Joey's Deli ","address":"315 W. McMillan, Cincinnati, OH 45219","lat":39.127884,"lng":-84.523415,"bar/restaurant or carry-out":"bar/restaurant"},
{"company":"Todd's IGA Express","address":"313 W. State St., Trenton, OH 45067","lat":39.480946,"lng":-84.46248,"bar/restaurant or carry-out":"carry-out"},
{"company":"LaRosa's - Landen ","address":"3123 State Route 22 & 3, Maineville, OH 45039","lat":39.317002,"lng":-84.256846,"bar/restaurant or carry-out":"bar/restaurant"},
{"company":"Air City Beer and Wine","address":"3114 N. Dixie, Dayton, OH 45414","lat":39.793895,"lng":-84.1909,"bar/restaurant or carry-out":"carry-out"},
{"company":"311 Drafthouse","address":"311 N Main St., Piqua, OH 45356","lat":40.149866,"lng":-84.239626,"bar/restaurant or carry-out":"bar/restaurant"},
{"company":"Handy One","address":"3105 E. Dorothy Lane, Kettering, OH 45420","lat":39.69766,"lng":-84.107254,"bar/restaurant or carry-out":"carry-out"},
{"company":"Cappy's Carryout","address":"309 W Loveland Ave, Loveland, OH 45140","lat":39.268095,"lng":-84.260071,"bar/restaurant or carry-out":"carry-out"},
{"company":"Oak Tavern ","address":"3089 Madison Rd, Cincinnati, OH 45209","lat":39.15259,"lng":-84.430719,"bar/restaurant or carry-out":"bar/restaurant"},
{"company":"Arlin's Ludlow ","address":"307 Ludlow Ave, Cincinnati, OH 45220","lat":39.143534,"lng":-84.519681,"bar/restaurant or carry-out":"bar/restaurant"},
{"company":"Studio 35","address":"3055 Indianola Ave, Columbus, OH 43202","lat":40.026044,"lng":-83.001577,"bar/restaurant or carry-out":"bar/restaurant"},
{"company":"Ameristop - Lebanon","address":"304 E Main St., Lebanon, OH 45036","lat":39.433257,"lng":-84.203716,"bar/restaurant or carry-out":"carry-out"},
{"company":"Habit's Café ","address":"3036 Madison Rd., Cincinnati, OH 45209","lat":39.151709,"lng":-84.432567,"bar/restaurant or carry-out":"bar/restaurant"},
{"company":"20th Century Theatre ","address":"3036 madison rd, Cincinnati, OH 45209","lat":39.151709,"lng":-84.432567,"bar/restaurant or carry-out":"bar/restaurant"},
{"company":"Kroger 336 - Monroe","address":"3033 Heritage Green Dr, Monroe, OH 45050","lat":39.442801,"lng":-84.37775,"bar/restaurant or carry-out":"carry-out"},
{"company":"Mecklenburg Gardens ","address":"302 E. University Ave, Cincinnati, OH 45219","lat":39.132701,"lng":-84.502638,"bar/restaurant or carry-out":"bar/restaurant"},
{"company":"Dewey's Pizza - Oakley ","address":"3014 Madison Rd, Cincinnati, OH 45209","lat":39.151032,"lng":-84.433838,"bar/restaurant or carry-out":"bar/restaurant"},
{"company":"Village Shoppe & Go","address":"3011 Access Place, Cincinnati, OH 45241","lat":39.253694,"lng":-84.42425,"bar/restaurant or carry-out":"carry-out"},
{"company":"Main Stay Rock Bar ","address":"301 W 5th St., Cincinnati, OH 45202","lat":39.100239,"lng":-84.517957,"bar/restaurant or carry-out":"bar/restaurant"},
{"company":"Savor Growl","address":"2991 Indianola Ave, Columbus, OH 43214","lat":40.024733,"lng":-83.001889,"bar/restaurant or carry-out":"carry-out"},
{"company":"Arrow - Oakwood","address":"2950 Far Hills Ave., Dayton, OH 45419","lat":39.704977,"lng":-84.170057,"bar/restaurant or carry-out":"carry-out"},
{"company":"R.P.McMurphy's ","address":"2910 Wasson Rd., Cincinnati, OH 45209","lat":39.144603,"lng":-84.435073,"bar/restaurant or carry-out":"bar/restaurant"},
{"company":"Kroger 376 - St. Route 22 & 3","address":"2900 US Route 22, Maineville, OH 45039","lat":39.308678,"lng":-84.276517,"bar/restaurant or carry-out":"carry-out"},
{"company":"St. Mary Funfest ","address":"2853 Erie Ave, Cincinnati, OH 45208","lat":39.139082,"lng":-84.437589,"bar/restaurant or carry-out":"bar/restaurant"},
{"company":"Taste of Belgium - Short Vine ","address":"2845 Vine St., Cincinnati, OH 45219","lat":39.132609,"lng":-84.509753,"bar/restaurant or carry-out":"bar/restaurant"},
{"company":"Desales Market","address":"2841 Woodburn Ave., Cincinnati, OH 45206","lat":39.130039,"lng":-84.476732,"bar/restaurant or carry-out":"carry-out"},
{"company":"Carl's Deli ","address":"2836 Observatory, Cincinnati, OH 45208","lat":39.137431,"lng":-84.437291,"bar/restaurant or carry-out":"bar/restaurant"},
{"company":"Cincy Deli & Ice ","address":"2832 Jefferson Ave., Cincinnati, OH 45219","lat":39.132878,"lng":-84.51062,"bar/restaurant or carry-out":"bar/restaurant"},
{"company":"Rusty Bucket - Miami Twp","address":"2812 Miamisburg Centerville Rd., Dayton, OH 45459","lat":39.637245,"lng":-84.22205,"bar/restaurant or carry-out":"bar/restaurant"},
{"company":"The Daily Growler","address":"2812 Fishinger Road, Upper Arlington, OH 43221","lat":40.030122,"lng":-83.091091,"bar/restaurant or carry-out":"carry-out"},
{"company":"Springboro Wine and Spirits","address":"281 W Central Ave, Springboro, OH 45066","lat":39.559005,"lng":-84.241128,"bar/restaurant or carry-out":"carry-out"},
{"company":"Sweeney's Seafood","address":"28 W. Franklin St., Centerville, OH 45459","lat":39.628042,"lng":-84.159989,"bar/restaurant or carry-out":"bar/restaurant"},
{"company":"UC Catskeller ","address":"2766 Clifton Ave., Cincinnati, OH 45221","lat":39.133158,"lng":-84.520253,"bar/restaurant or carry-out":"bar/restaurant"},
{"company":"Cadillac Jack's - Beavercreek","address":"2760 Towne Dr., Beavercreek, OH 45431","lat":39.768605,"lng":-84.050245,"bar/restaurant or carry-out":"bar/restaurant"},
{"company":"Smoq ","address":"275 Pictoria Drive, Cincinnati, OH 45246","lat":39.297275,"lng":-84.480458,"bar/restaurant or carry-out":"bar/restaurant"},
{"company":"Cock -N- Bull ","address":"275 E Sharon Rd, Cincinnati, OH 45246","lat":39.271914,"lng":-84.458913,"bar/restaurant or carry-out":"bar/restaurant"},
{"company":"Chappy's Tap Room","address":"2733 W. Alex-Bell Rd., Dayton, OH 45449","lat":39.672723,"lng":-84.217215,"bar/restaurant or carry-out":"bar/restaurant"},
{"company":"Kroger 835 - E Main","address":"2728 East Main Street, Springfield, OH 45503","lat":39.923673,"lng":-83.765576,"bar/restaurant or carry-out":"carry-out"},
{"company":"Spinoza's","address":"2727 Fairfield Commons Blvd, Beavercreek, OH 45431","lat":39.767377,"lng":-84.056717,"bar/restaurant or carry-out":"bar/restaurant"},
{"company":"Alfios Buon Cibo ","address":"2724 Erie Ave., Cincinnati, OH 45208","lat":39.139771,"lng":-84.442193,"bar/restaurant or carry-out":"bar/restaurant"},
{"company":"Hyde Park Wine & Spirits","address":"2719 Madison Rd., Cincinnati, OH 45209","lat":39.145391,"lng":-84.442633,"bar/restaurant or carry-out":"carry-out"},
{"company":"Dorothy Lane - Oakwood","address":"2710 Far Hills Ave., Dayton, OH 45419","lat":39.706466,"lng":-84.17059,"bar/restaurant or carry-out":"carry-out"},
{"company":"Teller's ","address":"2710 Erie Avenue, Cincinnati, OH 45208","lat":39.140009,"lng":-84.442785,"bar/restaurant or carry-out":"bar/restaurant"},
{"company":"Golden Lamb ","address":"27-31 S Broadway St, Lebanon, OH 45036","lat":39.433807,"lng":-84.208809,"bar/restaurant or carry-out":"bar/restaurant"},
{"company":"BP - Hyde Park","address":"2697 Madison Rd., Norwood, OH 45208","lat":39.145354,"lng":-84.442944,"bar/restaurant or carry-out":"carry-out"},
{"company":"Whole Foods - Cincinnati","address":"2693 Edmondson Rd., Cincinnati, OH 45209","lat":39.145638,"lng":-84.447205,"bar/restaurant or carry-out":"carry-out"},
{"company":"Buffalo Wild Wings - Norwood","address":"2692 Madison Rd., Norwood, OH 45208","lat":39.145753,"lng":-84.443891,"bar/restaurant or carry-out":"bar/restaurant"},
{"company":"Wine Guys - Rookwood ","address":"2692 Madison Rd., Cincinnati, OH 45208","lat":39.146504,"lng":-84.44446,"bar/restaurant or carry-out":"bar/restaurant"},
{"company":"Rusty Bucket - Hyde Park","address":"2692 Madison Rd., Cincinnati, OH 45208","lat":39.145753,"lng":-84.443891,"bar/restaurant or carry-out":"bar/restaurant"},
{"company":"Bronte Bistro at Joseph Beth ","address":"2692 Madison Ave., Cincinnati, OH 45208","lat":39.146504,"lng":-84.44446,"bar/restaurant or carry-out":"bar/restaurant"},
{"company":"Pub - Rookwood ","address":"2692 Edmondson Rd., Norwood, OH 45209","lat":39.148899,"lng":-84.444231,"bar/restaurant or carry-out":"bar/restaurant"},
{"company":"Fox & Hound - Beavercreek","address":"2661 Fairfield Commons Blvd., Beavercreek, OH 45431","lat":39.768173,"lng":-84.058959,"bar/restaurant or carry-out":"bar/restaurant"},
{"company":"Grapes Wine & Beer - Moraine","address":"2653 West Alex-Bell Rd., Moraine, OH 45459","lat":39.673011,"lng":-84.21533,"bar/restaurant or carry-out":"carry-out"},
{"company":"Cock -N- Bull Hyde Park ","address":"2653 Erie Ave., Cincinnati, OH 45208","lat":39.139742,"lng":-84.443988,"bar/restaurant or carry-out":"bar/restaurant"},
{"company":"Dewey's Pizza - Clifton ","address":"265 Hosea Ave, Cincinnati, OH 45220","lat":39.143679,"lng":-84.518446,"bar/restaurant or carry-out":"bar/restaurant"},
{"company":"One Eyed Jack-DAYTON","address":"2638 Colonel Glenn Hwy, Fairborn, OH 45324","lat":39.777971,"lng":-84.054578,"bar/restaurant or carry-out":"bar/restaurant"},
{"company":"Mio's Pizza - Clifton ","address":"2634 Vine St., Cincinnati, OH 45219","lat":39.130227,"lng":-84.509187,"bar/restaurant or carry-out":"bar/restaurant"},
{"company":"J. Alexander's - Cincinnati ","address":"2629 Edmundson Rd., Cincinnati, OH 45209","lat":39.148479,"lng":-84.44325,"bar/restaurant or carry-out":"bar/restaurant"},
{"company":"Bogart's ","address":"2621 Vine St., Cincinnati, OH 45219","lat":39.12992,"lng":-84.509549,"bar/restaurant or carry-out":"bar/restaurant"},
{"company":"Belmont Party Supply","address":"2621 S.Smithville Rd., Dayton, OH 45420","lat":39.72894,"lng":-84.141302,"bar/restaurant or carry-out":"carry-out"},
{"company":"Kroger 468 - Amelia","address":"262 W Main St., Amelia, OH 45102","lat":39.036684,"lng":-84.231652,"bar/restaurant or carry-out":"carry-out"},
{"company":"Dive Bar - Cincy ","address":"2608 Vine St, Cincinnati, OH 45219","lat":39.129486,"lng":-84.509272,"bar/restaurant or carry-out":"bar/restaurant"},
{"company":"Incline Public House","address":"2601 W. 8th St., Cincinnati, OH 45204","lat":39.105074,"lng":-84.556595,"bar/restaurant or carry-out":"bar/restaurant"},
{"company":"Brothers Drake Meadery","address":"26 E. 5th Ave., Columbus, OH 43201","lat":39.987312,"lng":-83.004597,"bar/restaurant or carry-out":"bar/restaurant"},
{"company":"Roosters- Springboro","address":"257 W Central Ave., Springboro, OH 45066","lat":39.558847,"lng":-84.240546,"bar/restaurant or carry-out":"bar/restaurant"},
{"company":"Minnick's Drive Thru","address":"2537 Pleasant Ave., Hamilton, OH 45015","lat":39.371051,"lng":-84.557757,"bar/restaurant or carry-out":"carry-out"},